{"pharmacies":[{"id":"JDQ4MTYyMiM3MSMkMSMkMCMkMDMkMzgxNzAyIzUxIyQxIyQxIyQ4MiQ0NjE0ODEjNTEjJDEjJDYjJDgz","name":"123약국","category":"약국","sido":"광주","sigungu":"광주동구","address":"광주광역시 동구 동계로 71, 1층 (계림동)","phone":"062-710-9874","openDate":"2024-12-16","longitude":126.9231572,"latitude":35.1581494},{"id":"JDQ4MTYyMiM3MSMkMSMkMCMkMDMkMzgxOTYxIzUxIyQxIyQxIyQ5OSQzNjEyMjIjNzEjJDEjJDgjJDgz","name":"21세기건강약국","category":"약국","sido":"광주","sigungu":"광주북구","address":"광주광역시 북구 면앙로32번길 1, (문흥동)","phone":"062-261-5627","openDate":"1996-03-28","longitude":126.9158356,"latitude":35.1794314},{"id":"JDQ4MTYyMiM3MSMkMSMkMCMkMDMkMzgxNzAyIzExIyQxIyQzIyQ5OSQzNjEwMDIjODEjJDEjJDYjJDgz","name":"21세기건강약국","category":"약국","sido":"광주","sigungu":"광주광산구","address":"광주광역시 광산구 임방울대로 166, 1층 (운남동)","phone":"062-955-7336","openDate":"2011-04-14","longitude":126.8179902,"latitude":35.1761523},{"id":"JDQ4MTYyMiM3MSMkMSMkMCMkMDMkMzgxMTkxIzQxIyQxIyQ3IyQ3OSQyNjE0ODEjNTEjJDEjJDIjJDgz","name":"21세기약국","category":"약국","sido":"광주","sigungu":"광주서구","address":"광주광역시 서구 금화로 240, 월드컵경기장 2층 (풍암동)","phone":"062-652-8825","openDate":"2018-09-28","longitude":126.8748916,"latitude":35.1337232},{"id":"JDQ4MTYyMiM3MSMkMSMkMCMkMDMkMzgxNzAyIzMxIyQxIyQzIyQ2MiQyNjEwMDIjNTEjJDEjJDIjJDgz","name":"24시새벽약국","category":"약국","sido":"광주","sigungu":"광주광산구","address":"광주광역시 광산구 장덕로95번길 16, 207동 107호 (장덕동, 수완2차숲안애)","phone":"062-954-4500","openDate":"2018-12-24","longitude":126.8203166,"latitude":35.1967605},{"id":"JDQ4MTYyMiM3MSMkMSMkMCMkMDMkMzgxNzAyIzQxIyQxIyQ3IyQ3MiQzNjE0ODEjNzEjJDEjJDgjJDgz","name":"365 대기없는 약국","category":"약국","sido":"광주","sigungu":"광주동구","address":"광주광역시 동구 백서로 157, (서석동)","phone":"070-4833-4222","openDate":"2022-09-05","longitude":126.9222681,"latitude":35.1432816},{"id":"JDQ4MTYyMiM3MSMkMSMkMCMkMDMkMzgxNzAyIzQxIyQxIyQ3IyQ4MiQ0NjEwMDIjNjEjJDEjJDQjJDgz","name":"365 열시약국","category":"약국","sido":"광주","sigungu":"광주북구","address":"광주광역시 북구 군왕로 297, 365 열시약국 (각화동)","phone":"","openDate":"2023-01-10","longitude":126.9358542,"latitude":35.1870944},{"id":"JDQ4MTYyMiM3MSMkMSMkMCMkMDMkMzgxNzAyIzMxIyQxIyQzIyQxMyQzNjEwMDIjNDEjJDEjJDgjJDgz","name":"365문화전당약국","category":"약국","sido":"광주","sigungu":"광주동구","address":"광주광역시 동구 서석로 46, 1층 (광산동)","phone":"","openDate":"2020-01-15","longitude":126.918524,"latitude":35.1466011},{"id":"JDQ4MTYyMiM3MSMkMSMkMCMkMDMkMzgxNzAyIzUxIyQxIyQxIyQ3MiQzNjEwMDIjNDEjJDEjJDgjJDgz","name":"365화목약국","category":"약국","sido":"광주","sigungu":"광주동구","address":"광주광역시 동구 독립로264번길 2, (금남로5가)","phone":"0502-1902-3378","openDate":"2024-03-07","longitude":126.911303,"latitude":35.1545597},{"id":"JDQ4MTYyMiM3MSMkMSMkMCMkMDMkMzgxMTkxIzExIyQxIyQzIyQ5OSQzNjE0ODEjNjEjJDEjJDQjJDgz","name":"3층우리약국","category":"약국","sido":"광주","sigungu":"광주남구","address":"광주광역시 남구 대남대로 219, 3층 304호 (주월동, 주월동 홀리어스 오피스텔)","phone":"062-674-3600","openDate":"2021-03-08","longitude":126.9004997,"latitude":35.1331091},{"id":"JDQ4MTYyMiM3MSMkMSMkMCMkMDMkMzgxNzAyIzMxIyQxIyQzIyQ5MiQ0NjEwMDIjNDEjJDEjJDQjJDgz","name":"ACC라온약국","category":"약국","sido":"광주","sigungu":"광주동구","address":"광주광역시 동구 문화전당로26번길 6, 102호 (남동)","phone":"","openDate":"2024-12-02","longitude":126.9201699,"latitude":35.144862},{"id":"JDQ4MTYyMiM3MSMkMSMkMCMkMDMkMzgxNzAyIzIxIyQxIyQxIyQ3OSQ0NjEwMDIjNDEjJDEjJDQjJDgz","name":"LaVita미래약국","category":"약국","sido":"광주","sigungu":"광주서구","address":"광주광역시 서구 운천로 131, A동 지하1층 105호 (쌍촌동)","phone":"062-676-3111","openDate":"2014-03-04","longitude":126.8569451,"latitude":35.1445155},{"id":"JDQ4MTYyMiM3MSMkMSMkMCMkMDMkMzgxMzUxIzMxIyQyIyQ3IyQwMCQyNjE0ODEjNzEjJDEjJDgjJDgz","name":"가든약국","category":"약국","sido":"광주","sigungu":"광주북구","address":"광주광역시 북구 제봉로 297, (중흥동)","phone":"062-527-0550","openDate":"1988-02-01","longitude":126.9100493,"latitude":35.1609526},{"id":"JDQ4MTYyMiM3MSMkMSMkMCMkMDMkMzgxMzUxIzMxIyQxIyQzIyQ3MiQzNjEwMDIjNjEjJDEjJDgjJDgz","name":"감마약국","category":"약국","sido":"광주","sigungu":"광주북구","address":"광주광역시 북구 서암대로 167-2, (신안동)","phone":"062-512-7585","openDate":"1980-01-07","longitude":126.9026898,"latitude":35.1693428},{"id":"JDQ4MTYyMiM3MSMkMSMkMCMkMDMkMzgxMzUxIzMxIyQxIyQ3IyQ2MiQ0NjEwMDIjODEjJDEjJDIjJDgz","name":"감초당약국","category":"약국","sido":"광주","sigungu":"광주광산구","address":"광주광역시 광산구 상무대로 262-1, (송정동)","phone":"062-942-5931","openDate":"1988-02-01","longitude":126.7952759,"latitude":35.1417914},{"id":"JDQ4MTYyMiM3MSMkMSMkMCMkMDMkMzgxMTkxIzQxIyQxIyQ3IyQ2MiQ0NjEwMDIjNjEjJDEjJDQjJDgz","name":"강남약국","category":"약국","sido":"광주","sigungu":"광주남구","address":"광주광역시 남구 대남대로 338, (월산동)","phone":"062-369-3357","openDate":"2018-09-27","longitude":126.8935713,"latitude":35.141947},{"id":"JDQ4MTYyMiM3MSMkMSMkMCMkMDMkMzgxNzAyIzMxIyQxIyQzIyQ4OSQzNjE0ODEjNjEjJDEjJDQjJDgz","name":"건강가득약국","category":"약국","sido":"광주","sigungu":"광주북구","address":"광주광역시 북구 동문대로 179, 1층 (두암동)","phone":"062-265-8275","openDate":"2021-04-19","longitude":126.9288057,"latitude":35.1783227},{"id":"JDQ4MTYyMiM3MSMkMSMkMCMkMDMkMzgxOTYxIzIxIyQxIyQ1IyQ5MiQyNjE0ODEjNTEjJDEjJDIjJDgz","name":"건강도움약국","category":"약국","sido":"광주","sigungu":"광주서구","address":"광주광역시 서구 월드컵4강로 114, 성준빌딩 1층 101호 (화정동)","phone":"062-682-8500","openDate":"2000-09-25","longitude":126.8725678,"latitude":35.1468304},{"id":"JDQ4MTYyMiM3MSMkMSMkMCMkMDMkMzgxNzAyIzExIyQxIyQ3IyQ3OSQ0NjEwMDIjNTEjJDEjJDYjJDgz","name":"건강드림365약국","category":"약국","sido":"광주","sigungu":"광주광산구","address":"광주광역시 광산구 장신로 77, (장덕동)","phone":"062-449-0365","openDate":"2012-08-13","longitude":126.818566,"latitude":35.1912399},{"id":"JDQ4MTYyMiM3MSMkMSMkMCMkMDMkMzgxMTkxIzMxIyQxIyQzIyQ3OSQyNjEwMDIjODEjJDEjJDIjJDgz","name":"건강드림약국","category":"약국","sido":"광주","sigungu":"광주북구","address":"광주광역시 북구 동문대로 102, 장안빌딩 106호 (두암동)","phone":"062-261-1230","openDate":"2018-08-21","longitude":126.9248,"latitude":35.1722489},{"id":"JDQ4MTYyMiM3MSMkMSMkMCMkMDMkMzgxNzAyIzIxIyQxIyQ1IyQwMyQzNjE0ODEjNTEjJDEjJDYjJDgz","name":"건강백세약국","category":"약국","sido":"광주","sigungu":"광주서구","address":"광주광역시 서구 대남대로 424-1, (농성동)","phone":"062-351-9633","openDate":"2016-04-15","longitude":126.8884748,"latitude":35.148594},{"id":"JDQ4MTYyMiM3MSMkMSMkMCMkMDMkMzgxOTYxIzUxIyQxIyQxIyQ5OSQyNjE0ODEjODEjJDEjJDIjJDgz","name":"건강샘약국","category":"약국","sido":"광주","sigungu":"광주동구","address":"광주광역시 동구 제봉로 207, (대인동)","phone":"062-223-5587","openDate":"2001-01-27","longitude":126.9148014,"latitude":35.1539177},{"id":"JDQ4MTYyMiM3MSMkMSMkMCMkMDMkMzgxNzAyIzExIyQxIyQzIyQ3MiQyNjEwMDIjODEjJDEjJDIjJDgz","name":"건강약국","category":"약국","sido":"광주","sigungu":"광주광산구","address":"광주광역시 광산구 사암로 211, (우산동)","phone":"062-955-5652","openDate":"2020-04-28","longitude":126.8080329,"latitude":35.1633616},{"id":"JDQ4MTYyMiM3MSMkMSMkMCMkMDMkMzgxNzAyIzQxIyQxIyQ3IyQ5OSQyNjE4MzIjNzEjJDEjJDgjJDgz","name":"건강약국","category":"약국","sido":"광주","sigungu":"광주북구","address":"광주광역시 북구 군왕로207번길 16, 각화 영구임대아파트 (각화동)","phone":"","openDate":"2022-03-10","longitude":126.9350863,"latitude":35.1798377},{"id":"JDQ4MTYyMiM3MSMkMSMkMCMkMDMkMzgxNzAyIzUxIyQxIyQxIyQwMyQyNjE4MzIjNzEjJDEjJDgjJDgz","name":"건강온누리약국","category":"약국","sido":"광주","sigungu":"광주서구","address":"광주광역시 서구 상무대로 1046, 1층 (화정동)","phone":"062-385-7788","openDate":"2017-10-19","longitude":126.8764249,"latitude":35.1516321},{"id":"JDQ4MTYyMiM3MSMkMSMkMCMkMDMkMzgxMTkxIzUxIyQxIyQxIyQwMyQzNjEyMjIjNjEjJDEjJDgjJDgz","name":"건강온누리약국","category":"약국","sido":"광주","sigungu":"광주북구","address":"광주광역시 북구 서암대로 37, (운암동)","phone":"062-526-5700","openDate":"2009-04-01","longitude":126.8888762,"latitude":35.1728838},{"id":"JDQ4MTYyMiM3MSMkMSMkMCMkMDMkMzgxOTYxIzMxIyQxIyQ3IyQ3OSQzNjEyMjIjNDEjJDEjJDQjJDgz","name":"건강우리약국","category":"약국","sido":"광주","sigungu":"광주광산구","address":"광주광역시 광산구 신창로 46, 1층 (신창동)","phone":"062-953-7868","openDate":"2017-01-11","longitude":126.8372896,"latitude":35.1894175},{"id":"JDQ4MTYyMiM3MSMkMSMkMCMkMDMkMzgxNzAyIzMxIyQxIyQ3IyQwMyQzNjE0ODEjNTEjJDEjJDIjJDgz","name":"건강제일약국","category":"약국","sido":"광주","sigungu":"광주북구","address":"광주광역시 북구 동문대로 88, (두암동)","phone":"062-251-6530","openDate":"2021-07-13","longitude":126.9237669,"latitude":35.1714554},{"id":"JDQ4MTYyMiM3MSMkMSMkMCMkMDMkMzgxOTYxIzQxIyQxIyQ3IyQ5OSQzNjE4MzIjODEjJDEjJDYjJDgz","name":"건강한 약국","category":"약국","sido":"광주","sigungu":"광주남구","address":"광주광역시 남구 효우로 79, (노대동)","phone":"062-675-1185","openDate":"2017-07-31","longitude":126.9046244,"latitude":35.1065323},{"id":"JDQ4MTYyMiM3MSMkMSMkMCMkMDMkMzgxOTYxIzIxIyQxIyQ5IyQ5OSQzNjEwMDIjNTEjJDEjJDYjJDgz","name":"건강한미래약국","category":"약국","sido":"광주","sigungu":"광주광산구","address":"광주광역시 광산구 임방울대로 780, 1층 (월계동)","phone":"062-974-0555","openDate":"2017-01-01","longitude":126.8435841,"latitude":35.2172835},{"id":"JDQ4MTYyMiM3MSMkMSMkMCMkMDMkMzgxNzAyIzMxIyQxIyQzIyQ2MiQ0NjE0ODEjNDEjJDEjJDQjJDgz","name":"건강한약국","category":"약국","sido":"광주","sigungu":"광주동구","address":"광주광역시 동구 양림로119번길 21-1, 1층 (학동)","phone":"062-227-0781","openDate":"2019-02-01","longitude":126.9193903,"latitude":35.1415185},{"id":"JDQ4MTYyMiM3MSMkMSMkMCMkMDMkMzgxNzAyIzIxIyQxIyQxIyQ5OSQzNjEyMjIjNDEjJDEjJDQjJDgz","name":"건강한행복약국","category":"약국","sido":"광주","sigungu":"광주서구","address":"광주광역시 서구 월드컵4강로 30, 1층 (화정동)","phone":"062-366-7175","openDate":"2011-01-06","longitude":126.876442,"latitude":35.1399308},{"id":"JDQ4MTYyMiM3MSMkMSMkMCMkMDMkMzgxNzAyIzQxIyQxIyQ3IyQ5MiQzNjEyMjIjODEjJDEjJDIjJDgz","name":"건행약국","category":"약국","sido":"광주","sigungu":"광주동구","address":"광주광역시 동구 동계로 61, 1층 103호 (계림동)","phone":"062-234-8418","openDate":"2023-02-20","longitude":126.923441,"latitude":35.15712},{"id":"JDQ4MTYyMiM3MSMkMSMkMCMkMDMkMzgxOTYxIzIxIyQxIyQ1IyQ3OSQyNjEwMDIjNDEjJDEjJDQjJDgz","name":"계림약국","category":"약국","sido":"광주","sigungu":"광주동구","address":"광주광역시 동구 경양로 282-1, 1층 (계림동)","phone":"062-226-2227","openDate":"2020-12-29","longitude":126.9202721,"latitude":35.1546878},{"id":"JDQ4MTYyMiM3MSMkMSMkMCMkMDMkMzgxNzAyIzQxIyQxIyQ3IyQxMyQyNjE0ODEjNTEjJDEjJDYjJDgz","name":"고래약국","category":"약국","sido":"광주","sigungu":"광주광산구","address":"광주광역시 광산구 선운중앙로 65, 109호 (선암동)","phone":"062-452-1730","openDate":"2023-05-22","longitude":126.7791896,"latitude":35.148282},{"id":"JDQ4MTYyMiM3MSMkMSMkMCMkMDMkMzgxMzUxIzMxIyQxIyQzIyQ4MiQzNjE0ODEjNjEjJDEjJDQjJDgz","name":"고명약국","category":"약국","sido":"광주","sigungu":"광주북구","address":"광주광역시 북구 면앙로 179, (두암동)","phone":"062-261-1989","openDate":"1983-07-22","longitude":126.931297,"latitude":35.1757642},{"id":"JDQ4MTYyMiM3MSMkMSMkMCMkMDMkMzgxMTkxIzUxIyQxIyQ1IyQ5MiQyNjEyMjIjNTEjJDEjJDIjJDgz","name":"고실건강약국","category":"약국","sido":"광주","sigungu":"광주광산구","address":"광주광역시 광산구 풍영로330번길 15, (장덕동,휴먼시아 8단지 주상가 102-2호)","phone":"062-955-7327","openDate":"2011-02-14","longitude":126.8164366,"latitude":35.2011789},{"id":"JDQ4MTYyMiM3MSMkMSMkMCMkMDMkMzgxNzAyIzIxIyQxIyQ1IyQ4OSQ0NjE0ODEjNjEjJDEjJDQjJDgz","name":"광명당약국","category":"약국","sido":"광주","sigungu":"광주동구","address":"광주광역시 동구 중앙로 276, (계림동)","phone":"062-224-0330","openDate":"1997-09-23","longitude":126.9208701,"latitude":35.1563377},{"id":"JDQ4MTYyMiM3MSMkMSMkMCMkMDMkMzgxMzUxIzIxIyQxIyQ5IyQ4OSQyNjE4MzIjNjEjJDEjJDAjJDgz","name":"광민약국","category":"약국","sido":"광주","sigungu":"광주남구","address":"광주광역시 남구 봉주길 3, (월산동)","phone":"062-364-6288","openDate":"1996-02-06","longitude":126.8936004,"latitude":35.1371695},{"id":"JDQ4MTYyMiM3MSMkMSMkMCMkMDMkMzgxOTYxIzMxIyQxIyQ3IyQ5MiQ0NjEwMDIjNjEjJDEjJDQjJDgz","name":"광산아이사랑약국","category":"약국","sido":"광주","sigungu":"광주광산구","address":"광주광역시 광산구 임방울대로 162, 1층 105호 (운남동)","phone":"062-946-7171","openDate":"2017-01-01","longitude":126.8180638,"latitude":35.1755833},{"id":"JDQ4MTYyMiM3MSMkMSMkMCMkMDMkMzgxNzAyIzIxIyQxIyQ5IyQ2MiQzNjE4MzIjNjEjJDEjJDQjJDgz","name":"광산약국","category":"약국","sido":"광주","sigungu":"광주광산구","address":"광주광역시 광산구 상무대로 157, 1층 (송정동)","phone":"062-944-0209","openDate":"2017-05-01","longitude":126.789001,"latitude":35.1339978},{"id":"JDQ4MTYyMiM3MSMkMSMkMCMkMDMkMzgxMTkxIzIxIyQxIyQxIyQ4OSQ0NjE0ODEjNTEjJDEjJDYjJDgz","name":"광산종로약국","category":"약국","sido":"광주","sigungu":"광주광산구","address":"광주광역시 광산구 내상로 5-1, 1층 (송정동)","phone":"062-941-8128","openDate":"2017-11-30","longitude":126.7951398,"latitude":35.1410103},{"id":"JDQ4MTYyMiM3MSMkMSMkMCMkMDMkMzgxOTYxIzIxIyQxIyQ1IyQwMyQzNjE4MzIjNzEjJDEjJDgjJDgz","name":"광암약국","category":"약국","sido":"광주","sigungu":"광주광산구","address":"광주광역시 광산구 사암로 273, 1층 (월곡동)","phone":"062-941-7582","openDate":"2019-02-27","longitude":126.8087655,"latitude":35.1687726},{"id":"JDQ4MTYyMiM3MSMkMSMkMCMkMDMkMzgxMTkxIzQxIyQxIyQ3IyQ4MiQ0NjE0ODEjNDEjJDEjJDgjJDgz","name":"광장약국","category":"약국","sido":"광주","sigungu":"광주남구","address":"광주광역시 남구 양림로 20, (양림동)","phone":"062-651-7851","openDate":"2014-01-23","longitude":126.9118934,"latitude":35.1356561},{"id":"JDQ4MTYyMiM3MSMkMSMkMCMkMDMkMzgxOTYxIzIxIyQxIyQxIyQ3OSQyNjE4MzIjNDEjJDEjJDQjJDgz","name":"광장약국","category":"약국","sido":"광주","sigungu":"광주광산구","address":"광주광역시 광산구 송도로 230, (송정동)","phone":"062-941-0822","openDate":"2004-09-01","longitude":126.7970462,"latitude":35.1343584},{"id":"JDQ4MTYyMiM3MSMkMSMkMCMkMDMkMzgxMTkxIzIxIyQxIyQ5IyQxMyQyNjEyMjIjNjEjJDEjJDQjJDgz","name":"광장약국","category":"약국","sido":"광주","sigungu":"광주북구","address":"광주광역시 북구 서하로 385, (문흥동)","phone":"062-261-1103","openDate":"2003-10-09","longitude":126.9224868,"latitude":35.1854497},{"id":"JDQ4MTYyMiM3MSMkMSMkMCMkMDMkMzgxNzAyIzMxIyQxIyQ3IyQ4OSQyNjEyMjIjNjEjJDEjJDQjJDgz","name":"광장약국","category":"약국","sido":"광주","sigungu":"광주동구","address":"광주광역시 동구 남문로744번길 21, (학동)","phone":"062-2226-0225","openDate":"2016-11-30","longitude":126.9265622,"latitude":35.1379387},{"id":"JDQ4MTYyMiM3MSMkMSMkMCMkMDMkMzgxOTYxIzQxIyQxIyQ3IyQ3OSQ0NjEwMDIjNDEjJDEjJDgjJDgz","name":"광주백제약국","category":"약국","sido":"광주","sigungu":"광주동구","address":"광주광역시 동구 제봉로 200, (대인동)","phone":"232-1570","openDate":"2001-03-28","longitude":126.9157414,"latitude":35.1539058},{"id":"JDQ4MTYyMiM3MSMkMSMkMCMkMDMkMzgxMzUxIzIxIyQxIyQxIyQ3MiQyNjEwMDIjNjEjJDEjJDAjJDgz","name":"광주보령약국","category":"약국","sido":"광주","sigungu":"광주서구","address":"광주광역시 서구 상무대로1080번길 1, 1층 (화정동)","phone":"062-352-7588","openDate":"2000-06-05","longitude":126.880216,"latitude":35.1523374},{"id":"JDQ4MTYyMiM3MSMkMSMkMCMkMDMkMzgxNzAyIzUxIyQxIyQxIyQwMyQ0NjE0ODEjODEjJDEjJDIjJDgz","name":"광주빛고을약국","category":"약국","sido":"광주","sigungu":"광주광산구","address":"광주광역시 광산구 월곡산정로 12, 1층 104호 (우산동, 하남주공아파트상가동)","phone":"062-951-9987","openDate":"2016-09-29","longitude":126.8026708,"latitude":35.1657166},{"id":"JDQ4MTYyMiM3MSMkMSMkMCMkMDMkMzgxMzUxIzMxIyQxIyQzIyQ2MiQzNjEwMDIjODEjJDEjJDYjJDgz","name":"광주약국","category":"약국","sido":"광주","sigungu":"광주동구","address":"광주광역시 동구 서암대로 318, 1층 (계림동)","phone":"062-512-1415","openDate":"1987-01-19","longitude":126.9181452,"latitude":35.1648516},{"id":"JDQ4MTYyMiM3MSMkMSMkMCMkMDMkMzgxOTYxIzIxIyQxIyQ1IyQ2MiQzNjEyMjIjNDEjJDEjJDQjJDgz","name":"광주종로온누리약국","category":"약국","sido":"광주","sigungu":"광주남구","address":"광주광역시 남구 용대로 142, 1층 (방림동)","phone":"062-651-8222","openDate":"1991-11-29","longitude":126.9183654,"latitude":35.1288863},{"id":"JDQ4MTYyMiM3MSMkMSMkMCMkMDMkMzgxOTYxIzMxIyQxIyQzIyQ3MiQ0NjEwMDIjNjEjJDEjJDAjJDgz","name":"광주평화약국","category":"약국","sido":"광주","sigungu":"광주동구","address":"광주광역시 동구 제봉로 64, (남동)","phone":"062-222-8707","openDate":"2004-09-06","longitude":126.9214579,"latitude":35.1440822},{"id":"JDQ4MTYyMiM3MSMkMSMkMCMkMDMkMzgxMTkxIzExIyQyIyQzIyQwMCQ0NjEwMDIjNTEjJDEjJDYjJDgz","name":"광천수약국","category":"약국","sido":"광주","sigungu":"광주서구","address":"광주광역시 서구 무진대로 965, 101호 (광천동)","phone":"062-351-0801","openDate":"2022-02-25","longitude":126.8860533,"latitude":35.1615353},{"id":"JDQ4MTYyMiM3MSMkMSMkMCMkMDMkMzgxNzAyIzQxIyQxIyQ3IyQ4MiQzNjE0ODEjNjEjJDEjJDAjJDgz","name":"국민약국","category":"약국","sido":"광주","sigungu":"광주동구","address":"광주광역시 동구 제봉로 39, (학동)","phone":"062-224-3378","openDate":"2012-04-16","longitude":126.92059,"latitude":35.1420327},{"id":"JDQ4MTYyMiM3MSMkMSMkMCMkMDMkMzgxMTkxIzUxIyQxIyQxIyQ2MiQyNjE0ODEjODEjJDEjJDIjJDgz","name":"국제약국","category":"약국","sido":"광주","sigungu":"광주동구","address":"광주광역시 동구 제봉로 39-1, 1층 (학동)","phone":"062-262-6521","openDate":"2016-12-20","longitude":126.9205342,"latitude":35.1420983},{"id":"JDQ4MTYyMiM3MSMkMSMkMCMkMDMkMzgxMzUxIzMxIyQxIyQ3IyQ3OSQzNjE4MzIjNTEjJDEjJDIjJDgz","name":"국제약국","category":"약국","sido":"광주","sigungu":"광주남구","address":"광주광역시 남구 봉선2로 96-14, 201호 (봉선동, 무등파크 2차 상가)","phone":"062-672-3990","openDate":"1992-09-29","longitude":126.9162579,"latitude":35.1249959},{"id":"JDQ4MTYyMiM3MSMkMSMkMCMkMDMkMzgxMzUxIzIxIyQxIyQxIyQwMyQzNjE0ODEjNDEjJDEjJDgjJDgz","name":"국제약국","category":"약국","sido":"광주","sigungu":"광주북구","address":"광주광역시 북구 무등로 51, (운암동)","phone":"062-654-1413","openDate":"1987-01-15","longitude":126.8899645,"latitude":35.1695228},{"id":"JDQ4MTYyMiM3MSMkMSMkMCMkMDMkMzgxNzAyIzUxIyQxIyQxIyQ4OSQyNjE4MzIjNjEjJDEjJDgjJDgz","name":"굿모닝약국","category":"약국","sido":"광주","sigungu":"광주북구","address":"광주광역시 북구 서방로 89, 1층 103호 (우산동)","phone":"","openDate":"2023-10-19","longitude":126.9223136,"latitude":35.1712572},{"id":"JDQ4MTYyMiM3MSMkMSMkMCMkMDMkMzgxMTkxIzUxIyQxIyQxIyQwMyQ0NjEwMDIjNDEjJDEjJDgjJDgz","name":"굿모닝약국","category":"약국","sido":"광주","sigungu":"광주남구","address":"광주광역시 남구 대남대로 299, (월산동)","phone":"062-351-2030","openDate":"2009-05-04","longitude":126.8952965,"latitude":35.1387606},{"id":"JDQ4MTYyMiM3MSMkMSMkMCMkMDMkMzgxOTYxIzQxIyQxIyQ3IyQ4MiQ0NjEwMDIjNjEjJDEjJDAjJDgz","name":"굿모닝약국","category":"약국","sido":"광주","sigungu":"광주광산구","address":"광주광역시 광산구 신창로 124, 1층 (신창동)","phone":"062-952-2623","openDate":"2006-04-28","longitude":126.838639,"latitude":35.1961911},{"id":"JDQ4MTYyMiM3MSMkMSMkMCMkMDMkMzgxOTYxIzMxIyQxIyQzIyQ5OSQzNjE0ODEjNDEjJDEjJDgjJDgz","name":"그랜드 온누리 약국","category":"약국","sido":"광주","sigungu":"광주남구","address":"광주광역시 남구 봉선2로 68, 뮤엠영어 1층 (봉선동)","phone":"062-671-5550","openDate":"2015-01-30","longitude":126.9137205,"latitude":35.1256149},{"id":"JDQ4MTYyMiM3MSMkMSMkMCMkMDMkMzgxMTkxIzExIyQxIyQzIyQxMyQyNjEyMjIjNDEjJDEjJDQjJDgz","name":"그랜드약국","category":"약국","sido":"광주","sigungu":"광주북구","address":"광주광역시 북구 우치로 237, (오치동)","phone":"062-251-0977","openDate":"1999-10-08","longitude":126.9050455,"latitude":35.1859456},{"id":"JDQ4MTYyMiM3MSMkMSMkMCMkMDMkMzgxOTYxIzMxIyQyIyQ3IyQwMCQ0NjE0ODEjODEjJDEjJDIjJDgz","name":"그린약국","category":"약국","sido":"광주","sigungu":"광주서구","address":"광주광역시 서구 운천로56번길 10, (금호동)","phone":"062-372-3373","openDate":"1994-11-25","longitude":126.8599665,"latitude":35.1374113},{"id":"JDQ4MTYyMiM3MSMkMSMkMCMkMDMkMzgxOTYxIzIxIyQxIyQ5IyQ3OSQzNjE4MzIjNjEjJDEjJDQjJDgz","name":"그린온누리약국","category":"약국","sido":"광주","sigungu":"광주서구","address":"광주광역시 서구 치평로 107, 1층 108호 (치평동)","phone":"062-383-9911","openDate":"2008-10-31","longitude":126.8458662,"latitude":35.1574751},{"id":"JDQ4MTYyMiM3MSMkMSMkMCMkMDMkMzgxNzAyIzMxIyQxIyQzIyQ4OSQyNjE0ODEjNTEjJDEjJDIjJDgz","name":"글래스팜대학약국","category":"약국","sido":"광주","sigungu":"광주광산구","address":"광주광역시 광산구 용아로 234, (우산동)","phone":"062-962-0166","openDate":"2018-07-03","longitude":126.802184,"latitude":35.1639702},{"id":"JDQ4MTYyMiM3MSMkMSMkMCMkMDMkMzgxOTYxIzIxIyQxIyQxIyQxMyQ0NjE0ODEjNjEjJDEjJDgjJDgz","name":"금경약국","category":"약국","sido":"광주","sigungu":"광주서구","address":"광주광역시 서구 상무대로 882, 102호 (쌍촌동)","phone":"062-382-5588","openDate":"2021-08-02","longitude":126.8585293,"latitude":35.1501132},{"id":"JDQ4MTYyMiM3MSMkMSMkMCMkMDMkMzgxMTkxIzMxIyQxIyQ3IyQ3OSQyNjEwMDIjNjEjJDEjJDAjJDgz","name":"금남로5가약국","category":"약국","sido":"광주","sigungu":"광주북구","address":"광주광역시 북구 금남로 136, 교보빌딩 (누문동)","phone":"062-513-0503","openDate":"2018-11-15","longitude":126.9087867,"latitude":35.1540192},{"id":"JDQ4MTYyMiM3MSMkMSMkMCMkMDMkMzgxNzAyIzMxIyQxIyQ3IyQ3MiQ0NjE0ODEjNTEjJDEjJDYjJDgz","name":"금성약국","category":"약국","sido":"광주","sigungu":"광주남구","address":"광주광역시 남구 양림로 39, 금성약국 (양림동)","phone":"062-652-7582","openDate":"2021-02-02","longitude":126.913398,"latitude":35.1369858},{"id":"JDQ4MTYyMiM3MSMkMSMkMCMkMDMkMzgxOTYxIzIxIyQyIyQxIyQwMCQ0NjE0ODEjNTEjJDEjJDIjJDgz","name":"금수강산약국","category":"약국","sido":"광주","sigungu":"광주광산구","address":"광주광역시 광산구 풍영로230번길 4, 1층 (장덕동)","phone":"062-955-9523","openDate":"2016-08-17","longitude":126.8144912,"latitude":35.1919141},{"id":"JDQ4MTYyMiM3MSMkMSMkMCMkMDMkMzgxNzAyIzExIyQxIyQ3IyQwMyQyNjE4MzIjNTEjJDEjJDIjJDgz","name":"금호라인약국","category":"약국","sido":"광주","sigungu":"광주서구","address":"광주광역시 서구 운천로 76, 상가동 2층 205호 (금호동, 금호라인)","phone":"062-384-3095","openDate":"2013-12-09","longitude":126.8591015,"latitude":35.1392644},{"id":"JDQ4MTYyMiM3MSMkMSMkMCMkMDMkMzgxNzAyIzQxIyQxIyQ3IyQ4OSQyNjEwMDIjNTEjJDEjJDYjJDgz","name":"금호수약국","category":"약국","sido":"광주","sigungu":"광주서구","address":"광주광역시 서구 금화로 88, 국승빌딩 1층 110호 (금호동)","phone":"062-682-5555","openDate":"2022-01-19","longitude":126.8582196,"latitude":35.1319214},{"id":"JDQ4MTYyMiM3MSMkMSMkMCMkMDMkMzgxNzAyIzUxIyQxIyQxIyQ4OSQ0NjE0ODEjNzEjJDEjJDgjJDgz","name":"금호스타약국","category":"약국","sido":"광주","sigungu":"광주서구","address":"광주광역시 서구 금화로 71, 미미빌딩 1층 (금호동)","phone":"062-383-8255","openDate":"2019-05-29","longitude":126.8565427,"latitude":35.1324528},{"id":"JDQ4MTYyMiM3MSMkMSMkMCMkMDMkMzgxMzUxIzIxIyQyIyQxIyQwMCQyNjEwMDIjNDEjJDEjJDQjJDgz","name":"금호약국","category":"약국","sido":"광주","sigungu":"광주광산구","address":"광주광역시 광산구 첨단중앙로181번길 48, (월계동)","phone":"062-971-9226","openDate":"2014-03-17","longitude":126.8362767,"latitude":35.2200211},{"id":"JDQ4MTYyMiM3MSMkMSMkMCMkMDMkMzgxMTkxIzIxIyQyIyQxIyQwMCQyNjEyMjIjODEjJDEjJDYjJDgz","name":"금호약국","category":"약국","sido":"광주","sigungu":"광주서구","address":"광주광역시 서구 금화로 96, 1층 (금호동)","phone":"062-681-4146","openDate":"2001-09-21","longitude":126.8591281,"latitude":35.1319968},{"id":"JDQ4MTYyMiM3MSMkMSMkMCMkMDMkMzgxNzAyIzUxIyQxIyQxIyQwMyQyNjEwMDIjNDEjJDEjJDgjJDgz","name":"금호제일약국","category":"약국","sido":"광주","sigungu":"광주서구","address":"광주광역시 서구 풍금로 167, (금호동)","phone":"681-0075","openDate":"2015-12-29","longitude":126.859268,"latitude":35.1308952},{"id":"JDQ4MTYyMiM3MSMkMSMkMCMkMDMkMzgxMTkxIzIxIyQyIyQ5IyQwMCQ0NjEwMDIjODEjJDEjJDYjJDgz","name":"금호프라자약국","category":"약국","sido":"광주","sigungu":"광주서구","address":"광주광역시 서구 금화로 90, 동해빌딩 1층 (금호동)","phone":"062-681-5213","openDate":"2003-01-06","longitude":126.8585477,"latitude":35.1319427},{"id":"JDQ4MTYyMiM3MSMkMSMkMCMkMDMkMzgxMzUxIzMxIyQxIyQ3IyQ5MiQzNjE4MzIjNTEjJDEjJDYjJDgz","name":"기독온사랑약국","category":"약국","sido":"광주","sigungu":"광주남구","address":"광주광역시 남구 양림로 24-5, 기독온사랑약국 (양림동)","phone":"062-653-7585","openDate":"2020-08-10","longitude":126.912169,"latitude":35.1357442},{"id":"JDQ4MTYyMiM3MSMkMSMkMCMkMDMkMzgxOTYxIzUxIyQxIyQ1IyQ5OSQyNjEwMDIjNTEjJDEjJDIjJDgz","name":"기쁨약국","category":"약국","sido":"광주","sigungu":"광주광산구","address":"광주광역시 광산구 사암로 172, 1층 (우산동)","phone":"062-946-2520","openDate":"2009-11-16","longitude":126.8085795,"latitude":35.1600062},{"id":"JDQ4MTYyMiM3MSMkMSMkMCMkMDMkMzgxMzUxIzExIyQxIyQ3IyQ5MiQyNjEyMjIjNDEjJDEjJDgjJDgz","name":"길약국","category":"약국","sido":"광주","sigungu":"광주서구","address":"광주광역시 서구 하남대로 706, 제일메디프라자 101호 (동천동)","phone":"062-515-8897","openDate":"2022-07-15","longitude":126.8698829,"latitude":35.1713434},{"id":"JDQ4MTYyMiM3MSMkMSMkMCMkMDMkMzgxMzUxIzMxIyQxIyQ3IyQ2MiQzNjEwMDIjNjEjJDEjJDQjJDgz","name":"김명민약국","category":"약국","sido":"광주","sigungu":"광주광산구","address":"광주광역시 광산구 내상로 11, 1층 (송정동)","phone":"062-944-0887","openDate":"1970-05-04","longitude":126.7955358,"latitude":35.1406708},{"id":"JDQ4MTYyMiM3MSMkMSMkMCMkMDMkMzgxMzUxIzIxIyQxIyQ1IyQ5MiQ0NjE0ODEjNTEjJDEjJDIjJDgz","name":"김약국","category":"약국","sido":"광주","sigungu":"광주서구","address":"광주광역시 서구 화정로244번길 1, (화정동)","phone":"062-374-4411","openDate":"2016-03-03","longitude":126.883947,"latitude":35.1470268},{"id":"JDQ4MTYyMiM3MSMkMSMkMCMkMDMkMzgxNzAyIzQxIyQxIyQ3IyQxMyQyNjE4MzIjODEjJDEjJDIjJDgz","name":"꿀단지약국","category":"약국","sido":"광주","sigungu":"광주광산구","address":"광주광역시 광산구 내상로 23, 102호 (송정동)","phone":"062-943-5999","openDate":"2023-05-30","longitude":126.79624,"latitude":35.1397095},{"id":"JDQ4MTYyMiM3MSMkMSMkMCMkMDMkMzgxNzAyIzUxIyQxIyQxIyQ2MiQyNjE4MzIjODEjJDEjJDIjJDgz","name":"꿈꾸는약국","category":"약국","sido":"광주","sigungu":"광주북구","address":"광주광역시 북구 하서로 421, (용두동)","phone":"572-9110","openDate":"2013-05-01","longitude":126.8741981,"latitude":35.2126716},{"id":"JDQ4MTYyMiM3MSMkMSMkMCMkMDMkMzgxMzUxIzUxIyQxIyQ1IyQ2MiQzNjE4MzIjNDEjJDEjJDgjJDgz","name":"꿈꾸라약국","category":"약국","sido":"광주","sigungu":"광주서구","address":"광주광역시 서구 쌍촌로57번길 6, 1층 (쌍촌동)","phone":"062-655-3534","openDate":"2020-11-11","longitude":126.8639179,"latitude":35.1501375},{"id":"JDQ4MTYyMiM3MSMkMSMkMCMkMDMkMzgxNzAyIzMxIyQxIyQzIyQ3OSQyNjEyMjIjNDEjJDEjJDgjJDgz","name":"나눔약국","category":"약국","sido":"광주","sigungu":"광주남구","address":"광주광역시 남구 효우2로 38, 대경타워 1층 101호 (행암동)","phone":"062-672-5552","openDate":"2018-05-29","longitude":126.8878532,"latitude":35.1017169},{"id":"JDQ4MTYyMiM3MSMkMSMkMCMkMDMkMzgxMzUxIzUxIyQxIyQ1IyQ5MiQ0NjE0ODEjNDEjJDEjJDgjJDgz","name":"나라약국","category":"약국","sido":"광주","sigungu":"광주광산구","address":"광주광역시 광산구 첨단중앙로 170, (쌍암동)","phone":"062-971-0027","openDate":"2002-05-08","longitude":126.8421125,"latitude":35.2204448},{"id":"JDQ4MTYyMiM3MSMkMSMkMCMkMDMkMzgxNzAyIzExIyQxIyQ3IyQ4OSQzNjEwMDIjODEjJDEjJDIjJDgz","name":"나래약국","category":"약국","sido":"광주","sigungu":"광주남구","address":"광주광역시 남구 대남대로 131, 미래아동병원 1층 (주월동)","phone":"062-675-0203","openDate":"2017-01-01","longitude":126.910708,"latitude":35.1336818},{"id":"JDQ4MTYyMiM3MSMkMSMkMCMkMDMkMzgxNzAyIzExIyQxIyQ3IyQ3OSQyNjE4MzIjNjEjJDEjJDAjJDgz","name":"나래종로약국","category":"약국","sido":"광주","sigungu":"광주북구","address":"광주광역시 북구 첨단연신로 97, 106.107호 (신용동)","phone":"070-4221-9797","openDate":"2012-07-02","longitude":126.8640276,"latitude":35.206596},{"id":"JDQ4MTYyMiM3MSMkMSMkMCMkMDMkMzgxNzAyIzIxIyQxIyQxIyQ3OSQyNjE4MzIjNDEjJDEjJDgjJDgz","name":"나약국","category":"약국","sido":"광주","sigungu":"광주북구","address":"광주광역시 북구 임방울대로 1059, 102호 (용두동)","phone":"062-573-0059","openDate":"2020-02-06","longitude":126.8731658,"latitude":35.2120499},{"id":"JDQ4MTYyMiM3MSMkMSMkMCMkMDMkMzgxMzUxIzIxIyQxIyQ1IyQ3MiQyNjEwMDIjNDEjJDEjJDgjJDgz","name":"나약국","category":"약국","sido":"광주","sigungu":"광주남구","address":"광주광역시 남구 오방로 112-1, (방림동)","phone":"062-652-0361","openDate":"1985-06-17","longitude":126.9183058,"latitude":35.1352145},{"id":"JDQ4MTYyMiM3MSMkMSMkMCMkMDMkMzgxMTkxIzIxIyQxIyQ1IyQ5OSQyNjEyMjIjODEjJDEjJDIjJDgz","name":"나은약국","category":"약국","sido":"광주","sigungu":"광주남구","address":"광주광역시 남구 용대로 119, 1층 (봉선동)","phone":"062-671-7114","openDate":"2004-05-01","longitude":126.9181197,"latitude":35.1269506},{"id":"JDQ4MTYyMiM3MSMkMSMkMCMkMDMkMzgxNzAyIzExIyQxIyQzIyQwMyQzNjE0ODEjNjEjJDEjJDAjJDgz","name":"나을약국","category":"약국","sido":"광주","sigungu":"광주남구","address":"광주광역시 남구 봉선로 11, (봉선동)","phone":"062-655-0061","openDate":"2012-02-28","longitude":126.9026052,"latitude":35.1321997},{"id":"JDQ4MTYyMiM3MSMkMSMkMCMkMDMkMzgxMzUxIzMxIyQxIyQzIyQ3MiQ0NjE0ODEjNDEjJDEjJDgjJDgz","name":"나일약국","category":"약국","sido":"광주","sigungu":"광주북구","address":"광주광역시 북구 동문대로 95, 1층 (우산동)","phone":"062-264-1558","openDate":"1981-12-30","longitude":126.9238997,"latitude":35.1722081},{"id":"JDQ4MTYyMiM3MSMkMSMkMCMkMDMkMzgxNzAyIzExIyQxIyQzIyQ5OSQyNjEyMjIjNjEjJDEjJDAjJDgz","name":"남광주종로약국","category":"약국","sido":"광주","sigungu":"광주동구","address":"광주광역시 동구 제봉로 12, (학동)","phone":"062-232-8575","openDate":"2011-04-04","longitude":126.9225561,"latitude":35.1401574},{"id":"JDQ4MTYyMiM3MSMkMSMkMCMkMDMkMzgxMTkxIzExIyQxIyQzIyQ3OSQyNjE0ODEjODEjJDEjJDIjJDgz","name":"남도약국","category":"약국","sido":"광주","sigungu":"광주동구","address":"광주광역시 동구 제봉로 19, (학동)","phone":"062-232-5206","openDate":"1998-08-07","longitude":126.9217226,"latitude":35.1405781},{"id":"JDQ4MTYyMiM3MSMkMSMkMCMkMDMkMzgxMzUxIzIxIyQxIyQ1IyQ5MiQyNjEwMDIjNjEjJDEjJDQjJDgz","name":"남방약국","category":"약국","sido":"광주","sigungu":"광주서구","address":"광주광역시 서구 화정로 109, 1층 (쌍촌동)","phone":"062-375-6969","openDate":"1980-10-20","longitude":126.8692942,"latitude":35.1452771},{"id":"JDQ4MTYyMiM3MSMkMSMkMCMkMDMkMzgxOTYxIzMxIyQxIyQ3IyQ4OSQyNjEyMjIjNjEjJDEjJDAjJDgz","name":"노벨약국","category":"약국","sido":"광주","sigungu":"광주동구","address":"광주광역시 동구 남문로 693, 1층 (학동)","phone":"062-232-7870","openDate":"1993-12-23","longitude":126.9282249,"latitude":35.1325293},{"id":"JDQ4MTYyMiM3MSMkMSMkMCMkMDMkMzgxMzUxIzIxIyQxIyQxIyQ5OSQzNjEwMDIjNjEjJDEjJDQjJDgz","name":"녹십자온누리약국","category":"약국","sido":"광주","sigungu":"광주서구","address":"광주광역시 서구 월드컵4강로 65, 1층 101호 (화정동)","phone":"062-374-2929","openDate":"1992-04-29","longitude":126.8744156,"latitude":35.1426525},{"id":"JDQ4MTYyMiM3MSMkMSMkMCMkMDMkMzgxOTYxIzIxIyQxIyQ1IyQ2MiQyNjE4MzIjNjEjJDEjJDQjJDgz","name":"녹원약국","category":"약국","sido":"광주","sigungu":"광주북구","address":"광주광역시 북구 설죽로 495, (일곡동)","phone":"062-576-8595","openDate":"2009-08-12","longitude":126.8981217,"latitude":35.2033618},{"id":"JDQ4MTYyMiM3MSMkMSMkMCMkMDMkMzgxNzAyIzUxIyQxIyQxIyQ5MiQyNjE4MzIjNDEjJDEjJDQjJDgz","name":"누리약국","category":"약국","sido":"광주","sigungu":"광주서구","address":"광주광역시 서구 죽봉대로78번길 19, 1층 111, 112호 (농성동, 광주 서구 농성동 주상복합)","phone":"062-369-0953","openDate":"2025-01-09","longitude":126.8856454,"latitude":35.1605267},{"id":"JDQ4MTYyMiM3MSMkMSMkMCMkMDMkMzgxOTYxIzIxIyQxIyQ1IyQ5OSQzNjE4MzIjNTEjJDEjJDYjJDgz","name":"누리은혜약국","category":"약국","sido":"광주","sigungu":"광주광산구","address":"광주광역시 광산구 목련로153번길 134, 102호 (운남동, 주공6단지상가)","phone":"062-962-6868","openDate":"2008-01-21","longitude":126.8161335,"latitude":35.1779105},{"id":"JDQ4MTYyMiM3MSMkMSMkMCMkMDMkMzgxNzAyIzIxIyQxIyQxIyQwMyQzNjEyMjIjNTEjJDEjJDYjJDgz","name":"뉴365종로약국","category":"약국","sido":"광주","sigungu":"광주광산구","address":"광주광역시 광산구 송도로 153, 1층 (도산동)","phone":"062-943-3653","openDate":"2017-06-05","longitude":126.7923075,"latitude":35.1287489},{"id":"JDQ4MTYyMiM3MSMkMSMkMCMkMDMkMzgxOTYxIzMxIyQxIyQzIyQ3MiQzNjEwMDIjNDEjJDEjJDgjJDgz","name":"뉴건강약국","category":"약국","sido":"광주","sigungu":"광주북구","address":"광주광역시 북구 설죽로389번길 77, (삼각동)","phone":"062-573-4339","openDate":"2001-10-17","longitude":126.8993016,"latitude":35.1959532},{"id":"JDQ4MTYyMiM3MSMkMSMkMCMkMDMkMzgxMTkxIzIxIyQxIyQ5IyQwMyQzNjEyMjIjNDEjJDEjJDgjJDgz","name":"뉴욕약국","category":"약국","sido":"광주","sigungu":"광주동구","address":"광주광역시 동구 백서로 143, (남동)","phone":"062-222-7841","openDate":"2003-08-18","longitude":126.9208915,"latitude":35.1427289},{"id":"JDQ4MTYyMiM3MSMkMSMkMCMkMDMkMzgxMTkxIzIxIyQxIyQ1IyQxMyQ0NjE0ODEjODEjJDEjJDIjJDgz","name":"뉴욕약국","category":"약국","sido":"광주","sigungu":"광주북구","address":"광주광역시 북구 하서로 427, 111호 (용두동, 아이콤타워)","phone":"062-573-0061","openDate":"2008-08-18","longitude":126.8746459,"latitude":35.2130562},{"id":"JDQ4MTYyMiM3MSMkMSMkMCMkMDMkMzgxNzAyIzIxIyQxIyQ5IyQ2MiQzNjE0ODEjNDEjJDEjJDgjJDgz","name":"뉴욕약국","category":"약국","sido":"광주","sigungu":"광주광산구","address":"광주광역시 광산구 하남대로 282, 1층 (운남동)","phone":"062-952-6882","openDate":"2017-04-12","longitude":126.824501,"latitude":35.1788005},{"id":"JDQ4MTYyMiM3MSMkMSMkMCMkMDMkMzgxNzAyIzMxIyQxIyQzIyQ4OSQyNjEwMDIjNDEjJDEjJDgjJDgz","name":"늘편한약국","category":"약국","sido":"광주","sigungu":"광주광산구","address":"광주광역시 광산구 장신로 133, 삼광빌딩 1층 (수완동)","phone":"062-449-7453","openDate":"2018-07-17","longitude":126.8247851,"latitude":35.1910291},{"id":"JDQ4MTYyMiM3MSMkMSMkMCMkMDMkMzgxMTkxIzIxIyQyIyQ1IyQwMCQ0NjE0ODEjNjEjJDEjJDAjJDgz","name":"늘푸른약국","category":"약국","sido":"광주","sigungu":"광주남구","address":"광주광역시 남구 서문대로 662, 2층 (진월동, 기호빌딩)","phone":"062-431-9106","openDate":"2008-09-23","longitude":126.8991534,"latitude":35.1184062},{"id":"JDQ4MTYyMiM3MSMkMSMkMCMkMDMkMzgxMTkxIzExIyQxIyQzIyQ2MiQ0NjEwMDIjNDEjJDEjJDgjJDgz","name":"늘푸른약국","category":"약국","sido":"광주","sigungu":"광주광산구","address":"광주광역시 광산구 하남대로 280, (운남동)","phone":"062-961-1919","openDate":"2004-04-07","longitude":126.8241969,"latitude":35.1788261},{"id":"JDQ4MTYyMiM3MSMkMSMkMCMkMDMkMzgxOTYxIzIxIyQxIyQ1IyQxMyQzNjEwMDIjODEjJDEjJDIjJDgz","name":"늘푸른약국","category":"약국","sido":"광주","sigungu":"광주남구","address":"광주광역시 남구 대남대로 135, (봉선동)","phone":"062-515-9373","openDate":"2007-04-02","longitude":126.9101412,"latitude":35.133741},{"id":"JDQ4MTYyMiM3MSMkMSMkMCMkMDMkMzgxMzUxIzMxIyQxIyQ3IyQ5MiQzNjEwMDIjNzEjJDEjJDgjJDgz","name":"다강온누리약국","category":"약국","sido":"광주","sigungu":"광주북구","address":"광주광역시 북구 서하로 405, 상가1동 103호 (문흥동, 문흥동 명지아파트)","phone":"062-251-0321","openDate":"1994-09-22","longitude":126.9246915,"latitude":35.184634},{"id":"JDQ4MTYyMiM3MSMkMSMkMCMkMDMkMzgxMzUxIzMxIyQxIyQzIyQwMyQyNjEwMDIjNjEjJDEjJDQjJDgz","name":"다나아약국","category":"약국","sido":"광주","sigungu":"광주서구","address":"광주광역시 서구 상무자유로 170, 지상2층 (치평동)","phone":"062-383-0016","openDate":"2003-12-18","longitude":126.8527076,"latitude":35.1512682},{"id":"JDQ4MTYyMiM3MSMkMSMkMCMkMDMkMzgxMTkxIzMxIyQxIyQ3IyQwMyQzNjE4MzIjNDEjJDEjJDgjJDgz","name":"다나아약국","category":"약국","sido":"광주","sigungu":"광주남구","address":"광주광역시 남구 효천중앙로 52, 1층 107호 (임암동)","phone":"062-654-1900","openDate":"2022-03-02","longitude":126.8745274,"latitude":35.1023522},{"id":"JDQ4MTYyMiM3MSMkMSMkMCMkMDMkMzgxMTkxIzMxIyQyIyQzIyQwMCQzNjE0ODEjNjEjJDEjJDAjJDgz","name":"다나약국","category":"약국","sido":"광주","sigungu":"광주광산구","address":"광주광역시 광산구 수등로258번길 2, 1층 (신가동)","phone":"062-955-5315","openDate":"2019-02-27","longitude":126.8367932,"latitude":35.184887},{"id":"JDQ4MTYyMiM3MSMkMSMkMCMkMDMkMzgxNzAyIzIxIyQxIyQxIyQ4MiQzNjEwMDIjNDEjJDEjJDgjJDgz","name":"다나약국","category":"약국","sido":"광주","sigungu":"광주북구","address":"광주광역시 북구 북문대로 242, (동림동)","phone":"062-512-3450","openDate":"2022-06-07","longitude":126.8657344,"latitude":35.1872685},{"id":"JDQ4MTYyMiM3MSMkMSMkMCMkMDMkMzgxNzAyIzIxIyQxIyQ5IyQ4OSQzNjE4MzIjNTEjJDEjJDYjJDgz","name":"다나온누리약국","category":"약국","sido":"광주","sigungu":"광주남구","address":"광주광역시 남구 서문대로 683, (진월동, 1층)","phone":"062-453-7275","openDate":"2016-12-01","longitude":126.8985624,"latitude":35.1202426},{"id":"JDQ4MTYyMiM3MSMkMSMkMCMkMDMkMzgxMTkxIzUxIyQxIyQ1IyQ2MiQyNjEwMDIjNTEjJDEjJDIjJDgz","name":"다나온누리약국","category":"약국","sido":"광주","sigungu":"광주북구","address":"광주광역시 북구 하서로 400, 아이맘아동병원 1층 (양산동)","phone":"062-574-0300","openDate":"2020-09-10","longitude":126.8745074,"latitude":35.2105067},{"id":"JDQ4MTYyMiM3MSMkMSMkMCMkMDMkMzgxMzUxIzQxIyQyIyQ3IyQwMCQyNjE0ODEjNTEjJDEjJDYjJDgz","name":"다나은약국","category":"약국","sido":"광주","sigungu":"광주광산구","address":"광주광역시 광산구 송도로 273, (송정동)","phone":"062-945-1314","openDate":"2014-03-03","longitude":126.7992448,"latitude":35.1378869},{"id":"JDQ4MTYyMiM3MSMkMSMkMCMkMDMkMzgxMzUxIzMxIyQxIyQzIyQ3MiQyNjE4MzIjNDEjJDEjJDQjJDgz","name":"다사랑약국","category":"약국","sido":"광주","sigungu":"광주북구","address":"광주광역시 북구 동문대로 79-1, 1층 (우산동)","phone":"062-432-1569","openDate":"2010-03-02","longitude":126.9225311,"latitude":35.1712219},{"id":"JDQ4MTYyMiM3MSMkMSMkMCMkMDMkMzgxMTkxIzUxIyQxIyQxIyQ2MiQyNjE4MzIjNTEjJDEjJDIjJDgz","name":"다사랑약국","category":"약국","sido":"광주","sigungu":"광주광산구","address":"광주광역시 광산구 첨단중앙로 96, 2층 207호 (월계동)","phone":"062-973-7533","openDate":"2008-08-13","longitude":126.8434664,"latitude":35.2138336},{"id":"JDQ4MTYyMiM3MSMkMSMkMCMkMDMkMzgxNzAyIzUxIyQxIyQxIyQ4MiQyNjE0ODEjODEjJDEjJDIjJDgz","name":"다시, 봄 약국","category":"약국","sido":"광주","sigungu":"광주서구","address":"광주광역시 서구 풍암신암로 34, 1층 (풍암동)","phone":"062-710-0929","openDate":"2024-11-05","longitude":126.8826719,"latitude":35.1237238},{"id":"JDQ4MTYyMiM3MSMkMSMkMCMkMDMkMzgxNzAyIzQxIyQxIyQ3IyQ2MiQ0NjEwMDIjNDEjJDEjJDgjJDgz","name":"다온약국","category":"약국","sido":"광주","sigungu":"광주북구","address":"광주광역시 북구 첨단연신로 100, 첨단2지구 대성베르힐 A동 110호 (신용동)","phone":"062-652-5800","openDate":"2023-07-12","longitude":126.8648096,"latitude":35.2068563},{"id":"JDQ4MTYyMiM3MSMkMSMkMCMkMDMkMzgxNzAyIzMxIyQxIyQzIyQ3OSQ0NjE0ODEjNDEjJDEjJDgjJDgz","name":"다온한약국","category":"약국","sido":"광주","sigungu":"광주북구","address":"광주광역시 북구 하백로6번길 12, 1동 1층 107호 (매곡동, 대광로제비앙)","phone":"062-457-7577","openDate":"2018-06-28","longitude":126.8914971,"latitude":35.1878951},{"id":"JDQ4MTYyMiM3MSMkMSMkMCMkMDMkMzgxNzAyIzUxIyQxIyQxIyQ4MiQ0NjEwMDIjNDEjJDEjJDgjJDgz","name":"다정약국","category":"약국","sido":"광주","sigungu":"광주서구","address":"광주광역시 서구 경열로 107, 1층 (양동)","phone":"682-0058","openDate":"2009-10-06","longitude":126.8973935,"latitude":35.1527369},{"id":"JDQ4MTYyMiM3MSMkMSMkMCMkMDMkMzgxMTkxIzUxIyQxIyQ1IyQxMyQzNjE4MzIjODEjJDEjJDIjJDgz","name":"다정한약국","category":"약국","sido":"광주","sigungu":"광주남구","address":"광주광역시 남구 백운로 87, (백운동)","phone":"062-673-7888","openDate":"2010-09-06","longitude":126.9059333,"latitude":35.1410405},{"id":"JDQ4MTYyMiM3MSMkMSMkMCMkMDMkMzgxMzUxIzIxIyQyIyQ5IyQwMCQyNjEyMjIjNDEjJDEjJDgjJDgz","name":"다해약국","category":"약국","sido":"광주","sigungu":"광주남구","address":"광주광역시 남구 봉선로 2, 창신빌딩 (주월동)","phone":"062-673-6616","openDate":"2021-08-19","longitude":126.9018666,"latitude":35.1326136},{"id":"JDQ4MTYyMiM3MSMkMSMkMCMkMDMkMzgxOTYxIzMxIyQxIyQ3IyQ3MiQyNjEwMDIjNjEjJDEjJDQjJDgz","name":"달성약국","category":"약국","sido":"광주","sigungu":"광주동구","address":"광주광역시 동구 백서로 147, (남동)","phone":"062-234-2882","openDate":"2017-02-03","longitude":126.9212654,"latitude":35.1428821},{"id":"JDQ4MTYyMiM3MSMkMSMkMCMkMDMkMzgxMTkxIzUxIyQxIyQ1IyQ4OSQyNjEwMDIjNDEjJDEjJDgjJDgz","name":"대건약국","category":"약국","sido":"광주","sigungu":"광주광산구","address":"광주광역시 광산구 무진대로 239, 1층 (우산동)","phone":"","openDate":"2025-03-21","longitude":126.8067969,"latitude":35.1623668},{"id":"JDQ4MTYyMiM3MSMkMSMkMCMkMDMkMzgxMTkxIzIxIyQxIyQ1IyQwMyQ0NjE0ODEjNDEjJDEjJDgjJDgz","name":"대건약국","category":"약국","sido":"광주","sigungu":"광주서구","address":"광주광역시 서구 운천로 10, 1층 (금호동)","phone":"062-384-6764","openDate":"2005-03-02","longitude":126.8595998,"latitude":35.1334626},{"id":"JDQ4MTYyMiM3MSMkMSMkMCMkMDMkMzgxMzUxIzMxIyQxIyQzIyQ5MiQ0NjE0ODEjNjEjJDEjJDQjJDgz","name":"대건종합약국","category":"약국","sido":"광주","sigungu":"광주북구","address":"광주광역시 북구 중가로 26, 1층 (유동)","phone":"062-515-6111-2","openDate":"2007-03-06","longitude":126.9031688,"latitude":35.1599915},{"id":"JDQ4MTYyMiM3MSMkMSMkMCMkMDMkMzgxMzUxIzExIyQxIyQ3IyQ5MiQzNjE4MzIjNDEjJDEjJDgjJDgz","name":"대동약국","category":"약국","sido":"광주","sigungu":"광주동구","address":"광주광역시 동구 백서로125번길 25, (금동)","phone":"062-223-7675","openDate":"1974-03-28","longitude":126.9179082,"latitude":35.1439483},{"id":"JDQ4MTYyMiM3MSMkMSMkMCMkMDMkMzgxMzUxIzExIyQxIyQ3IyQwMyQ0NjE0ODEjNzEjJDEjJDgjJDgz","name":"대명당약국","category":"약국","sido":"광주","sigungu":"광주광산구","address":"광주광역시 광산구 소촌로 146, (소촌동)","phone":"062-941-7975","openDate":"2004-03-08","longitude":126.7923081,"latitude":35.1575379},{"id":"JDQ4MTYyMiM3MSMkMSMkMCMkMDMkMzgxMzUxIzExIyQxIyQ3IyQ5MiQ0NjEwMDIjODEjJDEjJDIjJDgz","name":"대성약국","category":"약국","sido":"광주","sigungu":"광주동구","address":"광주광역시 동구 구성로 187-2, (금남로5가)","phone":"062-223-6344","openDate":"2003-03-20","longitude":126.9134212,"latitude":35.1527683},{"id":"JDQ4MTYyMiM3MSMkMSMkMCMkMDMkMzgxMzUxIzMxIyQxIyQzIyQ4MiQyNjE4MzIjNzEjJDEjJDgjJDgz","name":"대암약국","category":"약국","sido":"광주","sigungu":"광주북구","address":"광주광역시 북구 동문대로 191, (두암동)","phone":"062-261-0605","openDate":"2020-03-02","longitude":126.9293322,"latitude":35.1795738},{"id":"JDQ4MTYyMiM3MSMkMSMkMCMkMDMkMzgxNzAyIzMxIyQxIyQzIyQwMyQzNjEyMjIjNTEjJDEjJDIjJDgz","name":"대촌약국","category":"약국","sido":"광주","sigungu":"광주남구","address":"광주광역시 남구 포충로 598, 1층 (지석동)","phone":"062-381-2888","openDate":"2019-11-19","longitude":126.8348264,"latitude":35.0813574},{"id":"JDQ4MTYyMiM3MSMkMSMkMCMkMDMkMzgxOTYxIzQxIyQxIyQ3IyQxMyQ0NjE0ODEjODEjJDEjJDIjJDgz","name":"대추나무약국","category":"약국","sido":"광주","sigungu":"광주북구","address":"광주광역시 북구 군왕로 140, (두암동)","phone":"062-269-5051","openDate":"2013-02-25","longitude":126.9329867,"latitude":35.1737453},{"id":"JDQ4MTYyMiM3MSMkMSMkMCMkMDMkMzgxMTkxIzIxIyQyIyQ1IyQwMCQyNjEwMDIjNzEjJDEjJDgjJDgz","name":"대추나무약국","category":"약국","sido":"광주","sigungu":"광주남구","address":"광주광역시 남구 양림로 16, (백운동)","phone":"062-675-9200","openDate":"2015-09-23","longitude":126.9114912,"latitude":35.1354097},{"id":"JDQ4MTYyMiM3MSMkMSMkMCMkMDMkMzgxNzAyIzUxIyQxIyQxIyQ3OSQ0NjE0ODEjNDEjJDEjJDQjJDgz","name":"대학약국","category":"약국","sido":"광주","sigungu":"광주동구","address":"광주광역시 동구 제봉로 27, (학동)","phone":"062-222-6206","openDate":"2018-04-10","longitude":126.9211594,"latitude":35.141138},{"id":"JDQ4MTYyMiM3MSMkMSMkMCMkMDMkMzgxOTYxIzIxIyQyIyQxIyQwMCQzNjEyMjIjNjEjJDEjJDgjJDgz","name":"대학온누리약국","category":"약국","sido":"광주","sigungu":"광주동구","address":"광주광역시 동구 백서로 155-1, (서석동)","phone":"062-223-4499","openDate":"2013-11-14","longitude":126.9220923,"latitude":35.1432535},{"id":"JDQ4MTYyMiM3MSMkMSMkMCMkMDMkMzgxMTkxIzQxIyQxIyQ3IyQ4OSQzNjE4MzIjNzEjJDEjJDgjJDgz","name":"대한약국","category":"약국","sido":"광주","sigungu":"광주북구","address":"광주광역시 북구 동문대로 98, (두암동)","phone":"062-251-8805","openDate":"2009-05-12","longitude":126.9245886,"latitude":35.1720575},{"id":"JDQ4MTYyMiM3MSMkMSMkMCMkMDMkMzgxOTYxIzUxIyQxIyQxIyQxMyQyNjEyMjIjNjEjJDEjJDQjJDgz","name":"대한약국","category":"약국","sido":"광주","sigungu":"광주서구","address":"광주광역시 서구 죽봉대로 80, 108호 (농성동, 무등타워)","phone":"062-366-8275","openDate":"2012-04-30","longitude":126.8838889,"latitude":35.1604542},{"id":"JDQ4MTYyMiM3MSMkMSMkMCMkMDMkMzgxMzUxIzUxIyQxIyQ1IyQxMyQzNjE4MzIjNzEjJDEjJDgjJDgz","name":"대한약국","category":"약국","sido":"광주","sigungu":"광주남구","address":"광주광역시 남구 양림로 39-1, (양림동)","phone":"062-676-0351","openDate":"2000-06-29","longitude":126.9133509,"latitude":35.1370657},{"id":"JDQ4MTYyMiM3MSMkMSMkMCMkMDMkMzgxMTkxIzExIyQxIyQzIyQ3MiQyNjEyMjIjNDEjJDEjJDgjJDgz","name":"대호약국","category":"약국","sido":"광주","sigungu":"광주서구","address":"광주광역시 서구 운천로 32, (금호동)","phone":"062-375-7525","openDate":"1999-03-29","longitude":126.8594312,"latitude":35.1356324},{"id":"JDQ4MTYyMiM3MSMkMSMkMCMkMDMkMzgxNzAyIzMxIyQxIyQ3IyQ5OSQzNjEwMDIjNzEjJDEjJDgjJDgz","name":"더나은약국","category":"약국","sido":"광주","sigungu":"광주동구","address":"광주광역시 동구 남문로 770, (학동)","phone":"062-651-5575","openDate":"2020-06-22","longitude":126.9240576,"latitude":35.1383635},{"id":"JDQ4MTYyMiM3MSMkMSMkMCMkMDMkMzgxMTkxIzUxIyQxIyQ1IyQ3OSQ0NjE0ODEjNDEjJDEjJDgjJDgz","name":"더센트럴약국","category":"약국","sido":"광주","sigungu":"광주서구","address":"광주광역시 서구 죽봉대로 62, 102호 (농성동)","phone":"062-369-8809","openDate":"2022-07-11","longitude":126.8837967,"latitude":35.1588032},{"id":"JDQ4MTYyMiM3MSMkMSMkMCMkMDMkMzgxNzAyIzIxIyQxIyQ1IyQ3MiQ0NjEwMDIjNTEjJDEjJDIjJDgz","name":"더슬림 한약국","category":"약국","sido":"광주","sigungu":"광주서구","address":"광주광역시 서구 치평로 32, (치평동)","phone":"062-373-0059","openDate":"2012-09-10","longitude":126.8476463,"latitude":35.1501482},{"id":"JDQ4MTYyMiM3MSMkMSMkMCMkMDMkMzgxNzAyIzMxIyQxIyQzIyQ3MiQ0NjE0ODEjNzEjJDEjJDgjJDgz","name":"더조은보은약국","category":"약국","sido":"광주","sigungu":"광주광산구","address":"광주광역시 광산구 첨단봉산안길 74, 1층 (산월동)","phone":"062-974-4567","openDate":"2019-03-11","longitude":126.8499027,"latitude":35.2063689},{"id":"JDQ4MTYyMiM3MSMkMSMkMCMkMDMkMzgxMTkxIzIxIyQxIyQxIyQwMyQzNjE4MzIjNjEjJDEjJDgjJDgz","name":"더조은약국","category":"약국","sido":"광주","sigungu":"광주북구","address":"광주광역시 북구 하서로 396, 3층 304호 (양산동, 경일빌딩)","phone":"062-264-8808","openDate":"1994-09-04","longitude":126.8745444,"latitude":35.2102573},{"id":"JDQ4MTYyMiM3MSMkMSMkMCMkMDMkMzgxNzAyIzExIyQxIyQ3IyQwMyQzNjEwMDIjODEjJDEjJDYjJDgz","name":"도담약국","category":"약국","sido":"광주","sigungu":"광주남구","address":"광주광역시 남구 봉선2로 81, (봉선동)","phone":"062-673-0008","openDate":"2017-02-27","longitude":126.9152463,"latitude":35.1261265},{"id":"JDQ4MTYyMiM3MSMkMSMkMCMkMDMkMzgxMTkxIzIxIyQxIyQ5IyQwMyQzNjE0ODEjNjEjJDEjJDAjJDgz","name":"도담약국","category":"약국","sido":"광주","sigungu":"광주북구","address":"광주광역시 북구 하서로 393-8, (양산동)","phone":"062-262-6000","openDate":"2018-03-26","longitude":126.8731999,"latitude":35.2104151},{"id":"JDQ4MTYyMiM3MSMkMSMkMCMkMDMkMzgxMzUxIzIxIyQxIyQ1IyQ3MiQzNjEwMDIjNTEjJDEjJDYjJDgz","name":"도아약국","category":"약국","sido":"광주","sigungu":"광주서구","address":"광주광역시 서구 화정로 250, 1층 (화정동)","phone":"062-369-1076","openDate":"1980-10-20","longitude":126.8842529,"latitude":35.1473274},{"id":"JDQ4MTYyMiM3MSMkMSMkMCMkMDMkMzgxMzUxIzExIyQxIyQ3IyQxMyQzNjE4MzIjNjEjJDEjJDgjJDgz","name":"도움온누리약국","category":"약국","sido":"광주","sigungu":"광주서구","address":"광주광역시 서구 상무대로 1064, 1층 (화정동)","phone":"062-369-5176","openDate":"2013-04-25","longitude":126.8783496,"latitude":35.1519931},{"id":"JDQ4MTYyMiM3MSMkMSMkMCMkMDMkMzgxMzUxIzIxIyQxIyQxIyQ3OSQyNjE4MzIjNjEjJDEjJDAjJDgz","name":"도원약국","category":"약국","sido":"광주","sigungu":"광주동구","address":"광주광역시 동구 필문대로 283, (서석동)","phone":"062-222-6580","openDate":"1981-08-04","longitude":126.9272831,"latitude":35.1460187},{"id":"JDQ4MTYyMiM3MSMkMSMkMCMkMDMkMzgxNzAyIzIxIyQxIyQxIyQ5OSQzNjE4MzIjODEjJDEjJDIjJDgz","name":"독일약국","category":"약국","sido":"광주","sigungu":"광주서구","address":"광주광역시 서구 경열로 144, 1층 (양동)","phone":"062-367-6029","openDate":"2014-09-01","longitude":126.9010376,"latitude":35.1538789},{"id":"JDQ4MTYyMiM3MSMkMSMkMCMkMDMkMzgxMTkxIzMxIyQxIyQzIyQ5OSQyNjEyMjIjNDEjJDEjJDgjJDgz","name":"돌고개대형약국","category":"약국","sido":"광주","sigungu":"광주남구","address":"광주광역시 남구 경열로 84, (월산동)","phone":"062-361-2323","openDate":"2004-03-15","longitude":126.8952887,"latitude":35.151487},{"id":"JDQ4MTYyMiM3MSMkMSMkMCMkMDMkMzgxNzAyIzIxIyQxIyQxIyQxMyQyNjEyMjIjODEjJDEjJDIjJDgz","name":"동광주약국","category":"약국","sido":"광주","sigungu":"광주북구","address":"광주광역시 북구 동문대로 155, (두암동)","phone":"062-264-0146","openDate":"2015-08-10","longitude":126.9275781,"latitude":35.1766859},{"id":"JDQ4MTYyMiM3MSMkMSMkMCMkMDMkMzgxNzAyIzExIyQxIyQ3IyQxMyQyNjEyMjIjNDEjJDEjJDgjJDgz","name":"동광주조제약국","category":"약국","sido":"광주","sigungu":"광주북구","address":"광주광역시 북구 동문대로 179-5, (두암동)","phone":"062-251-7585","openDate":"2014-01-01","longitude":126.9284643,"latitude":35.1784913},{"id":"JDQ4MTYyMiM3MSMkMSMkMCMkMDMkMzgxMTkxIzQxIyQxIyQ3IyQ3MiQzNjEyMjIjODEjJDEjJDIjJDgz","name":"동광주종로약국","category":"약국","sido":"광주","sigungu":"광주북구","address":"광주광역시 북구 면앙로139번길 54, (두암동)","phone":"062-262-7331","openDate":"2012-10-02","longitude":126.9287111,"latitude":35.1788738},{"id":"JDQ4MTYyMiM3MSMkMSMkMCMkMDMkMzgxNzAyIzIxIyQxIyQxIyQ5OSQzNjE0ODEjNTEjJDEjJDYjJDgz","name":"동구종로약국","category":"약국","sido":"광주","sigungu":"광주동구","address":"광주광역시 동구 서남로 2, (서석동)","phone":"062-233-6030","openDate":"2014-07-11","longitude":126.922104,"latitude":35.1454616},{"id":"JDQ4MTYyMiM3MSMkMSMkMCMkMDMkMzgxMTkxIzExIyQxIyQzIyQ5OSQyNjE0ODEjNTEjJDEjJDIjJDgz","name":"동림수약국","category":"약국","sido":"광주","sigungu":"광주북구","address":"광주광역시 북구 유림로 163, 103호 (동림동)","phone":"062-515-7608","openDate":"2021-03-14","longitude":126.8639172,"latitude":35.1770433},{"id":"JDQ4MTYyMiM3MSMkMSMkMCMkMDMkMzgxNzAyIzIxIyQxIyQxIyQwMyQ0NjEwMDIjODEjJDEjJDIjJDgz","name":"동림큰약국","category":"약국","sido":"광주","sigungu":"광주서구","address":"광주광역시 서구 유림로98번길 33, 1층 (동천동)","phone":"062-511-9916","openDate":"2015-08-05","longitude":126.8676703,"latitude":35.171155},{"id":"JDQ4MTYyMiM3MSMkMSMkMCMkMDMkMzgxOTYxIzUxIyQxIyQ1IyQ3MiQyNjEwMDIjNjEjJDEjJDAjJDgz","name":"동명온누리약국","category":"약국","sido":"광주","sigungu":"광주동구","address":"광주광역시 동구 동명로70번길 5, 1층 101호 (동명동)","phone":"062-222-3382","openDate":"2022-11-04","longitude":126.9286952,"latitude":35.1505378},{"id":"JDQ4MTYyMiM3MSMkMSMkMCMkMDMkMzgxMTkxIzQxIyQxIyQ3IyQwMyQzNjEwMDIjNDEjJDEjJDgjJDgz","name":"동민약국","category":"약국","sido":"광주","sigungu":"광주광산구","address":"광주광역시 광산구 장신로 82, 106호 (장덕동, 보강빌딩)","phone":"062-956-7525","openDate":"2011-12-26","longitude":126.818775,"latitude":35.1904601},{"id":"JDQ4MTYyMiM3MSMkMSMkMCMkMDMkMzgxMTkxIzMxIyQxIyQzIyQ3OSQ0NjEwMDIjNTEjJDEjJDYjJDgz","name":"동아약국","category":"약국","sido":"광주","sigungu":"광주남구","address":"광주광역시 남구 용대로 123-1, 1층 (봉선동)","phone":"062-672-8276","openDate":"2007-11-30","longitude":126.9181264,"latitude":35.127306},{"id":"JDQ4MTYyMiM3MSMkMSMkMCMkMDMkMzgxMTkxIzMxIyQxIyQ3IyQwMyQyNjE0ODEjNjEjJDEjJDAjJDgz","name":"동아한마음약국","category":"약국","sido":"광주","sigungu":"광주남구","address":"광주광역시 남구 회재로 1274, (백운동)","phone":"062-676-4556","openDate":"2006-04-03","longitude":126.8999585,"latitude":35.1351761},{"id":"JDQ4MTYyMiM3MSMkMSMkMCMkMDMkMzgxNzAyIzIxIyQxIyQxIyQ3MiQyNjE4MzIjNzEjJDEjJDgjJDgz","name":"동양약국","category":"약국","sido":"광주","sigungu":"광주서구","address":"광주광역시 서구 상무중앙로 9, 1층 107호 (치평동)","phone":"062-385-7557","openDate":"2015-01-14","longitude":126.8479152,"latitude":35.1477617},{"id":"JDQ4MTYyMiM3MSMkMSMkMCMkMDMkMzgxMTkxIzMxIyQxIyQ3IyQxMyQyNjE0ODEjNDEjJDEjJDgjJDgz","name":"동양약국","category":"약국","sido":"광주","sigungu":"광주동구","address":"광주광역시 동구 동계천로 74, 2층 (장동)","phone":"062-224-7577","openDate":"2012-04-25","longitude":126.9192088,"latitude":35.1528099},{"id":"JDQ4MTYyMiM3MSMkMSMkMCMkMDMkMzgxMzUxIzIxIyQxIyQ1IyQwMyQyNjEwMDIjNTEjJDEjJDIjJDgz","name":"동원당약국","category":"약국","sido":"광주","sigungu":"광주서구","address":"광주광역시 서구 월드컵4강로229번길 3, 1층 (쌍촌동)","phone":"062-383-7235","openDate":"1980-10-20","longitude":126.8689152,"latitude":35.156534},{"id":"JDQ4MTYyMiM3MSMkMSMkMCMkMDMkMzgxNzAyIzIxIyQxIyQ1IyQ5OSQyNjEyMjIjNTEjJDEjJDYjJDgz","name":"동의당한약국","category":"약국","sido":"광주","sigungu":"광주남구","address":"광주광역시 남구 용대로 155, (방림동, 광명그린아파트)","phone":"062-652-5577","openDate":"2001-09-05","longitude":126.9176011,"latitude":35.1297402},{"id":"JDQ4MTYyMiM3MSMkMSMkMCMkMDMkMzgxOTYxIzMxIyQxIyQ3IyQwMyQzNjE0ODEjNDEjJDEjJDgjJDgz","name":"동인약국","category":"약국","sido":"광주","sigungu":"광주광산구","address":"광주광역시 광산구 사암로215번길 51, (우산동)","phone":"062-266-5431","openDate":"2015-05-06","longitude":126.8054723,"latitude":35.1636604},{"id":"JDQ4MTYyMiM3MSMkMSMkMCMkMDMkMzgxNzAyIzExIyQxIyQ3IyQ3MiQzNjEwMDIjNzEjJDEjJDgjJDgz","name":"동진한약국","category":"약국","sido":"광주","sigungu":"광주북구","address":"광주광역시 북구 동문대로 9, (우산동)","phone":"062-223-0001","openDate":"2013-04-10","longitude":126.919306,"latitude":35.1656493},{"id":"JDQ4MTYyMiM3MSMkMSMkMCMkMDMkMzgxNzAyIzUxIyQxIyQxIyQwMyQyNjEyMjIjODEjJDEjJDYjJDgz","name":"동천봄약국","category":"약국","sido":"광주","sigungu":"광주서구","address":"광주광역시 서구 하남대로 654, 1층 (동천동)","phone":"062-511-1333","openDate":"2020-01-17","longitude":126.8640849,"latitude":35.1716913},{"id":"JDQ4MTYyMiM3MSMkMSMkMCMkMDMkMzgxNzAyIzQxIyQxIyQ3IyQ2MiQzNjE4MzIjNjEjJDEjJDAjJDgz","name":"동천약국","category":"약국","sido":"광주","sigungu":"광주서구","address":"광주광역시 서구 동천로 17, (동천동)","phone":"062-511-1155","openDate":"2012-02-01","longitude":126.8600831,"latitude":35.1704303},{"id":"JDQ4MTYyMiM3MSMkMSMkMCMkMDMkMzgxMzUxIzMxIyQxIyQzIyQ3OSQzNjE4MzIjNjEjJDEjJDgjJDgz","name":"동화당약국","category":"약국","sido":"광주","sigungu":"광주북구","address":"광주광역시 북구 북문대로 133, 1층 (운암동)","phone":"062-521-0106","openDate":"1979-08-20","longitude":126.8735081,"latitude":35.1808599},{"id":"JDQ4MTYyMiM3MSMkMSMkMCMkMDMkMzgxNzAyIzMxIyQxIyQzIyQ4OSQzNjE4MzIjNDEjJDEjJDQjJDgz","name":"두암우리약국","category":"약국","sido":"광주","sigungu":"광주북구","address":"광주광역시 북구 면앙로 193, 1층 (두암동)","phone":"062-269-9900","openDate":"2018-08-17","longitude":126.9326872,"latitude":35.1754199},{"id":"JDQ4MTYyMiM3MSMkMSMkMCMkMDMkMzgxOTYxIzUxIyQxIyQ1IyQ3OSQzNjE4MzIjNzEjJDEjJDgjJDgz","name":"두암종로약국","category":"약국","sido":"광주","sigungu":"광주북구","address":"광주광역시 북구 동문대로 110, 1층 (두암동)","phone":"062-269-8575","openDate":"1997-05-08","longitude":126.9253993,"latitude":35.1728794},{"id":"JDQ4MTYyMiM3MSMkMSMkMCMkMDMkMzgxOTYxIzMxIyQxIyQzIyQ3MiQzNjE0ODEjNTEjJDEjJDYjJDgz","name":"두암타운온누리약국","category":"약국","sido":"광주","sigungu":"광주북구","address":"광주광역시 북구 밤실로 162, (두암동)","phone":"062-267-8575","openDate":"2022-01-13","longitude":126.9351021,"latitude":35.1621435},{"id":"JDQ4MTYyMiM3MSMkMSMkMCMkMDMkMzgxNzAyIzUxIyQyIyQxIyQwMCQyNjEyMjIjNTEjJDEjJDIjJDgz","name":"둥지약국","category":"약국","sido":"광주","sigungu":"광주동구","address":"광주광역시 동구 남문로 586, 1층 (소태동)","phone":"062-228-8080","openDate":"2024-04-25","longitude":126.9327761,"latitude":35.1233494},{"id":"JDQ4MTYyMiM3MSMkMSMkMCMkMDMkMzgxNzAyIzMxIyQxIyQzIyQ5OSQzNjE0ODEjNTEjJDEjJDIjJDgz","name":"드린온누리약국","category":"약국","sido":"광주","sigungu":"광주북구","address":"광주광역시 북구 하서로483번길 2, 1층 107호 (본촌동)","phone":"","openDate":"2018-09-10","longitude":126.8774496,"latitude":35.2177757},{"id":"JDQ4MTYyMiM3MSMkMSMkMCMkMDMkMzgxMTkxIzMxIyQyIyQzIyQwMCQyNjE4MzIjNjEjJDEjJDgjJDgz","name":"드림약국","category":"약국","sido":"광주","sigungu":"광주남구","address":"광주광역시 남구 봉선2로 53, (봉선동)","phone":"062-655-9966","openDate":"2015-10-06","longitude":126.9123959,"latitude":35.1259455},{"id":"JDQ4MTYyMiM3MSMkMSMkMCMkMDMkMzgxNzAyIzUxIyQxIyQxIyQ5MiQzNjEwMDIjNjEjJDEjJDgjJDgz","name":"등대약국","category":"약국","sido":"광주","sigungu":"광주남구","address":"광주광역시 남구 회재로 1254, 1층 103호 (주월동)","phone":"062-412-1495","openDate":"2025-02-03","longitude":126.8978969,"latitude":35.134132},{"id":"JDQ4MTYyMiM3MSMkMSMkMCMkMDMkMzgxNzAyIzUxIyQxIyQxIyQ3MiQzNjE4MzIjODEjJDEjJDIjJDgz","name":"라온약국","category":"약국","sido":"광주","sigungu":"광주광산구","address":"광주광역시 광산구 송도로 160, (도산동)","phone":"062-946-0325","openDate":"2024-10-21","longitude":126.792921,"latitude":35.1288242},{"id":"JDQ4MTYyMiM3MSMkMSMkMCMkMDMkMzgxMzUxIzIxIyQxIyQ1IyQ2MiQ0NjEwMDIjODEjJDEjJDYjJDgz","name":"라인약국","category":"약국","sido":"광주","sigungu":"광주북구","address":"광주광역시 북구 동문대로 125, 1층 (우산동)","phone":"062-269-0063","openDate":"1994-05-31","longitude":126.9258377,"latitude":35.174274},{"id":"JDQ4MTYyMiM3MSMkMSMkMCMkMDMkMzgxNzAyIzExIyQxIyQzIyQ3MiQzNjEyMjIjODEjJDEjJDYjJDgz","name":"라인종로약국","category":"약국","sido":"광주","sigungu":"광주광산구","address":"광주광역시 광산구 월계로 117-32, 104호 (월계동, 첨단라인아파트 상가)","phone":"062-971-2882","openDate":"2011-11-14","longitude":126.8406204,"latitude":35.2163601},{"id":"JDQ4MTYyMiM3MSMkMSMkMCMkMDMkMzgxNzAyIzMxIyQxIyQ3IyQ5MiQzNjE0ODEjNjEjJDEjJDQjJDgz","name":"라임약국","category":"약국","sido":"광주","sigungu":"광주광산구","address":"광주광역시 광산구 수등로 270, (신가동)","phone":"062-956-3646","openDate":"2021-05-18","longitude":126.8383314,"latitude":35.1849785},{"id":"JDQ4MTYyMiM3MSMkMSMkMCMkMDMkMzgxNzAyIzQxIyQxIyQ3IyQ4OSQyNjEyMjIjNDEjJDEjJDgjJDgz","name":"라포약국","category":"약국","sido":"광주","sigungu":"광주북구","address":"광주광역시 북구 삼정로 20, 103호 (두암동, 모아미래도아파트상가)","phone":"062-262-7735","openDate":"2003-03-25","longitude":126.9383517,"latitude":35.164149},{"id":"JDQ4MTYyMiM3MSMkMSMkMCMkMDMkMzgxMzUxIzMxIyQxIyQzIyQxMyQzNjE0ODEjNzEjJDEjJDgjJDgz","name":"란약국","category":"약국","sido":"광주","sigungu":"광주북구","address":"광주광역시 북구 군왕로 127-1, (두암동)","phone":"062-264-5679","openDate":"1987-05-30","longitude":126.9326105,"latitude":35.1727501},{"id":"JDQ4MTYyMiM3MSMkMSMkMCMkMDMkMzgxMzUxIzExIyQxIyQ3IyQ4MiQzNjE0ODEjNDEjJDEjJDQjJDgz","name":"런던약국","category":"약국","sido":"광주","sigungu":"광주동구","address":"광주광역시 동구 중앙로160번길 1, (황금동)","phone":"062-222-0516","openDate":"1970-07-10","longitude":126.9136045,"latitude":35.1482442},{"id":"JDQ4MTYyMiM3MSMkMSMkMCMkMDMkMzgxNzAyIzExIyQyIyQzIyQwMCQyNjE0ODEjNjEjJDEjJDQjJDgz","name":"레몬약국","category":"약국","sido":"광주","sigungu":"광주서구","address":"광주광역시 서구 상무평화로 78, (치평동)","phone":"062-376-3622","openDate":"2020-06-02","longitude":126.8476609,"latitude":35.1477987},{"id":"JDQ4MTYyMiM3MSMkMSMkMCMkMDMkMzgxNzAyIzExIyQxIyQzIyQ2MiQyNjE0ODEjNTEjJDEjJDIjJDgz","name":"로뎀약국","category":"약국","sido":"광주","sigungu":"광주동구","address":"광주광역시 동구 백서로 145-1, (남동)","phone":"062-373-3618","openDate":"2016-05-23","longitude":126.9211262,"latitude":35.1428449},{"id":"JDQ4MTYyMiM3MSMkMSMkMCMkMDMkMzgxNzAyIzIxIyQxIyQxIyQ5OSQ0NjE0ODEjNjEjJDEjJDgjJDgz","name":"리라약국","category":"약국","sido":"광주","sigungu":"광주남구","address":"광주광역시 남구 효우2로 30, (행암동)","phone":"062-682-9391","openDate":"2014-09-03","longitude":126.8888351,"latitude":35.1018857},{"id":"JDQ4MTYyMiM3MSMkMSMkMCMkMDMkMzgxOTYxIzIxIyQxIyQ5IyQ3MiQ0NjEwMDIjODEjJDEjJDIjJDgz","name":"마재우리약국","category":"약국","sido":"광주","sigungu":"광주서구","address":"광주광역시 서구 화개1로79번길 3, 1층 104호 (금호동)","phone":"062-655-0073","openDate":"2001-03-13","longitude":126.8547961,"latitude":35.1309291},{"id":"JDQ4MTYyMiM3MSMkMSMkMCMkMDMkMzgxMTkxIzIxIyQxIyQ1IyQ5OSQ0NjEwMDIjNjEjJDEjJDQjJDgz","name":"마트약국","category":"약국","sido":"광주","sigungu":"광주광산구","address":"광주광역시 광산구 첨단강변로99번길 22, (쌍암동)","phone":"062-971-8988","openDate":"2002-10-18","longitude":126.8519208,"latitude":35.2167821},{"id":"JDQ4MTYyMiM3MSMkMSMkMCMkMDMkMzgxMTkxIzIxIyQxIyQ1IyQwMyQzNjE0ODEjODEjJDEjJDIjJDgz","name":"마트약국","category":"약국","sido":"광주","sigungu":"광주서구","address":"광주광역시 서구 시청로 40, 1층 (치평동)","phone":"062-383-8884","openDate":"2002-04-22","longitude":126.8524138,"latitude":35.1523631},{"id":"JDQ4MTYyMiM3MSMkMSMkMCMkMDMkMzgxMzUxIzMxIyQxIyQzIyQ4MiQ0NjE0ODEjODEjJDEjJDIjJDgz","name":"말바우약국","category":"약국","sido":"광주","sigungu":"광주북구","address":"광주광역시 북구 동문대로 129, 1층 (우산동)","phone":"062-264-9669","openDate":"2002-12-02","longitude":126.9260467,"latitude":35.1746589},{"id":"JDQ4MTYyMiM3MSMkMSMkMCMkMDMkMzgxMTkxIzUxIyQxIyQxIyQwMyQyNjEwMDIjNjEjJDEjJDQjJDgz","name":"말바우우리약국","category":"약국","sido":"광주","sigungu":"광주북구","address":"광주광역시 북구 동문대로86번길 4, (두암동)","phone":"062-262-5554","openDate":"2009-03-04","longitude":126.9236013,"latitude":35.1712323},{"id":"JDQ4MTYyMiM3MSMkMSMkMCMkMDMkMzgxNzAyIzIxIyQxIyQ1IyQ4MiQ0NjEwMDIjNDEjJDEjJDQjJDgz","name":"말바우중앙약국","category":"약국","sido":"광주","sigungu":"광주북구","address":"광주광역시 북구 동문대로 96, (두암동)","phone":"062-262-9995","openDate":"2016-08-01","longitude":126.9244378,"latitude":35.1719247},{"id":"JDQ4MTYyMiM3MSMkMSMkMCMkMDMkMzgxNzAyIzIxIyQxIyQxIyQ2MiQzNjEyMjIjNjEjJDEjJDAjJDgz","name":"맑은약국","category":"약국","sido":"광주","sigungu":"광주서구","address":"광주광역시 서구 상무중앙로 43, 1층 (치평동)","phone":"062-376-0073","openDate":"2014-12-01","longitude":126.8478289,"latitude":35.1510031},{"id":"JDQ4MTYyMiM3MSMkMSMkMCMkMDMkMzgxMzUxIzUxIyQxIyQ1IyQwMyQyNjE0ODEjNTEjJDEjJDIjJDgz","name":"맑은약국","category":"약국","sido":"광주","sigungu":"광주북구","address":"광주광역시 북구 빛고을대로 466, 탑팀메디플래닛 (연제동)","phone":"","openDate":"2022-05-11","longitude":126.8661915,"latitude":35.2036148},{"id":"JDQ4MTYyMiM3MSMkMSMkMCMkMDMkMzgxMTkxIzIxIyQxIyQ1IyQwMyQzNjEyMjIjNjEjJDEjJDAjJDgz","name":"매곡종로약국","category":"약국","sido":"광주","sigungu":"광주북구","address":"광주광역시 북구 매곡로 61, (매곡동)","phone":"062-573-0374","openDate":"2021-10-06","longitude":126.8934428,"latitude":35.1903972},{"id":"JDQ4MTYyMiM3MSMkMSMkMCMkMDMkMzgxNzAyIzExIyQxIyQ3IyQwMyQ0NjEwMDIjNDEjJDEjJDgjJDgz","name":"매곡한사랑약국","category":"약국","sido":"광주","sigungu":"광주북구","address":"광주광역시 북구 매곡로 34, (매곡동)","phone":"062-576-2007","openDate":"2014-01-02","longitude":126.8945334,"latitude":35.1880349},{"id":"JDQ4MTYyMiM3MSMkMSMkMCMkMDMkMzgxMTkxIzMxIyQxIyQ3IyQ2MiQzNjEyMjIjNjEjJDEjJDAjJDgz","name":"매일건강약국","category":"약국","sido":"광주","sigungu":"광주광산구","address":"광주광역시 광산구 내상로 59, 1층 (송정동)","phone":"062-941-6060","openDate":"2016-02-01","longitude":126.7987342,"latitude":35.1373461},{"id":"JDQ4MTYyMiM3MSMkMSMkMCMkMDMkMzgxNzAyIzIxIyQxIyQ5IyQ5MiQzNjEwMDIjNDEjJDEjJDgjJDgz","name":"메디웰 자연 약국","category":"약국","sido":"광주","sigungu":"광주남구","address":"광주광역시 남구 제석로 104, 202동 상가 지하 1층 (봉선동)","phone":"062-674-8583","openDate":"2017-12-14","longitude":126.9074211,"latitude":35.1237129},{"id":"JDQ4MTYyMiM3MSMkMSMkMCMkMDMkMzgxOTYxIzIxIyQxIyQ1IyQwMyQ0NjE0ODEjNjEjJDEjJDQjJDgz","name":"메디치약국","category":"약국","sido":"광주","sigungu":"광주북구","address":"광주광역시 북구 설죽로315번길 1, (매곡동)","phone":"062-574-8577","openDate":"2014-03-24","longitude":126.8982522,"latitude":35.1875543},{"id":"JDQ4MTYyMiM3MSMkMSMkMCMkMDMkMzgxMzUxIzMxIyQxIyQzIyQ5MiQyNjE0ODEjNDEjJDEjJDQjJDgz","name":"메디팜건강약국","category":"약국","sido":"광주","sigungu":"광주북구","address":"광주광역시 북구 삼정로 7, 110호 (두암동, 주공2단지상가)","phone":"062-263-9970","openDate":"1987-06-29","longitude":126.9359259,"latitude":35.1631317},{"id":"JDQ4MTYyMiM3MSMkMSMkMCMkMDMkMzgxNzAyIzExIyQxIyQ3IyQ3MiQyNjEyMjIjNTEjJDEjJDIjJDgz","name":"메디팜믿음약국","category":"약국","sido":"광주","sigungu":"광주서구","address":"광주광역시 서구 풍암신흥로 22, 1층 (풍암동)","phone":"062-655-0075","openDate":"2013-04-29","longitude":126.8659081,"latitude":35.1199659},{"id":"JDQ4MTYyMiM3MSMkMSMkMCMkMDMkMzgxMzUxIzMxIyQxIyQ3IyQ4OSQzNjEyMjIjNDEjJDEjJDgjJDgz","name":"메디팜새롬약국","category":"약국","sido":"광주","sigungu":"광주서구","address":"광주광역시 서구 염화로45번길 13, 1층 15,20,25호 (화정동)","phone":"062-374-6602","openDate":"1999-09-07","longitude":126.8712418,"latitude":35.1384708},{"id":"JDQ4MTYyMiM3MSMkMSMkMCMkMDMkMzgxOTYxIzIxIyQxIyQxIyQxMyQyNjEwMDIjODEjJDEjJDYjJDgz","name":"메디팜서정약국","category":"약국","sido":"광주","sigungu":"광주서구","address":"광주광역시 서구 시청로 17, 아난다 빌딩 지하1층 (치평동)","phone":"062-371-8701","openDate":"2018-07-26","longitude":126.851155,"latitude":35.1500559},{"id":"JDQ4MTYyMiM3MSMkMSMkMCMkMDMkMzgxOTYxIzIxIyQxIyQ1IyQ4OSQyNjEyMjIjNjEjJDEjJDQjJDgz","name":"메디팜세종약국","category":"약국","sido":"광주","sigungu":"광주북구","address":"광주광역시 북구 삼정로 110, 1층 (두암동)","phone":"062-263-6800","openDate":"1999-11-22","longitude":126.9369899,"latitude":35.1716861},{"id":"JDQ4MTYyMiM3MSMkMSMkMCMkMDMkMzgxNzAyIzExIyQxIyQ3IyQ5MiQzNjE0ODEjNTEjJDEjJDYjJDgz","name":"메디팜수완이화약국","category":"약국","sido":"광주","sigungu":"광주광산구","address":"광주광역시 광산구 수완로12번길 7, 1층 (수완동)","phone":"062-954-8877","openDate":"2015-10-15","longitude":126.8293033,"latitude":35.1863273},{"id":"JDQ4MTYyMiM3MSMkMSMkMCMkMDMkMzgxMzUxIzMxIyQyIyQ3IyQwMCQyNjEyMjIjNTEjJDEjJDYjJDgz","name":"메디팜신세계약국","category":"약국","sido":"광주","sigungu":"광주북구","address":"광주광역시 북구 반룡로27번길 5, (용봉동)","phone":"062-514-6834","openDate":"1985-04-11","longitude":126.9011036,"latitude":35.1792678},{"id":"JDQ4MTYyMiM3MSMkMSMkMCMkMDMkMzgxOTYxIzMxIyQxIyQ3IyQ3MiQ0NjE0ODEjNTEjJDEjJDIjJDgz","name":"메디팜인제약국","category":"약국","sido":"광주","sigungu":"광주서구","address":"광주광역시 서구 화운로193번길 28, 1층 (내방동)","phone":"062-383-4256","openDate":"2002-10-31","longitude":126.87371,"latitude":35.1563525},{"id":"JDQ4MTYyMiM3MSMkMSMkMCMkMDMkMzgxOTYxIzMxIyQxIyQ3IyQwMyQzNjEyMjIjODEjJDEjJDIjJDgz","name":"메디팜일곡큰사랑약국","category":"약국","sido":"광주","sigungu":"광주북구","address":"광주광역시 북구 설죽로 515, 1층 (일곡동, 선주빌딩)","phone":"062-572-9555","openDate":"2000-12-14","longitude":126.8974783,"latitude":35.2050099},{"id":"JDQ4MTYyMiM3MSMkMSMkMCMkMDMkMzgxOTYxIzQxIyQxIyQ3IyQ2MiQzNjEyMjIjNjEjJDEjJDQjJDgz","name":"메디팜큰사랑약국","category":"약국","sido":"광주","sigungu":"광주서구","address":"광주광역시 서구 풍암중앙로 55, 1층 (풍암동)","phone":"062-682-8875","openDate":"2006-05-02","longitude":126.8801662,"latitude":35.125624},{"id":"JDQ4MTYyMiM3MSMkMSMkMCMkMDMkMzgxOTYxIzMxIyQxIyQ3IyQ2MiQyNjE4MzIjNjEjJDEjJDAjJDgz","name":"메디팜한마음약국","category":"약국","sido":"광주","sigungu":"광주남구","address":"광주광역시 남구 서문대로 777, 1층 (주월동)","phone":"062-974-0075","openDate":"2015-08-03","longitude":126.8971978,"latitude":35.1288584},{"id":"JDQ4MTYyMiM3MSMkMSMkMCMkMDMkMzgxNzAyIzIxIyQxIyQ1IyQ3OSQzNjE0ODEjNjEjJDEjJDQjJDgz","name":"명동약국","category":"약국","sido":"광주","sigungu":"광주동구","address":"광주광역시 동구 충장로 102-11, (충장로1가)","phone":"062-227-4417","openDate":"2015-10-20","longitude":126.9175007,"latitude":35.1467794},{"id":"JDQ4MTYyMiM3MSMkMSMkMCMkMDMkMzgxNzAyIzMxIyQxIyQ3IyQ4OSQyNjE0ODEjODEjJDEjJDYjJDgz","name":"명문약국","category":"약국","sido":"광주","sigungu":"광주서구","address":"광주광역시 서구 대남대로 439-1, 1층 (농성동)","phone":"062-352-2250","openDate":"2017-06-26","longitude":126.8870242,"latitude":35.1495748},{"id":"JDQ4MTYyMiM3MSMkMSMkMCMkMDMkMzgxMTkxIzExIyQxIyQ3IyQ3OSQzNjEyMjIjNTEjJDEjJDYjJDgz","name":"명문약국","category":"약국","sido":"광주","sigungu":"광주북구","address":"광주광역시 북구  하서로 414, (양산동)","phone":"062-574-0320","openDate":"2013-04-01","longitude":126.8747002,"latitude":35.2118591},{"id":"JDQ4MTYyMiM3MSMkMSMkMCMkMDMkMzgxNzAyIzExIyQxIyQzIyQ5OSQ0NjEwMDIjNDEjJDEjJDgjJDgz","name":"명인원한약국","category":"약국","sido":"광주","sigungu":"광주남구","address":"광주광역시 남구 군분로66번길 5-1, (월산동)","phone":"062-369-7588","openDate":"2019-07-17","longitude":126.8929111,"latitude":35.1395726},{"id":"JDQ4MTYyMiM3MSMkMSMkMCMkMDMkMzgxMzUxIzMxIyQyIyQzIyQwMCQyNjE4MzIjNjEjJDEjJDQjJDgz","name":"명지약국","category":"약국","sido":"광주","sigungu":"광주북구","address":"광주광역시 북구 무등로 102, (신안동)","phone":"062-529-2559","openDate":"1979-03-02","longitude":126.8951408,"latitude":35.1677225},{"id":"JDQ4MTYyMiM3MSMkMSMkMCMkMDMkMzgxNzAyIzMxIyQyIyQ3IyQwMCQzNjE4MzIjNDEjJDEjJDgjJDgz","name":"모더나약국","category":"약국","sido":"광주","sigungu":"광주서구","address":"광주광역시 서구 상무자유로 179, 프레지아빌딩 1층 105호 (치평동)","phone":"062-382-0508","openDate":"2024-11-22","longitude":126.8538784,"latitude":35.1520127},{"id":"JDQ4MTYyMiM3MSMkMSMkMCMkMDMkMzgxMTkxIzMxIyQxIyQzIyQxMyQyNjEwMDIjNTEjJDEjJDYjJDgz","name":"모아당약국","category":"약국","sido":"광주","sigungu":"광주북구","address":"광주광역시 북구 서양로 46, 모아타운 1층 1호 (중흥동)","phone":"062-527-6345","openDate":"2025-06-23","longitude":126.9061408,"latitude":35.1701766},{"id":"JDQ4MTYyMiM3MSMkMSMkMCMkMDMkMzgxNzAyIzQxIyQxIyQ3IyQ3MiQ0NjE0ODEjNDEjJDEjJDQjJDgz","name":"모아약국","category":"약국","sido":"광주","sigungu":"광주동구","address":"광주광역시 동구 남문로 667, 1층 (학동)","phone":"062-232-0520","openDate":"2023-08-03","longitude":126.9292434,"latitude":35.1302692},{"id":"JDQ4MTYyMiM3MSMkMSMkMCMkMDMkMzgxNzAyIzIxIyQyIyQ5IyQwMCQ0NjE0ODEjNjEjJDEjJDgjJDgz","name":"무등미래약국","category":"약국","sido":"광주","sigungu":"광주남구","address":"광주광역시 남구 군분로 34, (월산동)","phone":"062-361-9635","openDate":"2017-03-20","longitude":126.8945136,"latitude":35.1368071},{"id":"JDQ4MTYyMiM3MSMkMSMkMCMkMDMkMzgxMTkxIzExIyQyIyQ3IyQwMCQyNjE0ODEjNjEjJDEjJDgjJDgz","name":"무등산약국","category":"약국","sido":"광주","sigungu":"광주동구","address":"광주광역시 동구 지원로 2, (소태동)","phone":"062-226-3006","openDate":"2000-06-01","longitude":126.9326438,"latitude":35.1235357},{"id":"JDQ4MTYyMiM3MSMkMSMkMCMkMDMkMzgxOTYxIzExIyQxIyQzIyQwMyQ0NjEwMDIjNjEjJDEjJDAjJDgz","name":"무등산약국","category":"약국","sido":"광주","sigungu":"광주서구","address":"광주광역시 서구 상무대로 1062, (화정동)","phone":"062-351-8200","openDate":"1999-07-12","longitude":126.8781271,"latitude":35.1519938},{"id":"JDQ4MTYyMiM3MSMkMSMkMCMkMDMkMzgxMzUxIzUxIyQxIyQxIyQ4MiQyNjE4MzIjNjEjJDEjJDgjJDgz","name":"무등약국","category":"약국","sido":"광주","sigungu":"광주광산구","address":"광주광역시 광산구 월곡산정로 79, (월곡동)","phone":"062-951-2388","openDate":"1991-01-28","longitude":126.8107691,"latitude":35.1661549},{"id":"JDQ4MTYyMiM3MSMkMSMkMCMkMDMkMzgxMTkxIzUxIyQyIyQxIyQwMCQzNjE0ODEjNTEjJDEjJDYjJDgz","name":"무지개약국","category":"약국","sido":"광주","sigungu":"광주북구","address":"광주광역시 북구 동문대로 154, 1층 101호 (두암동)","phone":"062-265-5505","openDate":"2023-07-18","longitude":126.9281094,"latitude":35.1762211},{"id":"JDQ4MTYyMiM3MSMkMSMkMCMkMDMkMzgxNzAyIzMxIyQxIyQ3IyQ4MiQyNjEyMjIjNDEjJDEjJDgjJDgz","name":"무지개약국","category":"약국","sido":"광주","sigungu":"광주서구","address":"광주광역시 서구 경열로 118, 1층 (양동)","phone":"062-369-8718","openDate":"2021-02-17","longitude":126.8989732,"latitude":35.1526573},{"id":"JDQ4MTYyMiM3MSMkMSMkMCMkMDMkMzgxNzAyIzIxIyQxIyQ5IyQxMyQyNjEwMDIjNTEjJDEjJDIjJDgz","name":"문약국","category":"약국","sido":"광주","sigungu":"광주북구","address":"광주광역시 북구 동문대로 82, 1층 102호 (두암동)","phone":"062-417-2564","openDate":"2018-03-18","longitude":126.9231276,"latitude":35.1709929},{"id":"JDQ4MTYyMiM3MSMkMSMkMCMkMDMkMzgxMTkxIzIxIyQyIyQ5IyQwMCQyNjE4MzIjNDEjJDEjJDQjJDgz","name":"문화약국","category":"약국","sido":"광주","sigungu":"광주광산구","address":"광주광역시 광산구 첨단중앙로 120, 신영빌딩 1층 (월계동)","phone":"062-973-5223","openDate":"2024-06-24","longitude":126.8427004,"latitude":35.2161289},{"id":"JDQ4MTYyMiM3MSMkMSMkMCMkMDMkMzgxNzAyIzExIyQxIyQ3IyQ4MiQzNjE0ODEjNjEjJDEjJDgjJDgz","name":"미담한약국","category":"약국","sido":"광주","sigungu":"광주광산구","address":"광주광역시 광산구 풍영로101번안길 11-2, 1층 (흑석동)","phone":"062-574-5013","openDate":"2013-07-03","longitude":126.8100819,"latitude":35.1813607},{"id":"JDQ4MTYyMiM3MSMkMSMkMCMkMDMkMzgxOTYxIzUxIyQxIyQ1IyQwMyQzNjE0ODEjNDEjJDEjJDgjJDgz","name":"미래로약국","category":"약국","sido":"광주","sigungu":"광주북구","address":"광주광역시 북구 양산택지소로 3, 1층 (본촌동)","phone":"062-574-9800","openDate":"2006-11-22","longitude":126.8818647,"latitude":35.2125666},{"id":"JDQ4MTYyMiM3MSMkMSMkMCMkMDMkMzgxMTkxIzIxIyQxIyQ5IyQ5MiQzNjE4MzIjNDEjJDEjJDgjJDgz","name":"미래로약국","category":"약국","sido":"광주","sigungu":"광주동구","address":"광주광역시 동구 소태길 1, (소태동)","phone":"062-227-0728","openDate":"2021-07-28","longitude":126.9333433,"latitude":35.1218033},{"id":"JDQ4MTYyMiM3MSMkMSMkMCMkMDMkMzgxNzAyIzMxIyQyIyQzIyQwMCQyNjEyMjIjNTEjJDEjJDYjJDgz","name":"미래약국","category":"약국","sido":"광주","sigungu":"광주북구","address":"광주광역시 북구 설죽로370번길 32, 1층 (오치동)","phone":"062-262-4411","openDate":"2018-11-01","longitude":126.9019783,"latitude":35.1934974},{"id":"JDQ4MTYyMiM3MSMkMSMkMCMkMDMkMzgxNzAyIzUxIyQxIyQxIyQ4MiQzNjE4MzIjNjEjJDEjJDQjJDgz","name":"미래약국","category":"약국","sido":"광주","sigungu":"광주서구","address":"광주광역시 서구 상무시민로 75, 104호 (치평동)","phone":"062-710-1152","openDate":"2022-04-13","longitude":126.8470696,"latitude":35.1554901},{"id":"JDQ4MTYyMiM3MSMkMSMkMCMkMDMkMzgxMTkxIzIxIyQxIyQ1IyQ3MiQzNjE4MzIjNDEjJDEjJDgjJDgz","name":"미래온누리약국","category":"약국","sido":"광주","sigungu":"광주서구","address":"광주광역시 서구 대남대로 435, 1층 (농성동)","phone":"062-365-1170","openDate":"2006-11-01","longitude":126.8873157,"latitude":35.1491857},{"id":"JDQ4MTYyMiM3MSMkMSMkMCMkMDMkMzgxNzAyIzIxIyQyIyQ1IyQwMCQzNjEyMjIjNTEjJDEjJDYjJDgz","name":"미미약국","category":"약국","sido":"광주","sigungu":"광주북구","address":"광주광역시 북구 서방로 167, (두암동)","phone":"062-261-9700","openDate":"2023-09-19","longitude":126.9305699,"latitude":35.1692606},{"id":"JDQ4MTYyMiM3MSMkMSMkMCMkMDMkMzgxOTYxIzUxIyQxIyQxIyQ4OSQzNjEwMDIjNDEjJDEjJDgjJDgz","name":"미소그린약국","category":"약국","sido":"광주","sigungu":"광주서구","address":"광주광역시 서구 죽봉대로 61, 2층 (화정동)","phone":"062-362-0033","openDate":"2006-06-27","longitude":126.8820431,"latitude":35.1588069},{"id":"JDQ4MTYyMiM3MSMkMSMkMCMkMDMkMzgxNzAyIzIxIyQxIyQxIyQwMyQzNjE4MzIjNDEjJDEjJDgjJDgz","name":"미소약국","category":"약국","sido":"광주","sigungu":"광주북구","address":"광주광역시 북구 양일1로 3, (연제동, 신안타워)","phone":"062-571-3262","openDate":"2017-10-20","longitude":126.8709426,"latitude":35.1975159},{"id":"JDQ4MTYyMiM3MSMkMSMkMCMkMDMkMzgxMTkxIzExIyQxIyQzIyQ3OSQzNjEwMDIjODEjJDEjJDYjJDgz","name":"미소약국","category":"약국","sido":"광주","sigungu":"광주서구","address":"광주광역시 서구 상무버들로 28, 1층 (유촌동)","phone":"062-373-2231","openDate":"2006-02-17","longitude":126.8603469,"latitude":35.1646263},{"id":"JDQ4MTYyMiM3MSMkMSMkMCMkMDMkMzgxNzAyIzMxIyQyIyQ3IyQwMCQzNjE0ODEjNjEjJDEjJDgjJDgz","name":"미소지음약국","category":"약국","sido":"광주","sigungu":"광주서구","address":"광주광역시 서구 화운로 129, 1층 101호 (화정동)","phone":"062-371-0914","openDate":"2020-09-09","longitude":126.8776694,"latitude":35.1505455},{"id":"JDQ4MTYyMiM3MSMkMSMkMCMkMDMkMzgxMTkxIzUxIyQxIyQxIyQ4MiQzNjEwMDIjNTEjJDEjJDYjJDgz","name":"미지원약국","category":"약국","sido":"광주","sigungu":"광주서구","address":"광주광역시 서구 금화로 59, (금호동)","phone":"062-385-0220","openDate":"2017-01-02","longitude":126.8554272,"latitude":35.1322658},{"id":"JDQ4MTYyMiM3MSMkMSMkMCMkMDMkMzgxMTkxIzQxIyQxIyQ3IyQ3OSQyNjE4MzIjNzEjJDEjJDgjJDgz","name":"민약국","category":"약국","sido":"광주","sigungu":"광주북구","address":"광주광역시 북구 첨단연신로 97, 305호 (신용동)","phone":"062-575-8728","openDate":"2014-01-14","longitude":126.8640276,"latitude":35.206596},{"id":"JDQ4MTYyMiM3MSMkMSMkMCMkMDMkMzgxNzAyIzExIyQxIyQzIyQ4MiQyNjEyMjIjNTEjJDEjJDYjJDgz","name":"민주약국","category":"약국","sido":"광주","sigungu":"광주광산구","address":"광주광역시 광산구 신창로131번길 19, (신창동)","phone":"062-953-8728","openDate":"2014-03-03","longitude":126.8376288,"latitude":35.1972528},{"id":"JDQ4MTYyMiM3MSMkMSMkMCMkMDMkMzgxOTYxIzMxIyQxIyQ3IyQ3OSQ0NjEwMDIjNjEjJDEjJDAjJDgz","name":"믿음약국","category":"약국","sido":"광주","sigungu":"광주서구","address":"광주광역시 서구 상무대로 923, (쌍촌동)","phone":"062-383-7574","openDate":"2011-12-30","longitude":126.862918,"latitude":35.1515134},{"id":"JDQ4MTYyMiM3MSMkMSMkMCMkMDMkMzgxNzAyIzQxIyQxIyQ3IyQ3MiQyNjE0ODEjNjEjJDEjJDAjJDgz","name":"바른길약국","category":"약국","sido":"광주","sigungu":"광주북구","address":"광주광역시 북구 임동로 6, 101호 (임동)","phone":"062-522-9700","openDate":"2022-08-25","longitude":126.8967075,"latitude":35.1607119},{"id":"JDQ4MTYyMiM3MSMkMSMkMCMkMDMkMzgxNzAyIzMxIyQxIyQ3IyQ5MiQzNjEwMDIjNTEjJDEjJDYjJDgz","name":"바른약국","category":"약국","sido":"광주","sigungu":"광주남구","address":"광주광역시 남구 중앙로 78, 안영주내과의원 1층 (서동)","phone":"062-710-0083","openDate":"2021-12-17","longitude":126.9069657,"latitude":35.1431976},{"id":"JDQ4MTYyMiM3MSMkMSMkMCMkMDMkMzgxNzAyIzIxIyQxIyQ1IyQ2MiQ0NjEwMDIjNjEjJDEjJDQjJDgz","name":"바보죽약국","category":"약국","sido":"광주","sigungu":"광주동구","address":"광주광역시 동구 의재로 145-1, (운림동)","phone":"","openDate":"2017-01-25","longitude":126.9433018,"latitude":35.1323935},{"id":"JDQ4MTYyMiM3MSMkMSMkMCMkMDMkMzgxOTYxIzMxIyQxIyQ3IyQ4MiQzNjE4MzIjNDEjJDEjJDgjJDgz","name":"박약국","category":"약국","sido":"광주","sigungu":"광주남구","address":"광주광역시 남구 백운로 73, (백운동)","phone":"062-675-7547","openDate":"1994-07-04","longitude":126.9057796,"latitude":35.1396874},{"id":"JDQ4MTYyMiM3MSMkMSMkMCMkMDMkMzgxNzAyIzMxIyQyIyQzIyQwMCQyNjE4MzIjNDEjJDEjJDgjJDgz","name":"밝은명약국","category":"약국","sido":"광주","sigungu":"광주광산구","address":"광주광역시 광산구 사암로215번길 35, 1층 (우산동)","phone":"062-962-7876","openDate":"2018-11-01","longitude":126.8063975,"latitude":35.1635716},{"id":"JDQ4MTYyMiM3MSMkMSMkMCMkMDMkMzgxMzUxIzIxIyQxIyQ5IyQ4MiQ0NjE0ODEjNDEjJDEjJDgjJDgz","name":"밝은미래약국","category":"약국","sido":"광주","sigungu":"광주서구","address":"광주광역시 서구 무진대로 950, 1층 (농성동)","phone":"062-364-7533","openDate":"2009-06-22","longitude":126.8844886,"latitude":35.1608879},{"id":"JDQ4MTYyMiM3MSMkMSMkMCMkMDMkMzgxOTYxIzQxIyQxIyQ3IyQ5MiQzNjEyMjIjNzEjJDEjJDgjJDgz","name":"밝은미래약국","category":"약국","sido":"광주","sigungu":"광주북구","address":"광주광역시 북구 설죽로 535-1, 상가동 117호 (일곡동, 청솔아파트)","phone":"062-575-3671","openDate":"1998-01-22","longitude":126.8973838,"latitude":35.2074167},{"id":"JDQ4MTYyMiM3MSMkMSMkMCMkMDMkMzgxMTkxIzQxIyQxIyQ3IyQwMyQzNjE0ODEjNTEjJDEjJDYjJDgz","name":"밝은약국","category":"약국","sido":"광주","sigungu":"광주동구","address":"광주광역시 동구 무등로 386, 1층 (계림동)","phone":"062-942-8575","openDate":"2019-04-19","longitude":126.9249698,"latitude":35.1601431},{"id":"JDQ4MTYyMiM3MSMkMSMkMCMkMDMkMzgxNzAyIzMxIyQxIyQzIyQ3MiQzNjEyMjIjNDEjJDEjJDgjJDgz","name":"밝은약국","category":"약국","sido":"광주","sigungu":"광주서구","address":"광주광역시 서구 화개1로 45, 1층 102호 (금호동)","phone":"062-651-8828","openDate":"2019-02-22","longitude":126.8549425,"latitude":35.1280046},{"id":"JDQ4MTYyMiM3MSMkMSMkMCMkMDMkMzgxNzAyIzMxIyQxIyQ3IyQ3OSQyNjE0ODEjNDEjJDEjJDgjJDgz","name":"밝은약국","category":"약국","sido":"광주","sigungu":"광주광산구","address":"광주광역시 광산구 임방울대로 355, 1층 (수완동)","phone":"062-471-8901","openDate":"2020-02-11","longitude":126.8234384,"latitude":35.1918146},{"id":"JDQ4MTYyMiM3MSMkMSMkMCMkMDMkMzgxNzAyIzIxIyQxIyQ5IyQ5OSQzNjEyMjIjNTEjJDEjJDIjJDgz","name":"밝은온누리약국","category":"약국","sido":"광주","sigungu":"광주서구","address":"광주광역시 서구 상무버들로 36, 1층 (유촌동)","phone":"062-376-8899","openDate":"2017-01-04","longitude":126.8595478,"latitude":35.1646424},{"id":"JDQ4MTYyMiM3MSMkMSMkMCMkMDMkMzgxNzAyIzExIyQxIyQ3IyQ5OSQyNjEwMDIjNTEjJDEjJDIjJDgz","name":"방림건강약국","category":"약국","sido":"광주","sigungu":"광주남구","address":"광주광역시 남구 대남대로 57-1, (방림동)","phone":"062-651-2722","openDate":"2012-11-23","longitude":126.9183829,"latitude":35.1355849},{"id":"JDQ4MTYyMiM3MSMkMSMkMCMkMDMkMzgxMTkxIzUxIyQxIyQxIyQwMyQzNjEwMDIjODEjJDEjJDIjJDgz","name":"백림약국","category":"약국","sido":"광주","sigungu":"광주북구","address":"광주광역시 북구 필문대로 85, (풍향동)","phone":"062-263-0994","openDate":"2018-01-02","longitude":126.9287142,"latitude":35.162488},{"id":"JDQ4MTYyMiM3MSMkMSMkMCMkMDMkMzgxOTYxIzUxIyQxIyQ1IyQwMyQyNjE4MzIjNTEjJDEjJDIjJDgz","name":"백세약국","category":"약국","sido":"광주","sigungu":"광주광산구","address":"광주광역시 광산구 첨단월봉로 94, 1층 (산월동)","phone":"062-974-0757","openDate":"2018-08-02","longitude":126.8487073,"latitude":35.2063928},{"id":"JDQ4MTYyMiM3MSMkMSMkMCMkMDMkMzgxNzAyIzMxIyQxIyQ3IyQ4MiQyNjE4MzIjNDEjJDEjJDQjJDgz","name":"백약국","category":"약국","sido":"광주","sigungu":"광주광산구","address":"광주광역시 광산구 남부대길 10, 공학관(복지관) (월계동)","phone":"062-972-7651","openDate":"2018-01-12","longitude":126.8421989,"latitude":35.2086093},{"id":"JDQ4MTYyMiM3MSMkMSMkMCMkMDMkMzgxMzUxIzMxIyQxIyQzIyQxMyQ0NjEwMDIjODEjJDEjJDIjJDgz","name":"백초당약국","category":"약국","sido":"광주","sigungu":"광주광산구","address":"광주광역시 광산구 도산로 6, (도산동)","phone":"062-946-0420","openDate":"2003-08-01","longitude":126.7919589,"latitude":35.1290009},{"id":"JDQ4MTYyMiM3MSMkMSMkMCMkMDMkMzgxMTkxIzIxIyQxIyQ5IyQ3MiQyNjE0ODEjNDEjJDEjJDQjJDgz","name":"버들약국","category":"약국","sido":"광주","sigungu":"광주서구","address":"광주광역시 서구 상무버들로 26, 1층 (유촌동)","phone":"062-374-2270","openDate":"2010-02-08","longitude":126.8605773,"latitude":35.1646203},{"id":"JDQ4MTYyMiM3MSMkMSMkMCMkMDMkMzgxMTkxIzIxIyQxIyQ1IyQ2MiQzNjEyMjIjNjEjJDEjJDQjJDgz","name":"베스트약국","category":"약국","sido":"광주","sigungu":"광주남구","address":"광주광역시 남구 효우로 85, 107호 (노대동)","phone":"062-672-7585","openDate":"2010-09-09","longitude":126.9045862,"latitude":35.1058862},{"id":"JDQ4MTYyMiM3MSMkMSMkMCMkMDMkMzgxNzAyIzQxIyQxIyQ3IyQ5MiQyNjE0ODEjODEjJDEjJDYjJDgz","name":"베스트온누리약국","category":"약국","sido":"광주","sigungu":"광주광산구","address":"광주광역시 광산구 임방울대로 138, 103호 베스트온누리약국 (운남동)","phone":"062-959-1200","openDate":"2023-01-18","longitude":126.8180147,"latitude":35.1734193},{"id":"JDQ4MTYyMiM3MSMkMSMkMCMkMDMkMzgxMTkxIzIxIyQxIyQ5IyQ5MiQzNjEyMjIjNTEjJDEjJDYjJDgz","name":"보광약국","category":"약국","sido":"광주","sigungu":"광주광산구","address":"광주광역시 광산구 풍영로 271, 1층 (장덕동)","phone":"062-376-9017","openDate":"2003-06-28","longitude":126.8153937,"latitude":35.1955322},{"id":"JDQ4MTYyMiM3MSMkMSMkMCMkMDMkMzgxMzUxIzExIyQxIyQ3IyQ4MiQ0NjE0ODEjNTEjJDEjJDIjJDgz","name":"보광약국","category":"약국","sido":"광주","sigungu":"광주동구","address":"광주광역시 동구 충장로58번길 20, (충장로4가)","phone":"062-223-3735","openDate":"1972-09-01","longitude":126.9125087,"latitude":35.1489544},{"id":"JDQ4MTYyMiM3MSMkMSMkMCMkMDMkMzgxNzAyIzExIyQxIyQ3IyQ2MiQzNjEyMjIjODEjJDEjJDIjJDgz","name":"보리수약국","category":"약국","sido":"광주","sigungu":"광주북구","address":"광주광역시 북구 비엔날레로 93, (용봉동)","phone":"062-526-1744","openDate":"2013-04-01","longitude":126.8899016,"latitude":35.1801141},{"id":"JDQ4MTYyMiM3MSMkMSMkMCMkMDMkMzgxNzAyIzExIyQxIyQzIyQ5OSQyNjEwMDIjNjEjJDEjJDgjJDgz","name":"보림당약국","category":"약국","sido":"광주","sigungu":"광주동구","address":"광주광역시 동구 남문로 746, (학동)","phone":"234-3345","openDate":"2015-05-01","longitude":126.9258648,"latitude":35.1366586},{"id":"JDQ4MTYyMiM3MSMkMSMkMCMkMDMkMzgxNzAyIzExIyQyIyQ3IyQwMCQyNjEwMDIjNDEjJDEjJDQjJDgz","name":"보림온누리약국","category":"약국","sido":"광주","sigungu":"광주북구","address":"광주광역시 북구 매곡로 45, (매곡동)","phone":"062-573-4704","openDate":"2013-01-02","longitude":126.8941508,"latitude":35.1889838},{"id":"JDQ4MTYyMiM3MSMkMSMkMCMkMDMkMzgxMTkxIzMxIyQxIyQzIyQ2MiQzNjEwMDIjNDEjJDEjJDQjJDgz","name":"보민약국","category":"약국","sido":"광주","sigungu":"광주서구","address":"광주광역시 서구 월드컵4강로 84-1, (화정동)","phone":"062-374-7575","openDate":"2016-07-06","longitude":126.8738855,"latitude":35.1444044},{"id":"JDQ4MTYyMiM3MSMkMSMkMCMkMDMkMzgxNzAyIzMxIyQxIyQ3IyQ4MiQ0NjE0ODEjNDEjJDEjJDgjJDgz","name":"보보약국","category":"약국","sido":"광주","sigungu":"광주북구","address":"광주광역시 북구 북문대로 167, 1층 (운암동)","phone":"062-446-8631","openDate":"2021-03-29","longitude":126.8712106,"latitude":35.1830567},{"id":"JDQ4MTYyMiM3MSMkMSMkMCMkMDMkMzgxNzAyIzMxIyQxIyQ3IyQ3OSQzNjE0ODEjNjEjJDEjJDAjJDgz","name":"보화약국","category":"약국","sido":"광주","sigungu":"광주서구","address":"광주광역시 서구 화운로 277, 1층 (내방동)","phone":"062-371-4344","openDate":"2020-02-25","longitude":126.8652275,"latitude":35.1635743},{"id":"JDQ4MTYyMiM3MSMkMSMkMCMkMDMkMzgxNzAyIzMxIyQxIyQzIyQ3MiQzNjEwMDIjNTEjJDEjJDIjJDgz","name":"복있는 약국","category":"약국","sido":"광주","sigungu":"광주동구","address":"광주광역시 동구 제봉로 187, 1층 102호 (대인동)","phone":"062-451-8501","openDate":"2019-02-28","longitude":126.9165164,"latitude":35.1526982},{"id":"JDQ4MTYyMiM3MSMkMSMkMCMkMDMkMzgxNzAyIzIxIyQxIyQ1IyQ4MiQyNjEwMDIjNjEjJDEjJDAjJDgz","name":"본초당한약국","category":"약국","sido":"광주","sigungu":"광주서구","address":"광주광역시 서구 하남대로 668, 102호 (동천동)","phone":"062-528-3004","openDate":"2013-09-09","longitude":126.865513,"latitude":35.171625},{"id":"JDQ4MTYyMiM3MSMkMSMkMCMkMDMkMzgxNzAyIzMxIyQyIyQ3IyQwMCQ0NjE0ODEjODEjJDEjJDYjJDgz","name":"봄날약국","category":"약국","sido":"광주","sigungu":"광주남구","address":"광주광역시 남구 서문대로 692, 은평빌딩 1층 102호 (진월동)","phone":"062-671-1400","openDate":"2019-02-22","longitude":126.8990242,"latitude":35.1212173},{"id":"JDQ4MTYyMiM3MSMkMSMkMCMkMDMkMzgxMTkxIzMxIyQxIyQ3IyQwMyQzNjEwMDIjNjEjJDEjJDQjJDgz","name":"봄봄약국","category":"약국","sido":"광주","sigungu":"광주남구","address":"광주광역시 남구 입하길 12, 1층 (송하동)","phone":"062-652-3246","openDate":"2022-12-29","longitude":126.8775007,"latitude":35.1076825},{"id":"JDQ4MTYyMiM3MSMkMSMkMCMkMDMkMzgxNzAyIzMxIyQxIyQzIyQ2MiQzNjE4MzIjNDEjJDEjJDgjJDgz","name":"봄봄약국","category":"약국","sido":"광주","sigungu":"광주광산구","address":"광주광역시 광산구 월계로 223-8, 110동 114호 (쌍암동, 중흥S클래스 리버시티 주상복합 아파트)","phone":"062-447-1637","openDate":"2019-01-30","longitude":126.8506864,"latitude":35.2140296},{"id":"JDQ4MTYyMiM3MSMkMSMkMCMkMDMkMzgxNzAyIzQxIyQxIyQ3IyQ5MiQzNjE4MzIjNjEjJDEjJDgjJDgz","name":"봉선 본약국","category":"약국","sido":"광주","sigungu":"광주남구","address":"광주광역시 남구 제석로 104, 201동 101호 (봉선동)","phone":"062-673-6338","openDate":"2020-12-23","longitude":126.9074211,"latitude":35.1237129},{"id":"JDQ4MTYyMiM3MSMkMSMkMCMkMDMkMzgxNzAyIzExIyQxIyQ3IyQ3MiQyNjE4MzIjNDEjJDEjJDgjJDgz","name":"부강한약국","category":"약국","sido":"광주","sigungu":"광주동구","address":"광주광역시 동구 계림로30번길 15, 상가동 1층 109호 (계림동, 푸른길 두산위브)","phone":"062-224-2405","openDate":"2001-06-01","longitude":126.9248682,"latitude":35.1578322},{"id":"JDQ4MTYyMiM3MSMkMSMkMCMkMDMkMzgxMTkxIzMxIyQxIyQ3IyQ4OSQyNjE0ODEjNTEjJDEjJDYjJDgz","name":"부성약국","category":"약국","sido":"광주","sigungu":"광주동구","address":"광주광역시 동구 화산로 355, 1층 (용산동, 주영빌딩)","phone":"062-234-7148","openDate":"2016-01-04","longitude":126.9325026,"latitude":35.1201997},{"id":"JDQ4MTYyMiM3MSMkMSMkMCMkMDMkMzgxMTkxIzMxIyQxIyQzIyQ2MiQyNjE4MzIjNTEjJDEjJDYjJDgz","name":"부영소망약국","category":"약국","sido":"광주","sigungu":"광주광산구","address":"광주광역시 광산구 사암로 251, 105호 (월곡동)","phone":"062-430-9631","openDate":"2012-02-01","longitude":126.8077314,"latitude":35.1672232},{"id":"JDQ4MTYyMiM3MSMkMSMkMCMkMDMkMzgxNzAyIzMxIyQxIyQ3IyQ4OSQ0NjEwMDIjNTEjJDEjJDIjJDgz","name":"북구종로약국","category":"약국","sido":"광주","sigungu":"광주북구","address":"광주광역시 북구 군왕로 80-1, (두암동)","phone":"062-262-7990","openDate":"2011-04-25","longitude":126.9327917,"latitude":35.1683964},{"id":"JDQ4MTYyMiM3MSMkMSMkMCMkMDMkMzgxOTYxIzIxIyQxIyQ1IyQ5MiQyNjEwMDIjNDEjJDEjJDgjJDgz","name":"뷰티온누리약국","category":"약국","sido":"광주","sigungu":"광주북구","address":"광주광역시 북구 서하로 187, (오치동)","phone":"062-267-5755","openDate":"2003-06-11","longitude":126.9010193,"latitude":35.1874499},{"id":"JDQ4MTYyMiM3MSMkMSMkMCMkMDMkMzgxMTkxIzUxIyQxIyQ1IyQ3MiQyNjE4MzIjNjEjJDEjJDgjJDgz","name":"비아미래약국","category":"약국","sido":"광주","sigungu":"광주광산구","address":"광주광역시 광산구 비아중앙로31번길 9, (비아동)","phone":"062-959-6071","openDate":"2015-08-20","longitude":126.8244022,"latitude":35.2215781},{"id":"JDQ4MTYyMiM3MSMkMSMkMCMkMDMkMzgxNzAyIzExIyQxIyQzIyQ5OSQzNjEyMjIjNzEjJDEjJDgjJDgz","name":"비타민약국","category":"약국","sido":"광주","sigungu":"광주남구","address":"광주광역시 남구 서문대로 704, 1층 102호 (진월동, 아이크리닉빌딩)","phone":"062-674-4125","openDate":"2011-04-14","longitude":126.8990239,"latitude":35.1221708},{"id":"JDQ4MTYyMiM3MSMkMSMkMCMkMDMkMzgxNzAyIzExIyQxIyQ3IyQxMyQzNjE4MzIjNTEjJDEjJDIjJDgz","name":"빛고을 건강약국","category":"약국","sido":"광주","sigungu":"광주남구","address":"광주광역시 남구 덕남길 106, (덕남동)","phone":"062-675-0688","openDate":"2014-01-27","longitude":126.8986686,"latitude":35.0938224},{"id":"JDQ4MTYyMiM3MSMkMSMkMCMkMDMkMzgxNzAyIzIxIyQxIyQxIyQ4OSQzNjE4MzIjNDEjJDEjJDgjJDgz","name":"빛고을다나약국","category":"약국","sido":"광주","sigungu":"광주남구","address":"광주광역시 남구 덕남길 108, (덕남동)","phone":"062-262-1352","openDate":"2014-04-07","longitude":126.8989289,"latitude":35.0937704},{"id":"JDQ4MTYyMiM3MSMkMSMkMCMkMDMkMzgxMTkxIzExIyQxIyQzIyQ5MiQzNjE4MzIjNjEjJDEjJDgjJDgz","name":"빛고을문흥종로약국","category":"약국","sido":"광주","sigungu":"광주북구","address":"광주광역시 북구 서하로 379, (문흥동)","phone":"062-251-2794","openDate":"2011-09-29","longitude":126.9219144,"latitude":35.1857577},{"id":"JDQ4MTYyMiM3MSMkMSMkMCMkMDMkMzgxMTkxIzUxIyQxIyQ1IyQ5MiQzNjEyMjIjNjEjJDEjJDQjJDgz","name":"빛고을사랑약국","category":"약국","sido":"광주","sigungu":"광주남구","address":"광주광역시 남구 덕남길 103-1, 빛고을사랑약국 (덕남동)","phone":"062-675-2238","openDate":"2020-10-19","longitude":126.8987257,"latitude":35.0941054},{"id":"JDQ4MTYyMiM3MSMkMSMkMCMkMDMkMzgxNzAyIzMxIyQxIyQ3IyQ5OSQyNjEyMjIjNTEjJDEjJDIjJDgz","name":"빛고을사랑약국","category":"약국","sido":"광주","sigungu":"광주광산구","address":"광주광역시 광산구 임방울대로 134, 104호 (운남동)","phone":"062-954-7577","openDate":"2020-05-31","longitude":126.8178492,"latitude":35.173059},{"id":"JDQ4MTYyMiM3MSMkMSMkMCMkMDMkMzgxMTkxIzIxIyQyIyQxIyQwMCQzNjEwMDIjNTEjJDEjJDYjJDgz","name":"빛고을약국","category":"약국","sido":"광주","sigungu":"광주동구","address":"광주광역시 동구 금남로169번길 8-13, (금남로5가)","phone":"070-5025-8875","openDate":"2013-03-19","longitude":126.9132355,"latitude":35.1526226},{"id":"JDQ4MTYyMiM3MSMkMSMkMCMkMDMkMzgxNzAyIzExIyQxIyQ3IyQ4OSQyNjE4MzIjNDEjJDEjJDgjJDgz","name":"빛고을약국","category":"약국","sido":"광주","sigungu":"광주북구","address":"광주광역시 북구 북문대로242번길 5, (동림동)","phone":"513-3593","openDate":"2013-07-24","longitude":126.8658852,"latitude":35.187734},{"id":"JDQ4MTYyMiM3MSMkMSMkMCMkMDMkMzgxMzUxIzMxIyQxIyQzIyQ5MiQyNjEwMDIjODEjJDEjJDIjJDgz","name":"빛고을열린약국","category":"약국","sido":"광주","sigungu":"광주동구","address":"광주광역시 동구 갈마로 2, (산수동)","phone":"062-267-1578","openDate":"2000-07-20","longitude":126.9311666,"latitude":35.160123},{"id":"JDQ4MTYyMiM3MSMkMSMkMCMkMDMkMzgxOTYxIzUxIyQxIyQ1IyQ4MiQ0NjEwMDIjNzEjJDEjJDgjJDgz","name":"빛고을우리네약국","category":"약국","sido":"광주","sigungu":"광주남구","address":"광주광역시 남구 독립로 108, (백운동, 프라임에셋)","phone":"062-651-9114","openDate":"2012-10-16","longitude":126.9033174,"latitude":35.1430527},{"id":"JDQ4MTYyMiM3MSMkMSMkMCMkMDMkMzgxMTkxIzUxIyQxIyQxIyQ3OSQyNjE0ODEjODEjJDEjJDYjJDgz","name":"빛고을종로약국","category":"약국","sido":"광주","sigungu":"광주남구","address":"광주광역시 남구 봉선중앙로 84, (봉선동)","phone":"062-676-4401","openDate":"2012-10-18","longitude":126.9112373,"latitude":35.1283828},{"id":"JDQ4MTYyMiM3MSMkMSMkMCMkMDMkMzgxMTkxIzUxIyQxIyQxIyQ5OSQyNjEyMjIjNDEjJDEjJDQjJDgz","name":"빛고을종로약국","category":"약국","sido":"광주","sigungu":"광주북구","address":"광주광역시 북구 설죽로 496, 1층 (일곡동)","phone":"062-571-5882","openDate":"2018-11-22","longitude":126.8987641,"latitude":35.2035156},{"id":"JDQ4MTYyMiM3MSMkMSMkMCMkMDMkMzgxNzAyIzUxIyQxIyQxIyQ3MiQ0NjE0ODEjNjEjJDEjJDgjJDgz","name":"사랑약국","category":"약국","sido":"광주","sigungu":"광주남구","address":"광주광역시 남구 대남대로 409, 1층 (월산동)","phone":"062-368-3080","openDate":"2006-01-26","longitude":126.8887795,"latitude":35.1472969},{"id":"JDQ4MTYyMiM3MSMkMSMkMCMkMDMkMzgxMTkxIzIxIyQxIyQxIyQ2MiQyNjE0ODEjNDEjJDEjJDQjJDgz","name":"사랑약국","category":"약국","sido":"광주","sigungu":"광주북구","address":"광주광역시 북구 설죽로 335, (매곡동)","phone":"062-571-7735","openDate":"2011-06-08","longitude":126.8986155,"latitude":35.1895264},{"id":"JDQ4MTYyMiM3MSMkMSMkMCMkMDMkMzgxOTYxIzMxIyQxIyQ3IyQ2MiQyNjE0ODEjNDEjJDEjJDQjJDgz","name":"사랑한약국","category":"약국","sido":"광주","sigungu":"광주북구","address":"광주광역시 북구 호동로 65, (문흥동)","phone":"062-266-9580","openDate":"2000-11-20","longitude":126.9179004,"latitude":35.1774922},{"id":"JDQ4MTYyMiM3MSMkMSMkMCMkMDMkMzgxMzUxIzMxIyQyIyQzIyQwMCQzNjEyMjIjNDEjJDEjJDQjJDgz","name":"삼성당약국","category":"약국","sido":"광주","sigungu":"광주북구","address":"광주광역시 북구 서양로 35, 1층 (신안동)","phone":"062-512-6909","openDate":"1986-08-08","longitude":126.9053304,"latitude":35.1706154},{"id":"JDQ4MTYyMiM3MSMkMSMkMCMkMDMkMzgxNzAyIzMxIyQxIyQzIyQ5MiQ0NjE0ODEjNDEjJDEjJDgjJDgz","name":"삼성약국","category":"약국","sido":"광주","sigungu":"광주동구","address":"광주광역시 동구 남문로744번길 27, (학동)","phone":"062-226-9933","openDate":"2022-09-01","longitude":126.9261284,"latitude":35.1381188},{"id":"JDQ4MTYyMiM3MSMkMSMkMCMkMDMkMzgxNzAyIzQxIyQxIyQ3IyQ4MiQzNjEyMjIjNDEjJDEjJDgjJDgz","name":"삼성약국","category":"약국","sido":"광주","sigungu":"광주남구","address":"광주광역시 남구 양림로 36, (양림동)","phone":"062-651-1313","openDate":"2015-02-05","longitude":126.9130316,"latitude":35.1365418},{"id":"JDQ4MTYyMiM3MSMkMSMkMCMkMDMkMzgxMzUxIzMxIyQxIyQzIyQ5OSQzNjEyMjIjNTEjJDEjJDIjJDgz","name":"삼원약국","category":"약국","sido":"광주","sigungu":"광주북구","address":"광주광역시 북구 경열로 227, (유동)","phone":"062-521-7895","openDate":"1974-06-08","longitude":126.9065128,"latitude":35.1597624},{"id":"JDQ4MTYyMiM3MSMkMSMkMCMkMDMkMzgxOTYxIzUxIyQxIyQ1IyQ3OSQ0NjEwMDIjNTEjJDEjJDYjJDgz","name":"상록수약국","category":"약국","sido":"광주","sigungu":"광주남구","address":"광주광역시 남구 봉선1로 56, (봉선동)","phone":"062-653-8275","openDate":"2013-05-06","longitude":126.9113681,"latitude":35.1277899},{"id":"JDQ4MTYyMiM3MSMkMSMkMCMkMDMkMzgxMTkxIzExIyQxIyQzIyQ4MiQyNjEyMjIjODEjJDEjJDIjJDgz","name":"상록수약국","category":"약국","sido":"광주","sigungu":"광주광산구","address":"광주광역시 광산구 사암로 279, (월곡동)","phone":"062-952-0557","openDate":"2002-03-05","longitude":126.808825,"latitude":35.169346},{"id":"JDQ4MTYyMiM3MSMkMSMkMCMkMDMkMzgxNzAyIzUxIyQyIyQxIyQwMCQzNjE4MzIjNTEjJDEjJDYjJDgz","name":"상무1번약국","category":"약국","sido":"광주","sigungu":"광주서구","address":"광주광역시 서구 운천로 207, 신환빌딩 1층 (치평동)","phone":"062-375-6479","openDate":"2021-08-20","longitude":126.8548456,"latitude":35.1507515},{"id":"JDQ4MTYyMiM3MSMkMSMkMCMkMDMkMzgxOTYxIzUxIyQxIyQ1IyQ5OSQzNjE4MzIjNDEjJDEjJDgjJDgz","name":"상무그린약국","category":"약국","sido":"광주","sigungu":"광주서구","address":"광주광역시 서구 상무자유로 181-7, 1층 (치평동)","phone":"062-373-7582","openDate":"2000-08-18","longitude":126.8538803,"latitude":35.1527509},{"id":"JDQ4MTYyMiM3MSMkMSMkMCMkMDMkMzgxMTkxIzUxIyQxIyQxIyQ5OSQ0NjE0ODEjODEjJDEjJDYjJDgz","name":"상무약국","category":"약국","sido":"광주","sigungu":"광주서구","address":"광주광역시 서구 상무대로 799, 1층 (치평동)","phone":"062-710-1880","openDate":"2025-02-07","longitude":126.8502268,"latitude":35.1477835},{"id":"JDQ4MTYyMiM3MSMkMSMkMCMkMDMkMzgxMzUxIzUxIyQxIyQ1IyQ2MiQyNjEyMjIjNDEjJDEjJDQjJDgz","name":"상무제일약국","category":"약국","sido":"광주","sigungu":"광주서구","address":"광주광역시 서구 치평로 30, 1층 (치평동)","phone":"062-513-0045","openDate":"2013-10-21","longitude":126.8476667,"latitude":35.1499484},{"id":"JDQ4MTYyMiM3MSMkMSMkMCMkMDMkMzgxNzAyIzMxIyQxIyQzIyQwMyQyNjE4MzIjODEjJDEjJDIjJDgz","name":"상무종로약국","category":"약국","sido":"광주","sigungu":"광주서구","address":"광주광역시 서구 상무민주로 97, 1층 (쌍촌동)","phone":"062-382-7575","openDate":"2019-11-09","longitude":126.8591311,"latitude":35.1591763},{"id":"JDQ4MTYyMiM3MSMkMSMkMCMkMDMkMzgxNzAyIzMxIyQxIyQ3IyQ5OSQyNjE4MzIjNDEjJDEjJDgjJDgz","name":"상무중앙약국","category":"약국","sido":"광주","sigungu":"광주서구","address":"광주광역시 서구 상무중앙로 58, 106호 (치평동)","phone":"062-716-8575","openDate":"2018-01-04","longitude":126.848919,"latitude":35.1521051},{"id":"JDQ4MTYyMiM3MSMkMSMkMCMkMDMkMzgxNzAyIzQxIyQxIyQ3IyQ3MiQzNjE4MzIjNDEjJDEjJDgjJDgz","name":"상무참약국","category":"약국","sido":"광주","sigungu":"광주서구","address":"광주광역시 서구 운천로 223, (치평동)","phone":"062-418-9428","openDate":"2022-09-29","longitude":126.8544019,"latitude":35.152276},{"id":"JDQ4MTYyMiM3MSMkMSMkMCMkMDMkMzgxNzAyIzExIyQyIyQ3IyQwMCQ0NjEwMDIjNjEjJDEjJDQjJDgz","name":"상아약국","category":"약국","sido":"광주","sigungu":"광주서구","address":"광주광역시 서구 독립로 175, (양동)","phone":"062-368-5959","openDate":"2016-05-23","longitude":126.9042811,"latitude":35.1492779},{"id":"JDQ4MTYyMiM3MSMkMSMkMCMkMDMkMzgxNzAyIzExIyQxIyQ3IyQ4OSQzNjE0ODEjNDEjJDEjJDQjJDgz","name":"새금호약국","category":"약국","sido":"광주","sigungu":"광주광산구","address":"광주광역시 광산구 어등대로665번길 3, (소촌동)","phone":"062-945-1777","openDate":"2013-12-31","longitude":126.7909087,"latitude":35.1449707},{"id":"JDQ4MTYyMiM3MSMkMSMkMCMkMDMkMzgxOTYxIzUxIyQxIyQxIyQ4MiQyNjEwMDIjNjEjJDEjJDQjJDgz","name":"새금호약국","category":"약국","sido":"광주","sigungu":"광주동구","address":"광주광역시 동구 중앙로 229, (대인동)","phone":"062-228-9991","openDate":"1996-10-23","longitude":126.918468,"latitude":35.1529128},{"id":"JDQ4MTYyMiM3MSMkMSMkMCMkMDMkMzgxOTYxIzIxIyQxIyQ5IyQ4MiQyNjE4MzIjNjEjJDEjJDgjJDgz","name":"새맑은약국","category":"약국","sido":"광주","sigungu":"광주서구","address":"광주광역시 서구 죽봉대로 92, (광천동)","phone":"062-351-7578","openDate":"2019-07-01","longitude":126.883877,"latitude":35.1615993},{"id":"JDQ4MTYyMiM3MSMkMSMkMCMkMDMkMzgxMzUxIzIxIyQyIyQ1IyQwMCQ0NjE0ODEjNTEjJDEjJDYjJDgz","name":"새명문약국","category":"약국","sido":"광주","sigungu":"광주북구","address":"광주광역시 북구 동문대로 20, (풍향동)","phone":"062-512-9600","openDate":"2003-11-12","longitude":126.9199008,"latitude":35.1665659},{"id":"JDQ4MTYyMiM3MSMkMSMkMCMkMDMkMzgxNzAyIzIxIyQxIyQxIyQ5OSQzNjEwMDIjNDEjJDEjJDgjJDgz","name":"새미래약국","category":"약국","sido":"광주","sigungu":"광주북구","address":"광주광역시 북구 각화대로 22, (각화동)","phone":"062-263-2900","openDate":"2020-11-16","longitude":126.9330643,"latitude":35.1811056},{"id":"JDQ4MTYyMiM3MSMkMSMkMCMkMDMkMzgxNzAyIzQxIyQxIyQ3IyQ5MiQ0NjE0ODEjNjEjJDEjJDAjJDgz","name":"새별약국","category":"약국","sido":"광주","sigungu":"광주광산구","address":"광주광역시 광산구 풍영로101번안길 1-7, 1층 104호 (흑석동)","phone":"062-710-1011","openDate":"2023-02-23","longitude":126.8111669,"latitude":35.1802206},{"id":"JDQ4MTYyMiM3MSMkMSMkMCMkMDMkMzgxOTYxIzMxIyQxIyQzIyQwMyQzNjE0ODEjNjEjJDEjJDQjJDgz","name":"새봄약국","category":"약국","sido":"광주","sigungu":"광주서구","address":"광주광역시 서구 금화로 90, 동해빌딩 1층 (금호동)","phone":"062-653-6777","openDate":"2009-03-16","longitude":126.8585477,"latitude":35.1319427},{"id":"JDQ4MTYyMiM3MSMkMSMkMCMkMDMkMzgxOTYxIzIxIyQxIyQ5IyQwMyQ0NjE0ODEjNDEjJDEjJDgjJDgz","name":"새빛약국","category":"약국","sido":"광주","sigungu":"광주북구","address":"광주광역시 북구 각화대로 5, (각화동)","phone":"062-267-7858","openDate":"2020-05-11","longitude":126.9315747,"latitude":35.1822129},{"id":"JDQ4MTYyMiM3MSMkMSMkMCMkMDMkMzgxOTYxIzUxIyQxIyQ1IyQ4MiQyNjE4MzIjODEjJDEjJDIjJDgz","name":"새생명약국","category":"약국","sido":"광주","sigungu":"광주북구","address":"광주광역시 북구 서암대로 181, (신안동)","phone":"062-523-0114","openDate":"2001-05-21","longitude":126.9040747,"latitude":35.1688903},{"id":"JDQ4MTYyMiM3MSMkMSMkMCMkMDMkMzgxOTYxIzIxIyQxIyQxIyQ3OSQzNjE0ODEjODEjJDEjJDIjJDgz","name":"새신가약국","category":"약국","sido":"광주","sigungu":"광주광산구","address":"광주광역시 광산구 목련로 320, (신가동)","phone":"062-956-1175","openDate":"2006-03-27","longitude":126.8294431,"latitude":35.1776391},{"id":"JDQ4MTYyMiM3MSMkMSMkMCMkMDMkMzgxNzAyIzExIyQxIyQzIyQ4OSQ0NjEwMDIjNjEjJDEjJDAjJDgz","name":"새아침약국","category":"약국","sido":"광주","sigungu":"광주북구","address":"광주광역시 북구 북문대로 184, 105호 (운암동)","phone":"523-7856","openDate":"2011-03-15","longitude":126.8709977,"latitude":35.1848548},{"id":"JDQ4MTYyMiM3MSMkMSMkMCMkMDMkMzgxOTYxIzQxIyQxIyQ3IyQ2MiQzNjE0ODEjODEjJDEjJDYjJDgz","name":"새우리약국","category":"약국","sido":"광주","sigungu":"광주서구","address":"광주광역시 서구 치평로 80, 103호 (치평동, 골든타운)","phone":"062-371-3781","openDate":"2016-09-12","longitude":126.8477042,"latitude":35.154554},{"id":"JDQ4MTYyMiM3MSMkMSMkMCMkMDMkMzgxNzAyIzMxIyQxIyQzIyQwMyQ0NjEwMDIjNzEjJDEjJDgjJDgz","name":"새운남종로약국","category":"약국","sido":"광주","sigungu":"광주광산구","address":"광주광역시 광산구 목련로273번안길 23, 2층 (운남동)","phone":"062-955-0288","openDate":"2019-12-02","longitude":126.8235899,"latitude":35.1778966},{"id":"JDQ4MTYyMiM3MSMkMSMkMCMkMDMkMzgxMzUxIzMxIyQxIyQ3IyQ5MiQyNjEyMjIjNTEjJDEjJDIjJDgz","name":"새제중약국","category":"약국","sido":"광주","sigungu":"광주서구","address":"광주광역시 서구 상무대로 870, 1층 (쌍촌동)","phone":"062-371-8957","openDate":"2007-11-05","longitude":126.8572521,"latitude":35.1499852},{"id":"JDQ4MTYyMiM3MSMkMSMkMCMkMDMkMzgxMTkxIzIxIyQxIyQxIyQwMyQyNjEyMjIjNjEjJDEjJDQjJDgz","name":"새종로약국","category":"약국","sido":"광주","sigungu":"광주서구","address":"광주광역시 서구 시청로 13, 104호 (치평동, 상무리채2)","phone":"062-373-3358","openDate":"2001-04-26","longitude":126.8511157,"latitude":35.1495843},{"id":"JDQ4MTYyMiM3MSMkMSMkMCMkMDMkMzgxNzAyIzMxIyQxIyQzIyQxMyQyNjE0ODEjNDEjJDEjJDgjJDgz","name":"새하나약국","category":"약국","sido":"광주","sigungu":"광주서구","address":"광주광역시 서구 경열로 124, (양동)","phone":"062-365-4374","openDate":"2019-12-05","longitude":126.8992371,"latitude":35.1527941},{"id":"JDQ4MTYyMiM3MSMkMSMkMCMkMDMkMzgxNzAyIzQxIyQxIyQ3IyQ4OSQzNjE4MzIjNTEjJDEjJDIjJDgz","name":"샘물약국","category":"약국","sido":"광주","sigungu":"광주동구","address":"광주광역시 동구 제봉로 52, 1층 (남동)","phone":"","openDate":"2022-02-16","longitude":126.921035,"latitude":35.1430947},{"id":"JDQ4MTYyMiM3MSMkMSMkMCMkMDMkMzgxOTYxIzMxIyQyIyQzIyQwMCQ0NjE0ODEjNDEjJDEjJDgjJDgz","name":"샘물약국","category":"약국","sido":"광주","sigungu":"광주남구","address":"광주광역시 남구 용대로 208, 1층 (방림동)","phone":"062-651-3028","openDate":"2018-12-20","longitude":126.9173791,"latitude":35.134759},{"id":"JDQ4MTYyMiM3MSMkMSMkMCMkMDMkMzgxOTYxIzIxIyQxIyQ5IyQ3OSQ0NjE0ODEjNTEjJDEjJDYjJDgz","name":"샘약국","category":"약국","sido":"광주","sigungu":"광주남구","address":"광주광역시 남구 백운로 70, 1층 (백운동)","phone":"062-673-7858","openDate":"2018-04-17","longitude":126.9061059,"latitude":35.1393873},{"id":"JDQ4MTYyMiM3MSMkMSMkMCMkMDMkMzgxNzAyIzExIyQxIyQzIyQ4OSQyNjEyMjIjNzEjJDEjJDgjJDgz","name":"샛별약국","category":"약국","sido":"광주","sigungu":"광주남구","address":"광주광역시 남구 서문대로 827, 상가동 1층 105호 (주월동, 봉선주월 대라수 어썸브릿지)","phone":"062-674-1398","openDate":"2024-07-11","longitude":126.9002961,"latitude":35.1325831},{"id":"JDQ4MTYyMiM3MSMkMSMkMCMkMDMkMzgxNzAyIzIxIyQxIyQ1IyQ4MiQyNjE4MzIjNDEjJDEjJDgjJDgz","name":"생기약국","category":"약국","sido":"광주","sigungu":"광주서구","address":"광주광역시 서구 상무공원로 9, 에이스빌딩 2층 (치평동)","phone":"062-575-8899","openDate":"2020-05-07","longitude":126.8432791,"latitude":35.1451739},{"id":"JDQ4MTYyMiM3MSMkMSMkMCMkMDMkMzgxOTYxIzMxIyQxIyQzIyQ3OSQyNjE4MzIjODEjJDEjJDYjJDgz","name":"생생약국","category":"약국","sido":"광주","sigungu":"광주서구","address":"광주광역시 서구 상무중앙로 64, (치평동)","phone":"062-385-5722","openDate":"2016-01-12","longitude":126.8489119,"latitude":35.1526608},{"id":"JDQ4MTYyMiM3MSMkMSMkMCMkMDMkMzgxNzAyIzQxIyQxIyQ3IyQ5OSQzNjE0ODEjNjEjJDEjJDQjJDgz","name":"생생약국","category":"약국","sido":"광주","sigungu":"광주북구","address":"광주광역시 북구 각화대로 7, (각화동)","phone":"","openDate":"2022-03-10","longitude":126.9320839,"latitude":35.1824378},{"id":"JDQ4MTYyMiM3MSMkMSMkMCMkMDMkMzgxMTkxIzIxIyQxIyQ5IyQ3OSQ0NjEwMDIjNzEjJDEjJDgjJDgz","name":"생수약국","category":"약국","sido":"광주","sigungu":"광주북구","address":"광주광역시 북구 호동로 69, (문흥동)","phone":"062-575-8263","openDate":"2007-05-01","longitude":126.9179006,"latitude":35.1778616},{"id":"JDQ4MTYyMiM3MSMkMSMkMCMkMDMkMzgxMzUxIzMxIyQxIyQzIyQ4MiQzNjEyMjIjNDEjJDEjJDgjJDgz","name":"서가약국","category":"약국","sido":"광주","sigungu":"광주광산구","address":"광주광역시 광산구 사암로 398, (월곡동)","phone":"062-375-0000","openDate":"2014-10-15","longitude":126.8084833,"latitude":35.1797617},{"id":"JDQ4MTYyMiM3MSMkMSMkMCMkMDMkMzgxMzUxIzIxIyQxIyQ1IyQ5OSQzNjE0ODEjNTEjJDEjJDYjJDgz","name":"서강약국","category":"약국","sido":"광주","sigungu":"광주남구","address":"광주광역시 남구 구성로 46-1, (월산동)","phone":"062-361-3253","openDate":"1980-10-20","longitude":126.9018509,"latitude":35.1514058},{"id":"JDQ4MTYyMiM3MSMkMSMkMCMkMDMkMzgxMTkxIzExIyQxIyQ3IyQ3MiQyNjEyMjIjNzEjJDEjJDgjJDgz","name":"서광약국","category":"약국","sido":"광주","sigungu":"광주북구","address":"광주광역시 북구 면앙로170번길 10, (두암동)","phone":"062-265-8222","openDate":"2000-07-28","longitude":126.9297008,"latitude":35.1755212},{"id":"JDQ4MTYyMiM3MSMkMSMkMCMkMDMkMzgxNzAyIzExIyQyIyQzIyQwMCQzNjEwMDIjNjEjJDEjJDgjJDgz","name":"서린약국","category":"약국","sido":"광주","sigungu":"광주북구","address":"광주광역시 북구 갈마로 23, (풍향동)","phone":"062-252-1230","openDate":"2016-08-10","longitude":126.9331929,"latitude":35.161201},{"id":"JDQ4MTYyMiM3MSMkMSMkMCMkMDMkMzgxNzAyIzMxIyQxIyQzIyQ3OSQzNjEyMjIjNjEjJDEjJDAjJDgz","name":"서림약국","category":"약국","sido":"광주","sigungu":"광주북구","address":"광주광역시 북구 서림로 101, 1층 (임동)","phone":"062-955-9519","openDate":"2023-06-27","longitude":126.8975602,"latitude":35.1627332},{"id":"JDQ4MTYyMiM3MSMkMSMkMCMkMDMkMzgxNzAyIzExIyQxIyQzIyQwMyQyNjEwMDIjNDEjJDEjJDQjJDgz","name":"서방약국","category":"약국","sido":"광주","sigungu":"광주북구","address":"광주광역시 북구 동문대로 6, (풍향동)","phone":"062-512-9041","openDate":"2013-07-30","longitude":126.9199135,"latitude":35.1652539},{"id":"JDQ4MTYyMiM3MSMkMSMkMCMkMDMkMzgxMzUxIzExIyQxIyQ3IyQ4MiQzNjEwMDIjODEjJDEjJDIjJDgz","name":"서석약국","category":"약국","sido":"광주","sigungu":"광주동구","address":"광주광역시 동구 제봉로 104, (장동)","phone":"062-222-5624","openDate":"1973-05-01","longitude":126.9221156,"latitude":35.1476627},{"id":"JDQ4MTYyMiM3MSMkMSMkMCMkMDMkMzgxMTkxIzIxIyQxIyQ5IyQ3OSQzNjE4MzIjNDEjJDEjJDgjJDgz","name":"서울약국","category":"약국","sido":"광주","sigungu":"광주북구","address":"광주광역시 북구 서하로 378, 1층 (문흥동)","phone":"062-262-6107","openDate":"2002-08-24","longitude":126.9213063,"latitude":35.1854777},{"id":"JDQ4MTYyMiM3MSMkMSMkMCMkMDMkMzgxNzAyIzQxIyQxIyQ3IyQ3OSQzNjEyMjIjNzEjJDEjJDgjJDgz","name":"서진약국","category":"약국","sido":"광주","sigungu":"광주서구","address":"광주광역시 서구 무진대로 959, (광천동)","phone":"062-383-3375","openDate":"2017-10-16","longitude":126.8855844,"latitude":35.1616562},{"id":"JDQ4MTYyMiM3MSMkMSMkMCMkMDMkMzgxMTkxIzMxIyQxIyQ3IyQ4OSQ0NjE0ODEjODEjJDEjJDYjJDgz","name":"서현약국","category":"약국","sido":"광주","sigungu":"광주북구","address":"광주광역시 북구 북문대로 89, 203호 (운암동, 벽산블루밍메가시티 101동 상가)","phone":"062-522-6463","openDate":"2010-09-01","longitude":126.8768312,"latitude":35.1780044},{"id":"JDQ4MTYyMiM3MSMkMSMkMCMkMDMkMzgxMTkxIzQxIyQxIyQ3IyQ4OSQyNjE0ODEjNDEjJDEjJDQjJDgz","name":"서현약국","category":"약국","sido":"광주","sigungu":"광주광산구","address":"광주광역시 광산구 사암로215번길 16, 상가동 108호 (우산동, 어등하이빌)","phone":"062-951-6463","openDate":"2006-08-01","longitude":126.8073427,"latitude":35.1643362},{"id":"JDQ4MTYyMiM3MSMkMSMkMCMkMDMkMzgxNzAyIzExIyQxIyQ3IyQ2MiQ0NjE0ODEjNjEjJDEjJDAjJDgz","name":"선온누리약국","category":"약국","sido":"광주","sigungu":"광주북구","address":"광주광역시 북구 첨단연신로 25, 1층 102호 (연제동)","phone":"062-575-0007","openDate":"2017-10-23","longitude":126.863056,"latitude":35.2002064},{"id":"JDQ4MTYyMiM3MSMkMSMkMCMkMDMkMzgxNzAyIzQxIyQxIyQ3IyQ5OSQzNjE4MzIjNDEjJDEjJDQjJDgz","name":"선운포도약국","category":"약국","sido":"광주","sigungu":"광주광산구","address":"광주광역시 광산구 선운중앙로 46, 1층 (선암동)","phone":"062-943-0031","openDate":"2017-01-01","longitude":126.7770524,"latitude":35.1480892},