{"pharmacies":[{"id":"JDQ4MTAxMiM1MSMkMSMkMCMkMDMkMzgxNzAyIzExIyQxIyQzIyQwMyQyNjE4MzIjNjEjJDEjJDQjJDgz","name":"123약국","category":"약국","sido":"부산","sigungu":"부산서구","address":"부산광역시 서구 까치고개로 216-1, (아미동1가)","phone":"051-241-0123","openDate":"2006-01-16","longitude":129.0194902,"latitude":35.0996113},{"id":"JDQ4MTAxMiM1MSMkMSMkMCMkMDMkMzgxMzUxIzIxIyQxIyQxIyQxMyQzNjE0ODEjNzEjJDEjJDgjJDgz","name":"153옵티마약국","category":"약국","sido":"부산","sigungu":"부산기장군","address":"부산광역시 기장군 정관읍 정관로 579, 108호","phone":"051-727-7518","openDate":"2013-07-26","longitude":129.1771724,"latitude":35.3213769},{"id":"JDQ4MTAxMiM1MSMkMSMkMCMkMDMkMzgxNzAyIzUxIyQxIyQ1IyQ3MiQ0NjE0ODEjNDEjJDEjJDgjJDgz","name":"1번약국","category":"약국","sido":"부산","sigungu":"부산동래구","address":"부산광역시 동래구 충렬대로181번길 21, 명륜빌딩 1층 (명륜동)","phone":"070-5157-9690","openDate":"2024-11-20","longitude":129.0797423,"latitude":35.2046658},{"id":"JDQ4MTAxMiM1MSMkMSMkMCMkMDMkMzgxNzAyIzUxIyQxIyQ1IyQ4MiQyNjE0ODEjNTEjJDEjJDYjJDgz","name":"1층약국","category":"약국","sido":"부산","sigungu":"부산해운대구","address":"부산광역시 해운대구 해운대로 794, 엘리움 107호 (좌동)","phone":"051-930-0617","openDate":"2018-08-21","longitude":129.1757451,"latitude":35.168815},{"id":"JDQ4MTAxMiM1MSMkMSMkMCMkMDMkMzgxNzAyIzIxIyQxIyQ1IyQ3OSQyNjE4MzIjNjEjJDEjJDgjJDgz","name":"21세기약국","category":"약국","sido":"부산","sigungu":"부산동래구","address":"부산광역시 동래구 중앙대로 1393, 1층 (온천동)","phone":"051-668-2751","openDate":"2008-05-27","longitude":129.0774798,"latitude":35.211708},{"id":"JDQ4MTAxMiM1MSMkMSMkMCMkMDMkMzgxMTkxIzUxIyQxIyQxIyQxMyQzNjE0ODEjNjEjJDEjJDgjJDgz","name":"21세기우리네약국","category":"약국","sido":"부산","sigungu":"부산남구","address":"부산광역시 남구 수영로 43, (문현동)","phone":"051-646-8260","openDate":"2003-06-02","longitude":129.0726721,"latitude":35.1367055},{"id":"JDQ4MTAxMiM1MSMkMSMkMCMkMDMkMzgxMTkxIzExIyQyIyQ3IyQwMCQ0NjE0ODEjNDEjJDEjJDgjJDgz","name":"25시약국","category":"약국","sido":"부산","sigungu":"부산동구","address":"부산광역시 동구 조방로 45, (범일동)","phone":"051-642-1253","openDate":"1993-05-01","longitude":129.0602838,"latitude":35.140499},{"id":"JDQ4MTAxMiM1MSMkMSMkMCMkMDMkNDgxMzUxIzIxIyQxIyQ5IyQ3MiQyNjE4MzIjNjEjJDEjJDAjJDgz","name":"2층로하약국","category":"약국","sido":"부산","sigungu":"부산진구","address":"부산광역시 부산진구 중앙대로 736, 2층 (부전동)","phone":"051-816-9993","openDate":"2023-07-19","longitude":129.0599753,"latitude":35.1582541},{"id":"JDQ4MTAxMiM1MSMkMSMkMCMkMDMkNDgxMzUxIzMxIyQxIyQ3IyQ3MiQ0NjEwMDIjNjEjJDEjJDgjJDgz","name":"2층엔약국","category":"약국","sido":"부산","sigungu":"부산수영구","address":"부산광역시 수영구 수영로 389, 상가동 213호 (남천동, 더샵 남천프레스티지)","phone":"","openDate":"2023-09-27","longitude":129.1058029,"latitude":35.1416738},{"id":"JDQ4MTAxMiM1MSMkMSMkMCMkMDMkNDgxMzUxIzMxIyQxIyQ3IyQ2MiQyNjEwMDIjNTEjJDEjJDYjJDgz","name":"365명지약국","category":"약국","sido":"부산","sigungu":"부산강서구","address":"부산광역시 강서구 명지국제2로28번길 3, 108호 (명지동)","phone":"051-271-0365","openDate":"2022-12-07","longitude":128.9076702,"latitude":35.0940846},{"id":"JDQ4MTAxMiM1MSMkMSMkMCMkMDMkNDgxMzUxIzIxIyQxIyQ5IyQ5OSQzNjEwMDIjODEjJDEjJDYjJDgz","name":"365연산온누리약국","category":"약국","sido":"부산","sigungu":"부산연제구","address":"부산광역시 연제구 반송로 30, 석산빌딩 1층 일부호 (연산동)","phone":"051-852-3574","openDate":"2021-03-11","longitude":129.0842124,"latitude":35.187688},{"id":"JDQ4MTAxMiM1MSMkMSMkMCMkMDMkNDgxMzUxIzIxIyQxIyQ5IyQ4OSQzNjE4MzIjODEjJDEjJDIjJDgz","name":"365열시약국","category":"약국","sido":"부산","sigungu":"부산강서구","address":"부산광역시 강서구 명지국제8로 233, 더스퀘어 103호 (명지동)","phone":"051-201-5689","openDate":"2019-05-09","longitude":128.9182894,"latitude":35.0985301},{"id":"JDQ4MTAxMiM1MSMkMSMkMCMkMDMkNDgxMzUxIzIxIyQxIyQ5IyQ2MiQzNjEwMDIjNTEjJDEjJDYjJDgz","name":"365용호제일큰약국","category":"약국","sido":"부산","sigungu":"부산남구","address":"부산광역시 남구 용호로 50, 1층 (용호동)","phone":"051-626-7974","openDate":"2022-10-31","longitude":129.1093223,"latitude":35.1263364},{"id":"JDQ4MTAxMiM1MSMkMSMkMCMkMDMkNDgxMzUxIzQxIyQxIyQ3IyQxMyQyNjEwMDIjNjEjJDEjJDgjJDgz","name":"365햇살약국","category":"약국","sido":"부산","sigungu":"부산연제구","address":"부산광역시 연제구 연수로 96-1, (연산동)","phone":"051-714-2650","openDate":"2025-02-26","longitude":129.0813937,"latitude":35.1751542},{"id":"JDQ4MTAxMiM1MSMkMSMkMCMkMDMkNDgxMzUxIzExIyQxIyQzIyQ5MiQyNjEwMDIjNzEjJDEjJDgjJDgz","name":"3층 봄날약국","category":"약국","sido":"부산","sigungu":"부산동래구","address":"부산광역시 동래구 중앙대로 1523, SK HUB SKY B3-09호 (온천동)","phone":"","openDate":"2024-10-18","longitude":129.0855308,"latitude":35.2208431},{"id":"JDQ4MTAxMiM1MSMkMSMkMCMkMDMkNDgxMzUxIzMxIyQxIyQ3IyQ4MiQyNjE4MzIjNjEjJDEjJDAjJDgz","name":"5층그린약국","category":"약국","sido":"부산","sigungu":"부산해운대구","address":"부산광역시 해운대구 해운대로 814, 세종월드프라자 B동 527호 일부호 (좌동)","phone":"051-702-2446","openDate":"2023-10-10","longitude":129.1776778,"latitude":35.1695768},{"id":"JDQ4MTAxMiM1MSMkMSMkMCMkMDMkNDgxMzUxIzExIyQxIyQzIyQ4OSQzNjE0ODEjODEjJDEjJDIjJDgz","name":"7번약국","category":"약국","sido":"부산","sigungu":"부산수영구","address":"부산광역시 수영구 수영로 690-5, 102호 (광안동)","phone":"051-752-2525","openDate":"2016-12-09","longitude":129.1158494,"latitude":35.1670367},{"id":"JDQ4MTAxMiM1MSMkMSMkMCMkMDMkNDgxMzUxIzExIyQxIyQ3IyQ5OSQyNjEwMDIjNzEjJDEjJDgjJDgz","name":"7층약국","category":"약국","sido":"부산","sigungu":"부산사하구","address":"부산광역시 사하구 낙동남로 1412, 경부빌딩 7층 (하단동)","phone":"051-291-4478","openDate":"2018-02-19","longitude":128.966083,"latitude":35.1057921},{"id":"JDQ4MTAxMiM1MSMkMSMkMCMkMDMkMzgxNzAyIzUxIyQxIyQ1IyQ3MiQyNjEwMDIjNjEjJDEjJDAjJDgz","name":"LG약국","category":"약국","sido":"부산","sigungu":"부산남구","address":"부산광역시 남구 분포로 111, 1003동 204호 (용호동, 엘지메트로시티아파트)","phone":"051-612-0123","openDate":"2016-03-02","longitude":129.1121446,"latitude":35.1279925},{"id":"JDQ4MTAxMiM1MSMkMSMkMCMkMDMkMzgxMTkxIzUxIyQxIyQxIyQ5MiQyNjEyMjIjNjEjJDEjJDQjJDgz","name":"LG참약국","category":"약국","sido":"부산","sigungu":"부산남구","address":"부산광역시 남구 분포로 111, 1001동 205호 (용호동, LG메트로시티상가)","phone":"051-612-1472","openDate":"2003-04-14","longitude":129.1121446,"latitude":35.1279925},{"id":"JDQ4MTAxMiM1MSMkMSMkMCMkMDMkNDgxMzUxIzIxIyQxIyQxIyQ3MiQzNjE0ODEjNDEjJDEjJDQjJDgz","name":"The튼튼약국","category":"약국","sido":"부산","sigungu":"부산진구","address":"부산광역시 부산진구 가야대로679번길 133, (당감동)","phone":"051-894-5252","openDate":"2019-08-05","longitude":129.0396056,"latitude":35.1560463},{"id":"JDQ4MTAxMiM1MSMkMSMkMCMkMDMkNDgxMzUxIzExIyQxIyQ3IyQ5MiQyNjEyMjIjNDEjJDEjJDgjJDgz","name":"The편한약국","category":"약국","sido":"부산","sigungu":"부산금정구","address":"부산광역시 금정구 서동로 160, (서동)","phone":"051-529-5879","openDate":"2018-08-09","longitude":129.1038944,"latitude":35.2146371},{"id":"JDQ4MTAxMiM1MSMkMSMkMCMkMDMkMzgxNzAyIzIxIyQxIyQxIyQ4OSQyNjEwMDIjNDEjJDEjJDgjJDgz","name":"가까운약국","category":"약국","sido":"부산","sigungu":"부산서구","address":"부산광역시 서구 대신공원로 29, (서대신동3가)","phone":"051-248-6111","openDate":"2015-04-06","longitude":129.0165701,"latitude":35.12057},{"id":"JDQ4MTAxMiM1MSMkMSMkMCMkMDMkNDgxMzUxIzExIyQxIyQ3IyQ3MiQzNjE0ODEjNTEjJDEjJDYjJDgz","name":"가까운약국","category":"약국","sido":"부산","sigungu":"부산진구","address":"부산광역시 부산진구 가야대로 779, (부전동)","phone":"051-819-1421","openDate":"2018-06-30","longitude":129.0568052,"latitude":35.1579618},{"id":"JDQ4MTAxMiM1MSMkMSMkMCMkMDMkMzgxNzAyIzMxIyQxIyQ3IyQ3MiQyNjEyMjIjNTEjJDEjJDYjJDgz","name":"가까운약국","category":"약국","sido":"부산","sigungu":"부산해운대구","address":"부산광역시 해운대구 구남로8번길 77, (우동)","phone":"051-731-1088","openDate":"2019-11-01","longitude":129.1556528,"latitude":35.1609819},{"id":"JDQ4MTAxMiM1MSMkMSMkMCMkMDMkNDgxMzUxIzExIyQxIyQzIyQxMyQ0NjE0ODEjODEjJDEjJDYjJDgz","name":"가까운약국","category":"약국","sido":"부산","sigungu":"부산동래구","address":"부산광역시 동래구 충렬대로181번길 17, (명륜동)","phone":"051-554-2674","openDate":"2017-12-01","longitude":129.0798053,"latitude":35.2045543},{"id":"JDQ4MTAxMiM1MSMkMSMkMCMkMDMkMzgxNzAyIzIxIyQxIyQ1IyQ5MiQzNjE4MzIjNDEjJDEjJDQjJDgz","name":"가까운우리약국","category":"약국","sido":"부산","sigungu":"부산서구","address":"부산광역시 서구 감천로 261, (암남동)","phone":"051-253-3062","openDate":"2009-06-15","longitude":129.016434,"latitude":35.0814442},{"id":"JDQ4MTAxMiM1MSMkMSMkMCMkMDMkNDgxMzUxIzMxIyQxIyQzIyQ3MiQzNjEwMDIjNzEjJDEjJDgjJDgz","name":"가까운편한약국","category":"약국","sido":"부산","sigungu":"부산사상구","address":"부산광역시 사상구 학감대로 226, 1층 (감전동)","phone":"051-323-3737","openDate":"2022-08-26","longitude":128.9900927,"latitude":35.1510507},{"id":"JDQ4MTAxMiM1MSMkMSMkMCMkMDMkNDgxMzUxIzQxIyQxIyQ3IyQ4OSQyNjEyMjIjNjEjJDEjJDgjJDgz","name":"가람약국","category":"약국","sido":"부산","sigungu":"부산동래구","address":"부산광역시 동래구 화현길 31, 1층 (안락동)","phone":"051-523-5533","openDate":"2024-03-22","longitude":129.1087944,"latitude":35.1962578},{"id":"JDQ4MTAxMiM1MSMkMSMkMCMkMDMkMzgxMzUxIzExIyQxIyQ3IyQ5OSQzNjEwMDIjODEjJDEjJDIjJDgz","name":"가람약국","category":"약국","sido":"부산","sigungu":"부산사하구","address":"부산광역시 사하구 다대로 143, (신평동)","phone":"051-293-8760","openDate":"2008-08-25","longitude":128.9779399,"latitude":35.0896535},{"id":"JDQ4MTAxMiM1MSMkMSMkMCMkMDMkMzgxOTYxIzExIyQxIyQzIyQxMyQyNjEyMjIjNTEjJDEjJDYjJDgz","name":"가야늘푸른약국","category":"약국","sido":"부산","sigungu":"부산진구","address":"부산광역시 부산진구 대학로 12, (가야동)","phone":"051-892-9241","openDate":"2000-12-01","longitude":129.0370099,"latitude":35.1543104},{"id":"JDQ4MTAxMiM1MSMkMSMkMCMkMDMkMzgxMTkxIzUxIyQxIyQ1IyQwMyQyNjEyMjIjODEjJDEjJDYjJDgz","name":"가야로약국","category":"약국","sido":"부산","sigungu":"부산진구","address":"부산광역시 부산진구 냉정로 226, (개금동)","phone":"051-898-5144","openDate":"2006-10-16","longitude":129.0244173,"latitude":35.1509112},{"id":"JDQ4MTAxMiM1MSMkMSMkMCMkMDMkMzgxMzUxIzIxIyQxIyQ1IyQxMyQyNjEyMjIjNzEjJDEjJDgjJDgz","name":"가야약국","category":"약국","sido":"부산","sigungu":"부산사하구","address":"부산광역시 사하구 하신번영로 233, 227동 107호 (하단동, 가락타운2단지아파트)","phone":"051-206-1629","openDate":"2008-08-22","longitude":128.9574385,"latitude":35.1014214},{"id":"JDQ4MTAxMiM1MSMkMSMkMCMkMDMkMzgxOTYxIzIxIyQxIyQ5IyQ4OSQyNjE4MzIjODEjJDEjJDYjJDgz","name":"가야약국","category":"약국","sido":"부산","sigungu":"부산연제구","address":"부산광역시 연제구 반송로 6, (연산동)","phone":"051-862-8415","openDate":"1992-09-08","longitude":129.0824809,"latitude":35.186266},{"id":"JDQ4MTAxMiM1MSMkMSMkMCMkMDMkMzgxNzAyIzIxIyQxIyQxIyQ3MiQzNjEyMjIjNDEjJDEjJDgjJDgz","name":"가야하나로약국","category":"약국","sido":"부산","sigungu":"부산진구","address":"부산광역시 부산진구 가야대로 476-1, (개금동)","phone":"051-897-4284","openDate":"2012-07-02","longitude":129.0241632,"latitude":35.1529083},{"id":"JDQ4MTAxMiM1MSMkMSMkMCMkMDMkMzgxOTYxIzMxIyQxIyQzIyQ4OSQyNjE0ODEjNDEjJDEjJDgjJDgz","name":"가온샘약국","category":"약국","sido":"부산","sigungu":"부산금정구","address":"부산광역시 금정구 장전로 10, 1층 104호 (장전동)","phone":"051-912-7790","openDate":"2019-09-27","longitude":129.0876258,"latitude":35.2278296},{"id":"JDQ4MTAxMiM1MSMkMSMkMCMkMDMkNDgxMzUxIzQxIyQxIyQ3IyQ5MiQ0NjEwMDIjNzEjJDEjJDgjJDgz","name":"가온약국","category":"약국","sido":"부산","sigungu":"부산강서구","address":"부산광역시 강서구 신호산단2로 33, 골든뷰 107호 (신호동)","phone":"051-973-8275","openDate":"2015-01-30","longitude":128.8778006,"latitude":35.0859719},{"id":"JDQ4MTAxMiM1MSMkMSMkMCMkMDMkNDgxMzUxIzMxIyQxIyQzIyQwMyQ0NjE0ODEjNTEjJDEjJDYjJDgz","name":"가온약국","category":"약국","sido":"부산","sigungu":"부산사하구","address":"부산광역시 사하구 동매로 167, 101호 (당리동)","phone":"051-996-4664","openDate":"2022-12-01","longitude":128.9761773,"latitude":35.1015136},{"id":"JDQ4MTAxMiM1MSMkMSMkMCMkMDMkNDgxMzUxIzIxIyQxIyQ1IyQ4OSQyNjE0ODEjNjEjJDEjJDAjJDgz","name":"감사약국","category":"약국","sido":"부산","sigungu":"부산연제구","address":"부산광역시 연제구 중앙대로 1043, 1층 (연산동)","phone":"051-868-2293","openDate":"2018-02-20","longitude":129.0778309,"latitude":35.181762},{"id":"JDQ4MTAxMiM1MSMkMSMkMCMkMDMkMzgxNzAyIzMxIyQxIyQ3IyQ4OSQyNjEyMjIjNjEjJDEjJDAjJDgz","name":"감천무지개약국","category":"약국","sido":"부산","sigungu":"부산사하구","address":"부산광역시 사하구 옥천로 11, (감천동)","phone":"051-203-1032","openDate":"2018-05-05","longitude":129.0052546,"latitude":35.0886937},{"id":"JDQ4MTAxMiM1MSMkMSMkMCMkMDMkMzgxOTYxIzQxIyQxIyQ3IyQxMyQzNjE4MzIjODEjJDEjJDYjJDgz","name":"감천우리들약국","category":"약국","sido":"부산","sigungu":"부산사하구","address":"부산광역시 사하구 옥천로 2, (감천동)","phone":"051-203-8780","openDate":"2015-05-08","longitude":129.0052602,"latitude":35.0878797},{"id":"JDQ4MTAxMiM1MSMkMSMkMCMkMDMkMzgxNzAyIzQxIyQxIyQ3IyQ3OSQyNjEyMjIjNTEjJDEjJDYjJDgz","name":"강림 온누리 약국","category":"약국","sido":"부산","sigungu":"부산동래구","address":"부산광역시 동래구 충렬대로237번길 3, (수안동, 로덴빌딩)","phone":"051-552-1110","openDate":"2017-07-03","longitude":129.0850796,"latitude":35.2017145},{"id":"JDQ4MTAxMiM1MSMkMSMkMCMkMDMkNDgxMzUxIzIxIyQxIyQxIyQ4MiQzNjE0ODEjNzEjJDEjJDgjJDgz","name":"강약국","category":"약국","sido":"부산","sigungu":"부산연제구","address":"부산광역시 연제구 고분로 32, (연산동)","phone":"051-863-7003","openDate":"1978-11-07","longitude":129.0859958,"latitude":35.1855322},{"id":"JDQ4MTAxMiM1MSMkMSMkMCMkMDMkMzgxOTYxIzUxIyQxIyQ1IyQxMyQyNjE4MzIjODEjJDEjJDYjJDgz","name":"강약국","category":"약국","sido":"부산","sigungu":"부산진구","address":"부산광역시 부산진구 가야대로 785, (부전동)","phone":"051-806-0789","openDate":"2006-01-02","longitude":129.0574677,"latitude":35.1581247},{"id":"JDQ4MTAxMiM1MSMkMSMkMCMkMDMkMzgxMTkxIzUxIyQxIyQxIyQ5MiQyNjE0ODEjODEjJDEjJDYjJDgz","name":"강약국","category":"약국","sido":"부산","sigungu":"부산금정구","address":"부산광역시 금정구 시실로 13, (부곡동)","phone":"051-514-8787","openDate":"2016-03-11","longitude":129.085954,"latitude":35.217757},{"id":"JDQ4MTAxMiM1MSMkMSMkMCMkMDMkMzgxNzAyIzMxIyQyIyQzIyQwMCQyNjE0ODEjNjEjJDEjJDgjJDgz","name":"강약국","category":"약국","sido":"부산","sigungu":"부산영도구","address":"부산광역시 영도구 절영로13번길 53, (봉래동3가)","phone":"051-415-6300","openDate":"2011-06-09","longitude":129.0430097,"latitude":35.0921358},{"id":"JDQ4MTAxMiM1MSMkMSMkMCMkMDMkNDgxMzUxIzQxIyQxIyQ3IyQ5OSQzNjEwMDIjODEjJDEjJDIjJDgz","name":"개금금성당약국","category":"약국","sido":"부산","sigungu":"부산진구","address":"부산광역시 부산진구 냉정로 217, 1층 (개금동)","phone":"051-893-0222","openDate":"2020-02-24","longitude":129.0235353,"latitude":35.1511371},{"id":"JDQ4MTAxMiM1MSMkMSMkMCMkMDMkNDgxMzUxIzExIyQxIyQ3IyQ2MiQzNjEyMjIjNTEjJDEjJDIjJDgz","name":"개금현대약국","category":"약국","sido":"부산","sigungu":"부산진구","address":"부산광역시 부산진구 엄광로 33, (개금동)","phone":"051-932-7575","openDate":"2018-06-04","longitude":129.0197713,"latitude":35.1483394},{"id":"JDQ4MTAxMiM1MSMkMSMkMCMkMDMkNDgxMzUxIzIxIyQxIyQ5IyQwMyQyNjE0ODEjNDEjJDEjJDgjJDgz","name":"개나리약국","category":"약국","sido":"부산","sigungu":"부산사하구","address":"부산광역시 사하구 낙동대로 207-1, (괴정동)","phone":"051-294-2250","openDate":"2021-06-02","longitude":128.9940249,"latitude":35.10019},{"id":"JDQ4MTAxMiM1MSMkMSMkMCMkMDMkMzgxNzAyIzQxIyQxIyQ3IyQ5MiQyNjEwMDIjNjEjJDEjJDgjJDgz","name":"건강드림약국","category":"약국","sido":"부산","sigungu":"부산북구","address":"부산광역시 북구 덕천로 299, (만덕동)","phone":"051-343-7577","openDate":"2014-08-11","longitude":129.0365894,"latitude":35.2097558},{"id":"JDQ4MTAxMiM1MSMkMSMkMCMkMDMkNDgxMzUxIzExIyQxIyQ3IyQ4OSQzNjE0ODEjNjEjJDEjJDAjJDgz","name":"건강메디칼약국","category":"약국","sido":"부산","sigungu":"부산금정구","address":"부산광역시 금정구 중앙대로 1829, (구서동)","phone":"","openDate":"2019-12-20","longitude":129.0919619,"latitude":35.2476664},{"id":"JDQ4MTAxMiM1MSMkMSMkMCMkMDMkMzgxNzAyIzUxIyQxIyQxIyQ4MiQzNjEyMjIjNjEjJDEjJDgjJDgz","name":"건강미약국","category":"약국","sido":"부산","sigungu":"부산진구","address":"부산광역시 부산진구 중앙대로 665, 1층 (부전동)","phone":"051-611-1249","openDate":"2025-03-26","longitude":129.0588549,"latitude":35.1520778},{"id":"JDQ4MTAxMiM1MSMkMSMkMCMkMDMkMzgxMTkxIzIxIyQxIyQ5IyQ5OSQ0NjEwMDIjNDEjJDEjJDgjJDgz","name":"건강백세약국","category":"약국","sido":"부산","sigungu":"부산북구","address":"부산광역시 북구 만덕대로 14, (덕천동)","phone":"051-342-0861","openDate":"2003-02-15","longitude":129.0067235,"latitude":35.2102083},{"id":"JDQ4MTAxMiM1MSMkMSMkMCMkMDMkNDgxMzUxIzExIyQxIyQ3IyQ5OSQzNjEyMjIjODEjJDEjJDIjJDgz","name":"건강약국","category":"약국","sido":"부산","sigungu":"부산진구","address":"부산광역시 부산진구 진남로 554, 270동 A-106호 (양정동)","phone":"051-861-3644","openDate":"2022-05-06","longitude":129.0752899,"latitude":35.1716075},{"id":"JDQ4MTAxMiM1MSMkMSMkMCMkMDMkMzgxNzAyIzMxIyQxIyQ3IyQ5OSQyNjE0ODEjNjEjJDEjJDQjJDgz","name":"건강약국","category":"약국","sido":"부산","sigungu":"부산사하구","address":"부산광역시 사하구 장림번영로 59, 그랑프라자빌딩 103호 (장림동)","phone":"051-265-0525","openDate":"2023-09-01","longitude":128.9719889,"latitude":35.0809393},{"id":"JDQ4MTAxMiM1MSMkMSMkMCMkMDMkMzgxMzUxIzUxIyQxIyQxIyQ4MiQzNjEyMjIjNDEjJDEjJDQjJDgz","name":"건강약국","category":"약국","sido":"부산","sigungu":"부산남구","address":"부산광역시 남구 용호로 129, 두산빌딩 1층 (용호동)","phone":"051-624-0131","openDate":"2025-04-28","longitude":129.1123661,"latitude":35.1206436},{"id":"JDQ4MTAxMiM1MSMkMSMkMCMkMDMkMzgxMTkxIzMxIyQxIyQzIyQxMyQzNjE4MzIjNDEjJDEjJDgjJDgz","name":"건강약국","category":"약국","sido":"부산","sigungu":"부산서구","address":"부산광역시 서구 대영로85번길 34, (동대신동2가)","phone":"051-246-8999","openDate":"2000-09-09","longitude":129.0198847,"latitude":35.1124529},{"id":"JDQ4MTAxMiM1MSMkMSMkMCMkMDMkMzgxNzAyIzExIyQxIyQ3IyQ4MiQyNjEwMDIjNDEjJDEjJDgjJDgz","name":"건강약국","category":"약국","sido":"부산","sigungu":"부산북구","address":"부산광역시 북구 백양대로 1017, 한성빌딩 (구포동)","phone":"051-333-1977","openDate":"2019-03-04","longitude":128.9945319,"latitude":35.1967405},{"id":"JDQ4MTAxMiM1MSMkMSMkMCMkMDMkMzgxOTYxIzIxIyQyIyQ1IyQwMCQzNjE4MzIjNDEjJDEjJDQjJDgz","name":"건강약국","category":"약국","sido":"부산","sigungu":"부산진구","address":"부산광역시 부산진구 자유평화로 7, (범천동, 평화시장건강약국)","phone":"051-646-0519","openDate":"1989-04-14","longitude":129.0606738,"latitude":35.1417032},{"id":"JDQ4MTAxMiM1MSMkMSMkMCMkMDMkMzgxOTYxIzMxIyQyIyQ3IyQwMCQzNjEyMjIjNDEjJDEjJDgjJDgz","name":"건강약국","category":"약국","sido":"부산","sigungu":"부산수영구","address":"부산광역시 수영구 과정로 69, (망미동)","phone":"051-761-1820","openDate":"2001-01-17","longitude":129.1070255,"latitude":35.1775723},{"id":"JDQ4MTAxMiM1MSMkMSMkMCMkMDMkMzgxMTkxIzIxIyQyIyQ5IyQwMCQyNjEyMjIjNDEjJDEjJDgjJDgz","name":"건강약국","category":"약국","sido":"부산","sigungu":"부산진구","address":"부산광역시 부산진구 범전로5번길 8, (부전동)","phone":"051-817-7111","openDate":"2010-08-13","longitude":129.0630097,"latitude":35.1638887},{"id":"JDQ4MTAxMiM1MSMkMSMkMCMkMDMkMzgxMTkxIzExIyQxIyQ3IyQ5MiQyNjEwMDIjNTEjJDEjJDIjJDgz","name":"건강약국","category":"약국","sido":"부산","sigungu":"부산기장군","address":"부산광역시 기장군 기장읍 차성동로 69, (기장읍)","phone":"051-722-8861","openDate":"2001-07-02","longitude":129.2164977,"latitude":35.2439054},{"id":"JDQ4MTAxMiM1MSMkMSMkMCMkMDMkMzgxNzAyIzIxIyQxIyQ1IyQ2MiQyNjEyMjIjNzEjJDEjJDgjJDgz","name":"건강약국","category":"약국","sido":"부산","sigungu":"부산금정구","address":"부산광역시 금정구 부곡로 107, 1층 (부곡동)","phone":"515-8558","openDate":"2012-06-11","longitude":129.0914546,"latitude":35.2254823},{"id":"JDQ4MTAxMiM1MSMkMSMkMCMkMDMkMzgxMzUxIzQxIyQxIyQ3IyQwMyQzNjEyMjIjODEjJDEjJDIjJDgz","name":"건강약국","category":"약국","sido":"부산","sigungu":"부산금정구","address":"부산광역시 금정구 금강로415번길 2, 1층 (구서동)","phone":"051-512-4589","openDate":"2002-10-01","longitude":129.0882012,"latitude":35.2447912},{"id":"JDQ4MTAxMiM1MSMkMSMkMCMkMDMkMzgxMTkxIzUxIyQxIyQ1IyQwMyQzNjE4MzIjNDEjJDEjJDQjJDgz","name":"건강왕약국","category":"약국","sido":"부산","sigungu":"부산사하구","address":"부산광역시 사하구 다대로 547, (다대동)","phone":"051-262-7005","openDate":"2004-07-26","longitude":128.9713871,"latitude":35.0573807},{"id":"JDQ4MTAxMiM1MSMkMSMkMCMkMDMkNDgxMzUxIzMxIyQxIyQzIyQ3MiQzNjE0ODEjODEjJDEjJDYjJDgz","name":"건강제이드약국","category":"약국","sido":"부산","sigungu":"부산서구","address":"부산광역시 서구 동대로 20, 1층 (동대신동3가)","phone":"051-254-9872","openDate":"2021-08-24","longitude":129.0179251,"latitude":35.1190352},{"id":"JDQ4MTAxMiM1MSMkMSMkMCMkMDMkMzgxMTkxIzIxIyQxIyQ1IyQ5OSQzNjEyMjIjNDEjJDEjJDQjJDgz","name":"건강플러스약국","category":"약국","sido":"부산","sigungu":"부산동래구","address":"부산광역시 동래구 쇠미로81번길 22, 101호 (사직동, 삼정2차 주상가)","phone":"051-505-6818","openDate":"1997-03-05","longitude":129.0548989,"latitude":35.2017009},{"id":"JDQ4MTAxMiM1MSMkMSMkMCMkMDMkNDgxMzUxIzMxIyQxIyQzIyQ5OSQyNjE0ODEjNjEjJDEjJDAjJDgz","name":"건강하자약국","category":"약국","sido":"부산","sigungu":"부산강서구","address":"부산광역시 강서구 명지국제8로 229, 아이메디컬 106호 (명지동)","phone":"051-271-1357","openDate":"2018-04-06","longitude":128.917995,"latitude":35.0985822},{"id":"JDQ4MTAxMiM1MSMkMSMkMCMkMDMkMzgxOTYxIzExIyQyIyQzIyQwMCQzNjEwMDIjNjEjJDEjJDAjJDgz","name":"건강한약국","category":"약국","sido":"부산","sigungu":"부산진구","address":"부산광역시 부산진구 가야대로703번가길 33, 1층 (당감동)","phone":"051-802-2774","openDate":"2011-03-08","longitude":129.0499132,"latitude":35.1581297},{"id":"JDQ4MTAxMiM1MSMkMSMkMCMkMDMkMzgxMTkxIzExIyQxIyQzIyQ4OSQzNjEyMjIjNTEjJDEjJDYjJDgz","name":"건강한약국","category":"약국","sido":"부산","sigungu":"부산기장군","address":"부산광역시 기장군 기장읍 기장대로 83-10, (기장읍)","phone":"051-724-7580","openDate":"2013-09-03","longitude":129.2053762,"latitude":35.2047957},{"id":"JDQ4MTAxMiM1MSMkMSMkMCMkMDMkMzgxNzAyIzQxIyQxIyQ3IyQ4MiQzNjE4MzIjODEjJDEjJDIjJDgz","name":"건강한약국","category":"약국","sido":"부산","sigungu":"부산서구","address":"부산광역시 서구 감천로 251, (암남동)","phone":"051-253-2492","openDate":"2014-06-30","longitude":129.0155236,"latitude":35.0816541},{"id":"JDQ4MTAxMiM1MSMkMSMkMCMkMDMkMzgxMTkxIzQxIyQxIyQ3IyQwMyQyNjE0ODEjNDEjJDEjJDQjJDgz","name":"건강한약국","category":"약국","sido":"부산","sigungu":"부산북구","address":"부산광역시 북구 금곡대로 287, 6층 608호 (화명동)","phone":"051-361-2666","openDate":"2012-09-20","longitude":129.0133222,"latitude":35.2341977},{"id":"JDQ4MTAxMiM1MSMkMSMkMCMkMDMkMzgxMzUxIzIxIyQxIyQ1IyQ3OSQzNjEwMDIjNjEjJDEjJDgjJDgz","name":"건강한약국","category":"약국","sido":"부산","sigungu":"부산남구","address":"부산광역시 남구 수영로 195-2, (대연동)","phone":"051-611-9559","openDate":"1982-11-13","longitude":129.0880663,"latitude":35.1351325},{"id":"JDQ4MTAxMiM1MSMkMSMkMCMkMDMkMzgxMzUxIzUxIyQxIyQ1IyQxMyQ0NjEwMDIjNTEjJDEjJDIjJDgz","name":"건강한약국","category":"약국","sido":"부산","sigungu":"부산동래구","address":"부산광역시 동래구 중앙대로1325번길 29, (온천동)","phone":"051-553-6500","openDate":"2018-03-20","longitude":129.0761568,"latitude":35.2054223},{"id":"JDQ4MTAxMiM1MSMkMSMkMCMkMDMkMzgxNzAyIzExIyQxIyQzIyQxMyQzNjE4MzIjNjEjJDEjJDQjJDgz","name":"건강한온누리약국","category":"약국","sido":"부산","sigungu":"부산중구","address":"부산광역시 중구 대청로 70-1, (부평동1가)","phone":"051-242-1089","openDate":"2006-03-02","longitude":129.0275961,"latitude":35.1028517},{"id":"JDQ4MTAxMiM1MSMkMSMkMCMkMDMkNDgxMzUxIzExIyQxIyQ3IyQ4MiQ0NjE0ODEjNTEjJDEjJDYjJDgz","name":"건강한온누리약국","category":"약국","sido":"부산","sigungu":"부산해운대구","address":"부산광역시 해운대구 해운대로61번길 106, (반여동)","phone":"051-784-0112","openDate":"2018-07-30","longitude":129.129863,"latitude":35.1946582},{"id":"JDQ4MTAxMiM1MSMkMSMkMCMkMDMkMzgxMTkxIzMxIyQxIyQ3IyQ5OSQ0NjE0ODEjNjEjJDEjJDQjJDgz","name":"겸애약국","category":"약국","sido":"부산","sigungu":"부산동래구","address":"부산광역시 동래구 충렬대로 385, 1층 (안락동)","phone":"051-866-8020","openDate":"2019-01-02","longitude":129.1007324,"latitude":35.1973758},{"id":"JDQ4MTAxMiM1MSMkMSMkMCMkMDMkMzgxMTkxIzIxIyQxIyQ1IyQ4OSQyNjEyMjIjNDEjJDEjJDQjJDgz","name":"경남약국","category":"약국","sido":"부산","sigungu":"부산사상구","address":"부산광역시 사상구 사상로 194, 괘법동 메디컬센터 1층 (괘법동)","phone":"051-325-3355","openDate":"2006-10-02","longitude":128.9847721,"latitude":35.1625689},{"id":"JDQ4MTAxMiM1MSMkMSMkMCMkMDMkMzgxMTkxIzIxIyQxIyQxIyQ2MiQ0NjE0ODEjNjEjJDEjJDAjJDgz","name":"경남약국","category":"약국","sido":"부산","sigungu":"부산해운대구","address":"부산광역시 해운대구 해운대해변로 83, 119호 (우동, 경남마리나상가)","phone":"051-742-6494","openDate":"1995-10-02","longitude":129.1423237,"latitude":35.1616441},{"id":"JDQ4MTAxMiM1MSMkMSMkMCMkMDMkNDgxMzUxIzMxIyQxIyQ3IyQwMyQ0NjE0ODEjNDEjJDEjJDQjJDgz","name":"경대정문약국","category":"약국","sido":"부산","sigungu":"부산남구","address":"부산광역시 남구 수영로 311, 1층 (대연동)","phone":"051-628-8858","openDate":"2023-12-18","longitude":129.0999065,"latitude":35.1375553},{"id":"JDQ4MTAxMiM1MSMkMSMkMCMkMDMkMzgxMzUxIzIxIyQxIyQ1IyQ3OSQzNjE4MzIjNTEjJDEjJDIjJDgz","name":"경동약국","category":"약국","sido":"부산","sigungu":"부산해운대구","address":"부산광역시 해운대구 세실로 43, 302호 (좌동, 경동코아)","phone":"051-702-0801","openDate":"2000-07-26","longitude":129.17845,"latitude":35.1687646},{"id":"JDQ4MTAxMiM1MSMkMSMkMCMkMDMkMzgxNzAyIzIxIyQxIyQxIyQ4OSQ0NjE0ODEjODEjJDEjJDIjJDgz","name":"경인약국","category":"약국","sido":"부산","sigungu":"부산사하구","address":"부산광역시 사하구 하신번영로201번길 1, 1층 (신평동)","phone":"051-205-8171","openDate":"2007-07-23","longitude":128.9581332,"latitude":35.0988839},{"id":"JDQ4MTAxMiM1MSMkMSMkMCMkMDMkMzgxOTYxIzMxIyQxIyQ3IyQ4MiQyNjEwMDIjNDEjJDEjJDgjJDgz","name":"경화약국","category":"약국","sido":"부산","sigungu":"부산남구","address":"부산광역시 남구 용호로 195-1, (용호동)","phone":"051-623-0515","openDate":"2011-09-30","longitude":129.1111965,"latitude":35.1148192},{"id":"JDQ4MTAxMiM1MSMkMSMkMCMkMDMkNDgxMzUxIzIxIyQxIyQxIyQ3MiQ0NjE0ODEjNTEjJDEjJDIjJDgz","name":"경화약국","category":"약국","sido":"부산","sigungu":"부산수영구","address":"부산광역시 수영구 수영로 592, 누구나 1층 (광안동)","phone":"051-753-9996","openDate":"1980-05-24","longitude":129.1136719,"latitude":35.1586284},{"id":"JDQ4MTAxMiM1MSMkMSMkMCMkMDMkMzgxMzUxIzExIyQxIyQzIyQ4OSQ0NjEwMDIjNzEjJDEjJDgjJDgz","name":"경화약국","category":"약국","sido":"부산","sigungu":"부산기장군","address":"부산광역시 기장군 기장읍 읍내로 108, (기장읍)","phone":"051-721-2056","openDate":"2011-01-31","longitude":129.2160541,"latitude":35.2449303},{"id":"JDQ4MTAxMiM1MSMkMSMkMCMkMDMkMzgxNzAyIzQxIyQxIyQ3IyQ5MiQ0NjEwMDIjNDEjJDEjJDgjJDgz","name":"경희소망한약국","category":"약국","sido":"부산","sigungu":"부산남구","address":"부산광역시 남구 용호로 34, 107호 (용호동, 일신프리빌리지상가)","phone":"051-626-1714","openDate":"2014-08-27","longitude":129.1077936,"latitude":35.1274812},{"id":"JDQ4MTAxMiM1MSMkMSMkMCMkMDMkMzgxNzAyIzQxIyQxIyQ3IyQ5OSQzNjE0ODEjNjEjJDEjJDAjJDgz","name":"경희오름한약국","category":"약국","sido":"부산","sigungu":"부산해운대구","address":"부산광역시 해운대구 대천로 104, 103호 (좌동)","phone":"051-703-5675","openDate":"2013-12-16","longitude":129.173746,"latitude":35.1745907},{"id":"JDQ4MTAxMiM1MSMkMSMkMCMkMDMkNDgxMzUxIzQxIyQxIyQ3IyQ5OSQyNjE0ODEjNzEjJDEjJDgjJDgz","name":"고려약국","category":"약국","sido":"부산","sigungu":"부산해운대구","address":"부산광역시 해운대구 해운대로89번길 10, (재송동)","phone":"781-5466","openDate":"2011-07-05","longitude":129.1211989,"latitude":35.1892976},{"id":"JDQ4MTAxMiM1MSMkMSMkMCMkMDMkMzgxNzAyIzMxIyQxIyQ3IyQ3OSQyNjEwMDIjODEjJDEjJDYjJDgz","name":"고신정문약국","category":"약국","sido":"부산","sigungu":"부산서구","address":"부산광역시 서구 감천로 255, (암남동)","phone":"051-245-1245","openDate":"2012-05-01","longitude":129.0160431,"latitude":35.0815599},{"id":"JDQ4MTAxMiM1MSMkMSMkMCMkMDMkMzgxOTYxIzIxIyQxIyQ5IyQ4OSQzNjEwMDIjNjEjJDEjJDQjJDgz","name":"고운약국","category":"약국","sido":"부산","sigungu":"부산연제구","address":"부산광역시 연제구 월드컵대로20번길 10, (연산동)","phone":"051-851-0169","openDate":"1985-11-23","longitude":129.0865571,"latitude":35.1764651},{"id":"JDQ4MTAxMiM1MSMkMSMkMCMkMDMkMzgxNzAyIzExIyQxIyQzIyQ2MiQyNjE0ODEjNDEjJDEjJDgjJDgz","name":"고은약국","category":"약국","sido":"부산","sigungu":"부산남구","address":"부산광역시 남구 석포로 76, (대연동)","phone":"051-628-9523","openDate":"2014-03-03","longitude":129.0886423,"latitude":35.1244753},{"id":"JDQ4MTAxMiM1MSMkMSMkMCMkMDMkMzgxNzAyIzExIyQxIyQzIyQ5OSQzNjE4MzIjNjEjJDEjJDAjJDgz","name":"고은약국","category":"약국","sido":"부산","sigungu":"부산남구","address":"부산광역시 남구 우암로 168, 우암동우체국 (우암동)","phone":"051-647-7741","openDate":"2018-06-04","longitude":129.0785545,"latitude":35.124611},{"id":"JDQ4MTAxMiM1MSMkMSMkMCMkMDMkNDgxMzUxIzIxIyQxIyQ1IyQ5OSQyNjE4MzIjNjEjJDEjJDgjJDgz","name":"고은약국","category":"약국","sido":"부산","sigungu":"부산진구","address":"부산광역시 부산진구 동평로 373, 1층 (양정동)","phone":"051-867-5067","openDate":"2020-04-20","longitude":129.0659532,"latitude":35.175005},{"id":"JDQ4MTAxMiM1MSMkMSMkMCMkMDMkMzgxNzAyIzUxIyQxIyQxIyQxMyQ0NjEwMDIjNTEjJDEjJDIjJDgz","name":"고은약국","category":"약국","sido":"부산","sigungu":"부산수영구","address":"부산광역시 수영구 수영로725번길 4, 1층 (수영동, 본정형외과)","phone":"070-7779-6261","openDate":"2015-12-10","longitude":129.1186161,"latitude":35.168705},{"id":"JDQ4MTAxMiM1MSMkMSMkMCMkMDMkMzgxNzAyIzExIyQxIyQ3IyQ5OSQyNjEwMDIjNDEjJDEjJDgjJDgz","name":"고촌약국","category":"약국","sido":"부산","sigungu":"부산기장군","address":"부산광역시 기장군 철마면 고촌로 28, 101호","phone":"051-724-8523","openDate":"2019-01-30","longitude":129.1707794,"latitude":35.2395918},{"id":"JDQ4MTAxMiM1MSMkMSMkMCMkMDMkMzgxNzAyIzIxIyQxIyQxIyQ3OSQzNjEwMDIjNjEjJDEjJDgjJDgz","name":"곰약국","category":"약국","sido":"부산","sigungu":"부산남구","address":"부산광역시 남구 석포로 74, 1층 (대연동)","phone":"051-625-7890","openDate":"2024-04-30","longitude":129.088528,"latitude":35.1243282},{"id":"JDQ4MTAxMiM1MSMkMSMkMCMkMDMkNDgxMzUxIzExIyQxIyQ3IyQ4MiQzNjE0ODEjNDEjJDEjJDgjJDgz","name":"공감약국","category":"약국","sido":"부산","sigungu":"부산해운대구","address":"부산광역시 해운대구 좌동순환로 6, L TOWER 1층 (중동)","phone":"051-731-1940","openDate":"2022-04-11","longitude":129.1680556,"latitude":35.1672265},{"id":"JDQ4MTAxMiM1MSMkMSMkMCMkMDMkNDgxMzUxIzMxIyQxIyQ3IyQ2MiQ0NjE0ODEjNDEjJDEjJDgjJDgz","name":"공감약국","category":"약국","sido":"부산","sigungu":"부산동래구","address":"부산광역시 동래구 금정마을로 152, 1층 (온천동)","phone":"051-555-3503","openDate":"2023-06-30","longitude":129.0696886,"latitude":35.2119553},{"id":"JDQ4MTAxMiM1MSMkMSMkMCMkMDMkMzgxMTkxIzUxIyQyIyQ1IyQwMCQyNjEwMDIjNjEjJDEjJDAjJDgz","name":"공생약국","category":"약국","sido":"부산","sigungu":"부산동래구","address":"부산광역시 동래구 석사로 49, (사직동)","phone":"051-502-6988","openDate":"2003-11-01","longitude":129.064296,"latitude":35.2006018},{"id":"JDQ4MTAxMiM1MSMkMSMkMCMkMDMkNDgxMzUxIzIxIyQxIyQxIyQ5OSQ0NjEwMDIjODEjJDEjJDYjJDgz","name":"공한약국","category":"약국","sido":"부산","sigungu":"부산진구","address":"부산광역시 부산진구 중앙대로 940, 3층 (양정동)","phone":"051-864-9977","openDate":"2019-03-20","longitude":129.0720991,"latitude":35.1735997},{"id":"JDQ4MTAxMiM1MSMkMSMkMCMkMDMkMzgxNzAyIzIxIyQxIyQ5IyQ4MiQzNjE0ODEjNjEjJDEjJDAjJDgz","name":"광명당약국","category":"약국","sido":"부산","sigungu":"부산사상구","address":"부산광역시 사상구 괘감로 115, (감전동)","phone":"051-317-9414","openDate":"2009-03-02","longitude":128.9870158,"latitude":35.1568263},{"id":"JDQ4MTAxMiM1MSMkMSMkMCMkMDMkNDgxMzUxIzQxIyQxIyQ3IyQxMyQ0NjE0ODEjNTEjJDEjJDYjJDgz","name":"광명약국","category":"약국","sido":"부산","sigungu":"부산해운대구","address":"부산광역시 해운대구 재반로 85, 광명약국 1층 (재송동)","phone":"051-784-5496","openDate":"2024-04-01","longitude":129.1253414,"latitude":35.1863144},{"id":"JDQ4MTAxMiM1MSMkMSMkMCMkMDMkMzgxNzAyIzMxIyQxIyQzIyQ4OSQ0NjEwMDIjNjEjJDEjJDQjJDgz","name":"광명약국","category":"약국","sido":"부산","sigungu":"부산동래구","address":"부산광역시 동래구 충렬대로100번길 8, (온천동)","phone":"051-507-6067","openDate":"2011-05-02","longitude":129.0715378,"latitude":35.2068858},{"id":"JDQ4MTAxMiM1MSMkMSMkMCMkMDMkMzgxNzAyIzMxIyQxIyQ3IyQ3OSQ0NjE0ODEjNjEjJDEjJDgjJDgz","name":"광안그린약국","category":"약국","sido":"부산","sigungu":"부산수영구","address":"부산광역시 수영구 광일로 49, 109동 상가109호 (광안동, 비치그린아파트)","phone":"051-752-7980","openDate":"2017-06-20","longitude":129.1084625,"latitude":35.1622314},{"id":"JDQ4MTAxMiM1MSMkMSMkMCMkMDMkNDgxMzUxIzUxIyQxIyQxIyQ5OSQzNjE0ODEjNjEjJDEjJDgjJDgz","name":"광안리약국","category":"약국","sido":"부산","sigungu":"부산수영구","address":"부산광역시 수영구 수영로 517, 센터럴타워 1층 (광안동)","phone":"051-759-7582","openDate":"2021-10-01","longitude":129.1113216,"latitude":35.1520778},{"id":"JDQ4MTAxMiM1MSMkMSMkMCMkMDMkNDgxMzUxIzIxIyQxIyQ5IyQ3MiQzNjE0ODEjNTEjJDEjJDIjJDgz","name":"광안센터약국","category":"약국","sido":"부산","sigungu":"부산수영구","address":"부산광역시 수영구 수영로 486, 1층 (남천동)","phone":"051-622-0407","openDate":"2021-09-13","longitude":129.1110277,"latitude":35.1490807},{"id":"JDQ4MTAxMiM1MSMkMSMkMCMkMDMkMzgxOTYxIzIxIyQxIyQxIyQxMyQ0NjE0ODEjNjEjJDEjJDQjJDgz","name":"광안약국","category":"약국","sido":"부산","sigungu":"부산수영구","address":"부산광역시 수영구 광일로 40, (광안동)","phone":"051-757-2656","openDate":"1996-07-22","longitude":129.1098591,"latitude":35.1626848},{"id":"JDQ4MTAxMiM1MSMkMSMkMCMkMDMkNDgxMzUxIzMxIyQyIyQ3IyQwMCQyNjEyMjIjNjEjJDEjJDAjJDgz","name":"광안온누리약국","category":"약국","sido":"부산","sigungu":"부산수영구","address":"부산광역시 수영구 수영로 476, 1층 (남천동)","phone":"051-992-5578","openDate":"2023-05-04","longitude":129.1107875,"latitude":35.1482785},{"id":"JDQ4MTAxMiM1MSMkMSMkMCMkMDMkMzgxNzAyIzIxIyQxIyQ5IyQ3OSQyNjE4MzIjNTEjJDEjJDIjJDgz","name":"광안우리약국","category":"약국","sido":"부산","sigungu":"부산수영구","address":"부산광역시 수영구 수영로 632, (광안동)","phone":"051-752-0527","openDate":"2009-09-04","longitude":129.1143081,"latitude":35.1620145},{"id":"JDQ4MTAxMiM1MSMkMSMkMCMkMDMkNDgxMzUxIzExIyQxIyQ3IyQ3OSQyNjE0ODEjNjEjJDEjJDAjJDgz","name":"광안자연약국","category":"약국","sido":"부산","sigungu":"부산수영구","address":"부산광역시 수영구 수영로 581, 1층 (광안동)","phone":"051-757-7571","openDate":"2017-12-14","longitude":129.1128045,"latitude":35.1576639},{"id":"JDQ4MTAxMiM1MSMkMSMkMCMkMDMkMzgxMzUxIzUxIyQxIyQ1IyQ3OSQ0NjEwMDIjNzEjJDEjJDgjJDgz","name":"광장약국","category":"약국","sido":"부산","sigungu":"부산사하구","address":"부산광역시 사하구 장림번영로 17, (장림동)","phone":"051-261-9191","openDate":"2001-03-13","longitude":128.9676368,"latitude":35.0814742},{"id":"JDQ4MTAxMiM1MSMkMSMkMCMkMDMkMzgxNzAyIzMxIyQxIyQzIyQwMyQyNjE0ODEjNTEjJDEjJDIjJDgz","name":"광장약국","category":"약국","sido":"부산","sigungu":"부산기장군","address":"부산광역시 기장군 정관읍 정관로 563, 110호","phone":"051-727-0366","openDate":"2012-02-21","longitude":129.1756378,"latitude":35.3219389},{"id":"JDQ4MTAxMiM1MSMkMSMkMCMkMDMkMzgxMTkxIzQxIyQxIyQ3IyQ3MiQyNjEwMDIjNjEjJDEjJDgjJDgz","name":"광제약국","category":"약국","sido":"부산","sigungu":"부산강서구","address":"부산광역시 강서구 공항앞길 6, 1층 (대저2동)","phone":"051-973-6653","openDate":"2019-05-03","longitude":128.9544881,"latitude":35.1804591},{"id":"JDQ4MTAxMiM1MSMkMSMkMCMkMDMkMzgxOTYxIzMxIyQxIyQzIyQwMyQyNjE0ODEjNDEjJDEjJDgjJDgz","name":"광제약국","category":"약국","sido":"부산","sigungu":"부산동래구","address":"부산광역시 동래구 여고북로 192, (사직동)","phone":"051-506-0365","openDate":"1979-03-05","longitude":129.0752307,"latitude":35.2024988},{"id":"JDQ4MTAxMiM1MSMkMSMkMCMkMDMkMzgxOTYxIzExIyQxIyQzIyQ4OSQyNjEyMjIjNjEjJDEjJDQjJDgz","name":"괴정약국","category":"약국","sido":"부산","sigungu":"부산사하구","address":"부산광역시 사하구 대티로1번길 39, (괴정동)","phone":"051-293-1541","openDate":"1981-05-08","longitude":128.9988872,"latitude":35.104921},{"id":"JDQ4MTAxMiM1MSMkMSMkMCMkMDMkMzgxNzAyIzUxIyQxIyQ1IyQ5MiQyNjE4MzIjNjEjJDEjJDQjJDgz","name":"구구팔팔약국","category":"약국","sido":"부산","sigungu":"부산연제구","address":"부산광역시 연제구 법원북로 34, 107호 (거제동, 거제1차현대홈타운)","phone":"051-507-0106","openDate":"2016-05-16","longitude":129.0713203,"latitude":35.1932347},{"id":"JDQ4MTAxMiM1MSMkMSMkMCMkMDMkNDgxMzUxIzIxIyQyIyQxIyQwMCQyNjE0ODEjNTEjJDEjJDIjJDgz","name":"구명약국","category":"약국","sido":"부산","sigungu":"부산영도구","address":"부산광역시 영도구 동삼로 56, 한나타워 2층 203-3호 (동삼동)","phone":"051-405-0590","openDate":"2019-03-20","longitude":129.0709519,"latitude":35.0783879},{"id":"JDQ4MTAxMiM1MSMkMSMkMCMkMDMkMzgxOTYxIzUxIyQyIyQ1IyQwMCQzNjE0ODEjNTEjJDEjJDYjJDgz","name":"구서약국","category":"약국","sido":"부산","sigungu":"부산금정구","address":"부산광역시 금정구 구서로 23, 1층 (구서동)","phone":"051-515-7117","openDate":"2009-11-20","longitude":129.0886141,"latitude":35.24662},{"id":"JDQ4MTAxMiM1MSMkMSMkMCMkMDMkMzgxMTkxIzMxIyQxIyQzIyQ3OSQ0NjEwMDIjNTEjJDEjJDIjJDgz","name":"구포시장약국","category":"약국","sido":"부산","sigungu":"부산북구","address":"부산광역시 북구 낙동대로 1774, (구포동)","phone":"051-336-0814","openDate":"1999-09-11","longitude":129.0033833,"latitude":35.2092596},{"id":"JDQ4MTAxMiM1MSMkMSMkMCMkMDMkNDgxMzUxIzQxIyQxIyQ3IyQ2MiQzNjE0ODEjNjEjJDEjJDAjJDgz","name":"구포큰약국","category":"약국","sido":"부산","sigungu":"부산북구","address":"부산광역시 북구 금곡대로 14, 3호선덕천역 N18, N19, N20호 (덕천동)","phone":"051-338-1225","openDate":"2021-09-13","longitude":129.0049735,"latitude":35.2109738},{"id":"JDQ4MTAxMiM1MSMkMSMkMCMkMDMkNDgxMzUxIzIxIyQxIyQxIyQ4MiQyNjEwMDIjNTEjJDEjJDIjJDgz","name":"국민약국","category":"약국","sido":"부산","sigungu":"부산북구","address":"부산광역시 북구 만덕대로 9, 구포빌딩 1층 (덕천동)","phone":"051-331-7500","openDate":"2019-09-09","longitude":129.0061292,"latitude":35.210687},{"id":"JDQ4MTAxMiM1MSMkMSMkMCMkMDMkMzgxMzUxIzUxIyQxIyQxIyQ5MiQyNjEyMjIjNjEjJDEjJDAjJDgz","name":"국일약국","category":"약국","sido":"부산","sigungu":"부산진구","address":"부산광역시 부산진구 동평로291번길 12, (연지동)","phone":"051-807-1444","openDate":"2013-11-11","longitude":129.058548,"latitude":35.1721672},{"id":"JDQ4MTAxMiM1MSMkMSMkMCMkMDMkNDgxMzUxIzMxIyQxIyQ3IyQ2MiQyNjE0ODEjNjEjJDEjJDQjJDgz","name":"국제 온누리 약국","category":"약국","sido":"부산","sigungu":"부산강서구","address":"부산광역시 강서구 명지국제2로 29, 성광타워 108호 (명지동)","phone":"051-205-3574","openDate":"2022-03-23","longitude":128.9067902,"latitude":35.094147},{"id":"JDQ4MTAxMiM1MSMkMSMkMCMkMDMkNDgxMzUxIzMxIyQxIyQzIyQwMyQ0NjEwMDIjNDEjJDEjJDgjJDgz","name":"국제약국","category":"약국","sido":"부산","sigungu":"부산중구","address":"부산광역시 중구 중구로 22, 1층 10,11,12,13호 (창선동2가)","phone":"051-242-4484","openDate":"2024-07-01","longitude":129.028037,"latitude":35.0997212},{"id":"JDQ4MTAxMiM1MSMkMSMkMCMkMDMkMzgxNzAyIzUxIyQxIyQ1IyQ5MiQyNjE0ODEjNDEjJDEjJDgjJDgz","name":"국화약국","category":"약국","sido":"부산","sigungu":"부산동래구","address":"부산광역시 동래구 명륜로103번길 19, 1층 일부호 (명륜동, 청춘안과빌딩)","phone":"051-552-0974","openDate":"2016-05-12","longitude":129.0819685,"latitude":35.2029217},{"id":"JDQ4MTAxMiM1MSMkMSMkMCMkMDMkNDgxMzUxIzExIyQxIyQzIyQ4MiQyNjE4MzIjNjEjJDEjJDgjJDgz","name":"굿모닝약국","category":"약국","sido":"부산","sigungu":"부산동래구","address":"부산광역시 동래구 충렬대로 353, (안락동, 1층 일부)","phone":"070-8829-7775","openDate":"2017-08-07","longitude":129.0975764,"latitude":35.198561},{"id":"JDQ4MTAxMiM1MSMkMSMkMCMkMDMkMzgxNzAyIzUxIyQxIyQ1IyQwMyQyNjEyMjIjNjEjJDEjJDAjJDgz","name":"굿모닝약국","category":"약국","sido":"부산","sigungu":"부산금정구","address":"부산광역시 금정구 서동로 168, 송월빌딩 1층 102호 (서동)","phone":"051-757-5252","openDate":"2018-10-04","longitude":129.1047804,"latitude":35.2144461},{"id":"JDQ4MTAxMiM1MSMkMSMkMCMkMDMkMzgxMTkxIzIxIyQyIyQxIyQwMCQ0NjE0ODEjNzEjJDEjJDgjJDgz","name":"굿모닝약국","category":"약국","sido":"부산","sigungu":"부산해운대구","address":"부산광역시 해운대구 재송2로 31, (재송동)","phone":"051-783-5775","openDate":"2000-11-13","longitude":129.1303218,"latitude":35.1923322},{"id":"JDQ4MTAxMiM1MSMkMSMkMCMkMDMkMzgxMTkxIzMxIyQxIyQ3IyQxMyQzNjE0ODEjNTEjJDEjJDYjJDgz","name":"굿모닝약국","category":"약국","sido":"부산","sigungu":"부산중구","address":"부산광역시 중구 흑교로52번길 6-1, 1층 (보수동1가)","phone":"051-253-1963","openDate":"2001-07-06","longitude":129.0254553,"latitude":35.1042139},{"id":"JDQ4MTAxMiM1MSMkMSMkMCMkMDMkNDgxMzUxIzExIyQxIyQ3IyQxMyQyNjE4MzIjNjEjJDEjJDAjJDgz","name":"귀빈약국","category":"약국","sido":"부산","sigungu":"부산진구","address":"부산광역시 부산진구 새싹로 218, 1층 (초읍동)","phone":"051-939-8275","openDate":"2018-11-10","longitude":129.0488528,"latitude":35.175616},{"id":"JDQ4MTAxMiM1MSMkMSMkMCMkMDMkMzgxMzUxIzMxIyQxIyQzIyQ4MiQyNjEwMDIjNDEjJDEjJDQjJDgz","name":"그린약국","category":"약국","sido":"부산","sigungu":"부산연제구","address":"부산광역시 연제구 거제천로87번길 23, (거제동)","phone":"051-851-3020","openDate":"2007-04-16","longitude":129.0720175,"latitude":35.1824476},{"id":"JDQ4MTAxMiM1MSMkMSMkMCMkMDMkMzgxNzAyIzIxIyQxIyQ5IyQ4MiQ0NjE0ODEjNzEjJDEjJDgjJDgz","name":"그린약국","category":"약국","sido":"부산","sigungu":"부산사상구","address":"부산광역시 사상구 대동로 95, 기산쇼핑스포렉스 2층 (학장동)","phone":"051-323-8890","openDate":"2020-01-20","longitude":128.9779261,"latitude":35.1384964},{"id":"JDQ4MTAxMiM1MSMkMSMkMCMkMDMkMzgxMTkxIzExIyQxIyQzIyQ3MiQzNjEyMjIjNTEjJDEjJDIjJDgz","name":"그린약국","category":"약국","sido":"부산","sigungu":"부산북구","address":"부산광역시 북구 양달로 74, 화명동부종합상가 118호 (화명동)","phone":"051-362-3567","openDate":"2000-10-12","longitude":129.0211577,"latitude":35.2440037},{"id":"JDQ4MTAxMiM1MSMkMSMkMCMkMDMkMzgxOTYxIzMxIyQxIyQ3IyQwMyQ0NjE0ODEjNTEjJDEjJDYjJDgz","name":"그린약국","category":"약국","sido":"부산","sigungu":"부산동구","address":"부산광역시 동구 초량로 35, 1층 (초량동)","phone":"051-468-3843","openDate":"2016-10-17","longitude":129.0384538,"latitude":35.1202254},{"id":"JDQ4MTAxMiM1MSMkMSMkMCMkMDMkNDgxMzUxIzExIyQxIyQ3IyQ3MiQyNjEyMjIjNzEjJDEjJDgjJDgz","name":"그약국","category":"약국","sido":"부산","sigungu":"부산진구","address":"부산광역시 부산진구 거제대로36번길 27, 1층 일부호 (양정동)","phone":"051-501-0102","openDate":"2024-05-01","longitude":129.0691505,"latitude":35.1719361},{"id":"JDQ4MTAxMiM1MSMkMSMkMCMkMDMkMzgxNzAyIzIxIyQxIyQ1IyQ4MiQyNjEyMjIjNDEjJDEjJDgjJDgz","name":"금강약국","category":"약국","sido":"부산","sigungu":"부산진구","address":"부산광역시 부산진구 백양대로136번길 41, (당감동)","phone":"051-894-6007","openDate":"2009-06-23","longitude":129.0338577,"latitude":35.1618086},{"id":"JDQ4MTAxMiM1MSMkMSMkMCMkMDMkNDgxMzUxIzMxIyQxIyQzIyQ4MiQyNjE0ODEjNTEjJDEjJDYjJDgz","name":"금강약국","category":"약국","sido":"부산","sigungu":"부산사상구","address":"부산광역시 사상구 낙동대로 780, 101호 (엄궁동)","phone":"051-715-2192","openDate":"2022-09-15","longitude":128.9717304,"latitude":35.1302114},{"id":"JDQ4MTAxMiM1MSMkMSMkMCMkMDMkMzgxMzUxIzUxIyQxIyQ1IyQ3OSQyNjE0ODEjNTEjJDEjJDYjJDgz","name":"금사약국","category":"약국","sido":"부산","sigungu":"부산금정구","address":"부산광역시 금정구 금사로 57, (서동)","phone":"051-523-4619","openDate":"2001-12-17","longitude":129.1098232,"latitude":35.2183043},{"id":"JDQ4MTAxMiM1MSMkMSMkMCMkMDMkNDgxMzUxIzIxIyQxIyQxIyQwMyQzNjE0ODEjNDEjJDEjJDgjJDgz","name":"금새약국","category":"약국","sido":"부산","sigungu":"부산동래구","address":"부산광역시 동래구 사직북로 25-1, (사직동)","phone":"051-503-8988","openDate":"2018-11-12","longitude":129.0600902,"latitude":35.1981387},{"id":"JDQ4MTAxMiM1MSMkMSMkMCMkMDMkNDgxMzUxIzExIyQxIyQzIyQ2MiQ0NjEwMDIjNDEjJDEjJDgjJDgz","name":"금새약국","category":"약국","sido":"부산","sigungu":"부산진구","address":"부산광역시 부산진구 가야대로 785, (부전동, 성영빌딩)","phone":"051-805-7004","openDate":"2017-05-21","longitude":129.0574677,"latitude":35.1581247},{"id":"JDQ4MTAxMiM1MSMkMSMkMCMkMDMkNDgxMzUxIzMxIyQxIyQ3IyQ3MiQzNjE4MzIjNDEjJDEjJDQjJDgz","name":"금샘약국","category":"약국","sido":"부산","sigungu":"부산금정구","address":"부산광역시 금정구 금강로 711, 1층 (남산동)","phone":"051-583-3111","openDate":"2007-08-31","longitude":129.0888647,"latitude":35.2710535},{"id":"JDQ4MTAxMiM1MSMkMSMkMCMkMDMkMzgxMzUxIzExIyQxIyQ3IyQ5MiQ0NjEwMDIjNzEjJDEjJDgjJDgz","name":"금생약국","category":"약국","sido":"부산","sigungu":"부산중구","address":"부산광역시 중구 대청로 132, (동광동3가)","phone":"070-7783-4677","openDate":"1982-04-10","longitude":129.0342188,"latitude":35.1026512},{"id":"JDQ4MTAxMiM1MSMkMSMkMCMkMDMkMzgxMTkxIzMxIyQxIyQzIyQ5OSQyNjEwMDIjNDEjJDEjJDgjJDgz","name":"금성당약국","category":"약국","sido":"부산","sigungu":"부산기장군","address":"부산광역시 기장군 철마면 여락송정로 334, 금성당약국","phone":"051-508-3377","openDate":"2022-10-05","longitude":129.1124805,"latitude":35.3047544},{"id":"JDQ4MTAxMiM1MSMkMSMkMCMkMDMkNDgxMzUxIzExIyQyIyQ3IyQwMCQyNjE0ODEjNjEjJDEjJDgjJDgz","name":"금성당약국","category":"약국","sido":"부산","sigungu":"부산영도구","address":"부산광역시 영도구 절영로 116, 금성당약국 (영선동3가)","phone":"051-413-3411","openDate":"2018-04-02","longitude":129.0418154,"latitude":35.0854478},{"id":"JDQ4MTAxMiM1MSMkMSMkMCMkMDMkMzgxOTYxIzExIyQxIyQ3IyQ2MiQzNjEyMjIjNjEjJDEjJDgjJDgz","name":"금성당한약국","category":"약국","sido":"부산","sigungu":"부산진구","address":"부산광역시 부산진구 냉정로 217, 2층 (개금동)","phone":"051-893-4541","openDate":"1975-12-27","longitude":129.0235353,"latitude":35.1511371},{"id":"JDQ4MTAxMiM1MSMkMSMkMCMkMDMkNDgxMzUxIzIxIyQxIyQxIyQxMyQyNjEyMjIjNTEjJDEjJDIjJDgz","name":"금성약국","category":"약국","sido":"부산","sigungu":"부산금정구","address":"부산광역시 금정구 금사로 95, (금사동)","phone":"051-523-7891","openDate":"2018-02-10","longitude":129.1122375,"latitude":35.2210329},{"id":"JDQ4MTAxMiM1MSMkMSMkMCMkMDMkMzgxNzAyIzIxIyQxIyQ1IyQ4OSQyNjEyMjIjNjEjJDEjJDQjJDgz","name":"금성약국","category":"약국","sido":"부산","sigungu":"부산동구","address":"부산광역시 동구 중앙대로 459-9, (좌천동)","phone":"051-646-2133","openDate":"2008-09-01","longitude":129.0542055,"latitude":35.1350948},{"id":"JDQ4MTAxMiM1MSMkMSMkMCMkMDMkMzgxNzAyIzMxIyQxIyQ3IyQ4MiQzNjE4MzIjNDEjJDEjJDgjJDgz","name":"금은동약국","category":"약국","sido":"부산","sigungu":"부산강서구","address":"부산광역시 강서구  낙동북로 68, (강동동)","phone":"051-972-1160","openDate":"2013-01-04","longitude":128.9369459,"latitude":35.2178631},{"id":"JDQ4MTAxMiM1MSMkMSMkMCMkMDMkMzgxMTkxIzIxIyQxIyQxIyQ3OSQyNjE4MzIjNjEjJDEjJDAjJDgz","name":"금정21세기약국","category":"약국","sido":"부산","sigungu":"부산금정구","address":"부산광역시 금정구 중앙대로1841번길 24, (구서동)","phone":"051-515-7183","openDate":"2013-02-27","longitude":129.0906011,"latitude":35.2499563},{"id":"JDQ4MTAxMiM1MSMkMSMkMCMkMDMkNDgxMzUxIzQxIyQxIyQ3IyQxMyQ0NjEwMDIjNDEjJDEjJDgjJDgz","name":"금정약국","category":"약국","sido":"부산","sigungu":"부산동래구","address":"부산광역시 동래구 여고북로 167, (온천동)","phone":"051-502-1165","openDate":"1995-05-02","longitude":129.0739818,"latitude":35.2021801},{"id":"JDQ4MTAxMiM1MSMkMSMkMCMkMDMkMzgxOTYxIzExIyQyIyQ3IyQwMCQyNjE4MzIjNjEjJDEjJDAjJDgz","name":"금정온누리약국","category":"약국","sido":"부산","sigungu":"부산금정구","address":"부산광역시 금정구 서동로 75-2, 1층 (서동)","phone":"051-514-2220","openDate":"2005-07-28","longitude":129.0957335,"latitude":35.2176011},{"id":"JDQ4MTAxMiM1MSMkMSMkMCMkMDMkNDgxMzUxIzUxIyQxIyQxIyQ3OSQzNjE4MzIjNjEjJDEjJDgjJDgz","name":"금호약국","category":"약국","sido":"부산","sigungu":"부산남구","address":"부산광역시 남구 동명로 139, 1층 (용호동)","phone":"051-625-1950","openDate":"2025-04-07","longitude":129.1123151,"latitude":35.1197362},{"id":"JDQ4MTAxMiM1MSMkMSMkMCMkMDMkMzgxOTYxIzExIyQxIyQzIyQ3MiQ0NjE0ODEjNTEjJDEjJDYjJDgz","name":"금호약국","category":"약국","sido":"부산","sigungu":"부산영도구","address":"부산광역시 영도구 청학로 91, (청학동)","phone":"051-412-3482","openDate":"1983-06-15","longitude":129.0610509,"latitude":35.0963751},{"id":"JDQ4MTAxMiM1MSMkMSMkMCMkMDMkMzgxNzAyIzExIyQyIyQzIyQwMCQzNjE4MzIjNDEjJDEjJDgjJDgz","name":"금호약국","category":"약국","sido":"부산","sigungu":"부산북구","address":"부산광역시 북구 화명대로 44, 101호 (화명동, 금호타워)","phone":"051-331-8655","openDate":"2005-04-19","longitude":129.013,"latitude":35.2343739},{"id":"JDQ4MTAxMiM1MSMkMSMkMCMkMDMkMzgxOTYxIzMxIyQxIyQ3IyQ3OSQyNjE4MzIjNjEjJDEjJDAjJDgz","name":"금호약국","category":"약국","sido":"부산","sigungu":"부산진구","address":"부산광역시 부산진구 가야공원로 46, (가야동)","phone":"051-893-2379","openDate":"2005-05-12","longitude":129.029853,"latitude":35.1493275},{"id":"JDQ4MTAxMiM1MSMkMSMkMCMkMDMkMzgxMzUxIzUxIyQxIyQxIyQ3MiQyNjE0ODEjNTEjJDEjJDYjJDgz","name":"기쁨약국","category":"약국","sido":"부산","sigungu":"부산사상구","address":"부산광역시 사상구 운산로 31, (삼락동)","phone":"051-323-9500","openDate":"2014-03-03","longitude":128.9802955,"latitude":35.1688105},{"id":"JDQ4MTAxMiM1MSMkMSMkMCMkMDMkNDgxMzUxIzQxIyQxIyQ3IyQ3OSQzNjEwMDIjNTEjJDEjJDYjJDgz","name":"기쁨약국","category":"약국","sido":"부산","sigungu":"부산해운대구","address":"부산광역시 해운대구 신반송로 163, 102호 (반송동, 남흥아파트)","phone":"051-545-5454","openDate":"2024-02-19","longitude":129.162269,"latitude":35.2275082},{"id":"JDQ4MTAxMiM1MSMkMSMkMCMkMDMkMzgxNzAyIzExIyQxIyQzIyQ3OSQ0NjE0ODEjODEjJDEjJDIjJDgz","name":"기쁨약국","category":"약국","sido":"부산","sigungu":"부산진구","address":"부산광역시 부산진구 동평로 201, (부암동)","phone":"051-816-4384","openDate":"2019-04-10","longitude":129.0499158,"latitude":35.1684652},{"id":"JDQ4MTAxMiM1MSMkMSMkMCMkMDMkMzgxNzAyIzExIyQxIyQ3IyQ5OSQyNjEyMjIjNDEjJDEjJDQjJDgz","name":"기약국","category":"약국","sido":"부산","sigungu":"부산동구","address":"부산광역시 동구 중앙대로 409, 디알라이프시티 1층 101호 (좌천동)","phone":"051-714-4961","openDate":"2023-08-01","longitude":129.0509274,"latitude":35.1313915},{"id":"JDQ4MTAxMiM1MSMkMSMkMCMkMDMkNDgxMzUxIzMxIyQyIyQ3IyQwMCQyNjE0ODEjODEjJDEjJDIjJDgz","name":"기장메디칼약국","category":"약국","sido":"부산","sigungu":"부산기장군","address":"부산광역시 기장군 기장읍 읍내로 116, 1층","phone":"051-723-2080","openDate":"2018-01-02","longitude":129.2170665,"latitude":35.2449069},{"id":"JDQ4MTAxMiM1MSMkMSMkMCMkMDMkMzgxMTkxIzExIyQxIyQ3IyQ5MiQ0NjE0ODEjNDEjJDEjJDQjJDgz","name":"길약국","category":"약국","sido":"부산","sigungu":"부산기장군","address":"부산광역시 기장군 기장읍 대청로35번길 66, (기장읍)","phone":"051-722-0665","openDate":"1991-08-28","longitude":129.2143705,"latitude":35.240833},{"id":"JDQ4MTAxMiM1MSMkMSMkMCMkMDMkMzgxMzUxIzUxIyQxIyQ1IyQ4OSQyNjEwMDIjODEjJDEjJDYjJDgz","name":"김약국","category":"약국","sido":"부산","sigungu":"부산사하구","address":"부산광역시 사하구 다대로 247, (장림동)","phone":"051-263-1121","openDate":"1993-08-27","longitude":128.9775607,"latitude":35.0803053},{"id":"JDQ4MTAxMiM1MSMkMSMkMCMkMDMkMzgxMzUxIzUxIyQxIyQxIyQ5MiQyNjE4MzIjNTEjJDEjJDIjJDgz","name":"김해약국","category":"약국","sido":"부산","sigungu":"부산동래구","address":"부산광역시 동래구 사직북로19번길 6, (사직동)","phone":"051-501-8891","openDate":"2013-05-01","longitude":129.0600929,"latitude":35.1976529},{"id":"JDQ4MTAxMiM1MSMkMSMkMCMkMDMkNDgxMzUxIzIxIyQxIyQ5IyQ4MiQyNjE0ODEjNzEjJDEjJDgjJDgz","name":"나눔약국","category":"약국","sido":"부산","sigungu":"부산동래구","address":"부산광역시 동래구 온천장로 114, 허브메디컬타워 1층 102호 (온천동)","phone":"","openDate":"2021-05-03","longitude":129.0847937,"latitude":35.2205935},{"id":"JDQ4MTAxMiM1MSMkMSMkMCMkMDMkMzgxOTYxIzMxIyQxIyQ3IyQ3MiQ0NjE0ODEjNDEjJDEjJDgjJDgz","name":"나라약국","category":"약국","sido":"부산","sigungu":"부산남구","address":"부산광역시 남구 수영로 252, (대연동)","phone":"051-622-8566","openDate":"2000-08-02","longitude":129.0941229,"latitude":35.135072},{"id":"JDQ4MTAxMiM1MSMkMSMkMCMkMDMkMzgxMzUxIzMxIyQxIyQzIyQ4OSQzNjE4MzIjNTEjJDEjJDIjJDgz","name":"나라약국","category":"약국","sido":"부산","sigungu":"부산진구","address":"부산광역시 부산진구 가야대로 777, (부전동)","phone":"805-5586","openDate":"2012-11-22","longitude":129.0566467,"latitude":35.157964},{"id":"JDQ4MTAxMiM1MSMkMSMkMCMkMDMkNDgxMzUxIzQxIyQxIyQ3IyQ3OSQzNjE4MzIjNDEjJDEjJDQjJDgz","name":"나무약국","category":"약국","sido":"부산","sigungu":"부산연제구","address":"부산광역시 연제구 중앙대로 1113, 진보빌딩 1층 좌측호 (연산동)","phone":"051-936-0611","openDate":"2024-02-29","longitude":129.0810928,"latitude":35.1869791},{"id":"JDQ4MTAxMiM1MSMkMSMkMCMkMDMkNDgxMzUxIzIxIyQxIyQxIyQ5MiQyNjEyMjIjODEjJDEjJDIjJDgz","name":"나은약국","category":"약국","sido":"부산","sigungu":"부산진구","address":"부산광역시 부산진구 가야대로 414, 성문학원 2층 (개금동)","phone":"051-893-9935","openDate":"2019-10-18","longitude":129.0177482,"latitude":35.1519957},{"id":"JDQ4MTAxMiM1MSMkMSMkMCMkMDMkMzgxNzAyIzQxIyQxIyQ3IyQ3MiQyNjEyMjIjNDEjJDEjJDQjJDgz","name":"남경약국","category":"약국","sido":"부산","sigungu":"부산진구","address":"부산광역시 부산진구 범일로 156-1, 1층 (범천동)","phone":"051-635-0419","openDate":"2021-03-02","longitude":129.0595563,"latitude":35.1439617},{"id":"JDQ4MTAxMiM1MSMkMSMkMCMkMDMkMzgxMTkxIzIxIyQxIyQ5IyQ2MiQ0NjEwMDIjNjEjJDEjJDQjJDgz","name":"남산비타민약국","category":"약국","sido":"부산","sigungu":"부산금정구","address":"부산광역시 금정구 금강로 713, 1층 (남산동)","phone":"051-517-0047","openDate":"2012-01-17","longitude":129.0888375,"latitude":35.2712096},{"id":"JDQ4MTAxMiM1MSMkMSMkMCMkMDMkMzgxMzUxIzIxIyQxIyQ1IyQ5MiQzNjEwMDIjNzEjJDEjJDgjJDgz","name":"남산약국","category":"약국","sido":"부산","sigungu":"부산수영구","address":"부산광역시 수영구 수영로384번길 43, (남천동)","phone":"051-622-0811","openDate":"1989-04-07","longitude":129.1083303,"latitude":35.1393745},{"id":"JDQ4MTAxMiM1MSMkMSMkMCMkMDMkMzgxMzUxIzUxIyQxIyQ1IyQxMyQyNjE4MzIjNTEjJDEjJDYjJDgz","name":"남영사약국","category":"약국","sido":"부산","sigungu":"부산사하구","address":"부산광역시 사하구 제석로 54, (당리동)","phone":"051-293-1230","openDate":"2012-05-17","longitude":128.9747536,"latitude":35.1053561},{"id":"JDQ4MTAxMiM1MSMkMSMkMCMkMDMkNDgxMzUxIzQxIyQxIyQ3IyQ5MiQzNjE0ODEjNjEjJDEjJDgjJDgz","name":"남영약국","category":"약국","sido":"부산","sigungu":"부산동래구","address":"부산광역시 동래구 충렬대로 252-1, (수안동)","phone":"051-555-9655","openDate":"1974-12-30","longitude":129.086784,"latitude":35.2009934},{"id":"JDQ4MTAxMiM1MSMkMSMkMCMkMDMkMzgxMzUxIzMxIyQxIyQ3IyQ3MiQzNjE4MzIjODEjJDEjJDIjJDgz","name":"남은약국","category":"약국","sido":"부산","sigungu":"부산북구","address":"부산광역시 북구 덕천로 76, (덕천동)","phone":"051-337-7682","openDate":"2007-10-29","longitude":129.0131014,"latitude":35.2088084},{"id":"JDQ4MTAxMiM1MSMkMSMkMCMkMDMkNDgxMzUxIzExIyQxIyQ3IyQ3MiQyNjE4MzIjNjEjJDEjJDQjJDgz","name":"남천온누리약국","category":"약국","sido":"부산","sigungu":"부산수영구","address":"부산광역시 수영구 수영로388번길 6, 1층 (남천동)","phone":"051-621-8383","openDate":"2022-07-01","longitude":129.1072761,"latitude":35.1409925},{"id":"JDQ4MTAxMiM1MSMkMSMkMCMkMDMkNDgxMzUxIzMxIyQxIyQzIyQ5OSQ0NjE0ODEjNDEjJDEjJDQjJDgz","name":"남천제일약국","category":"약국","sido":"부산","sigungu":"부산남구","address":"부산광역시 남구 수영로 260, 1층 (대연동)","phone":"051-628-1009","openDate":"2022-06-02","longitude":129.0952329,"latitude":35.1351378},{"id":"JDQ4MTAxMiM1MSMkMSMkMCMkMDMkNDgxMzUxIzMxIyQxIyQ3IyQxMyQyNjEwMDIjNDEjJDEjJDQjJDgz","name":"남포다정약국","category":"약국","sido":"부산","sigungu":"부산중구","address":"부산광역시 중구 구덕로 72, 1층 (남포동6가)","phone":"051-242-5358","openDate":"2024-01-03","longitude":129.0279286,"latitude":35.097901},{"id":"JDQ4MTAxMiM1MSMkMSMkMCMkMDMkNDgxMzUxIzQxIyQxIyQ3IyQ3OSQyNjEyMjIjODEjJDEjJDYjJDgz","name":"남포대동약국","category":"약국","sido":"부산","sigungu":"부산중구","address":"부산광역시 중구 구덕로34번길 3, 1층 (남포동4가)","phone":"051-245-0669","openDate":"2018-09-27","longitude":129.0319677,"latitude":35.0982249},{"id":"JDQ4MTAxMiM1MSMkMSMkMCMkMDMkMzgxNzAyIzIxIyQxIyQ1IyQ5OSQzNjE0ODEjODEjJDEjJDYjJDgz","name":"남포메디칼약국","category":"약국","sido":"부산","sigungu":"부산중구","address":"부산광역시 중구 구덕로 90, (남포동6가)","phone":"051-248-0616","openDate":"2008-10-17","longitude":129.0260148,"latitude":35.0975764},{"id":"JDQ4MTAxMiM1MSMkMSMkMCMkMDMkMzgxNzAyIzQxIyQxIyQ3IyQ4OSQyNjE4MzIjODEjJDEjJDYjJDgz","name":"남포약국","category":"약국","sido":"부산","sigungu":"부산중구","address":"부산광역시 중구 구덕로 12, 도시철도 남포역 39호 (남포동1가)","phone":"","openDate":"2021-06-22","longitude":129.0342941,"latitude":35.0980074},{"id":"JDQ4MTAxMiM1MSMkMSMkMCMkMDMkNDgxMzUxIzQxIyQxIyQ3IyQ3MiQzNjE4MzIjNjEjJDEjJDgjJDgz","name":"남포온누리약국","category":"약국","sido":"부산","sigungu":"부산중구","address":"부산광역시 중구 구덕로 4-1, 101호 (광복동1가)","phone":"0507-1374-5840","openDate":"2024-10-04","longitude":129.0349784,"latitude":35.0982611},{"id":"JDQ4MTAxMiM1MSMkMSMkMCMkMDMkNDgxMzUxIzMxIyQxIyQ3IyQ2MiQzNjE0ODEjODEjJDEjJDIjJDgz","name":"내몸에좋은약국","category":"약국","sido":"부산","sigungu":"부산해운대구","address":"부산광역시 해운대구 재반로 176, 102호 (재송동)","phone":"051-784-7833","openDate":"2023-06-19","longitude":129.1297651,"latitude":35.1930393},{"id":"JDQ4MTAxMiM1MSMkMSMkMCMkMDMkMzgxNzAyIzIxIyQxIyQxIyQxMyQzNjEwMDIjNDEjJDEjJDgjJDgz","name":"네모약국","category":"약국","sido":"부산","sigungu":"부산동래구","address":"부산광역시 동래구 온천장로119번길 56, 1층 122호 (온천동, 더샵 온천헤리티지)","phone":"051-553-3393","openDate":"2023-09-13","longitude":129.0823764,"latitude":35.2221412},{"id":"JDQ4MTAxMiM1MSMkMSMkMCMkMDMkMzgxMTkxIzMxIyQxIyQzIyQ3MiQyNjE0ODEjNjEjJDEjJDQjJDgz","name":"네온우리약국","category":"약국","sido":"부산","sigungu":"부산진구","address":"부산광역시 부산진구 양정로 61, 1,2층 (양정동)","phone":"051-911-4954","openDate":"2020-08-31","longitude":129.0768104,"latitude":35.1705427},{"id":"JDQ4MTAxMiM1MSMkMSMkMCMkMDMkMzgxOTYxIzIxIyQxIyQxIyQ5OSQyNjE4MzIjNTEjJDEjJDYjJDgz","name":"노마약국","category":"약국","sido":"부산","sigungu":"부산동구","address":"부산광역시 동구 초량로 76, (초량동)","phone":"051-463-0568","openDate":"2007-01-29","longitude":129.0344975,"latitude":35.1202793},{"id":"JDQ4MTAxMiM1MSMkMSMkMCMkMDMkMzgxMzUxIzIxIyQxIyQ5IyQ5MiQzNjE0ODEjNjEjJDEjJDQjJDgz","name":"녹십자약국","category":"약국","sido":"부산","sigungu":"부산진구","address":"부산광역시 부산진구 당감서로 15, (당감동)","phone":"051-897-1014","openDate":"1994-04-22","longitude":129.0361135,"latitude":35.1622314},{"id":"JDQ4MTAxMiM1MSMkMSMkMCMkMDMkMzgxMTkxIzExIyQxIyQ3IyQ5OSQyNjEwMDIjNjEjJDEjJDgjJDgz","name":"녹십자약국","category":"약국","sido":"부산","sigungu":"부산사상구","address":"부산광역시 사상구 학감대로49번길 34, 107호 (학장동, 도개공종합상가)","phone":"051-324-5473","openDate":"2007-08-01","longitude":128.9923612,"latitude":35.1366767},{"id":"JDQ4MTAxMiM1MSMkMSMkMCMkMDMkMzgxMzUxIzMxIyQxIyQ3IyQ4MiQyNjEwMDIjNjEjJDEjJDgjJDgz","name":"누가약국","category":"약국","sido":"부산","sigungu":"부산강서구","address":"부산광역시 강서구 공항진입로 108, 국제공항청사동 (대저2동)","phone":"051-973-7022","openDate":"1987-09-11","longitude":128.9457996,"latitude":35.1728734},{"id":"JDQ4MTAxMiM1MSMkMSMkMCMkMDMkNDgxMzUxIzMxIyQxIyQzIyQ2MiQyNjEwMDIjNzEjJDEjJDgjJDgz","name":"누리약국","category":"약국","sido":"부산","sigungu":"부산기장군","address":"부산광역시 기장군 정관읍 정관로 391, 하나프라자 101호","phone":"070-7757-6577","openDate":"2019-02-28","longitude":129.1658195,"latitude":35.3344963},{"id":"JDQ4MTAxMiM1MSMkMSMkMCMkMDMkMzgxMzUxIzUxIyQyIyQ1IyQwMCQzNjEyMjIjNjEjJDEjJDAjJDgz","name":"뉴경남약국","category":"약국","sido":"부산","sigungu":"부산북구","address":"부산광역시 북구 양달로8번길 16, (화명동)","phone":"051-362-8395","openDate":"2013-01-02","longitude":129.0149179,"latitude":35.2409284},{"id":"JDQ4MTAxMiM1MSMkMSMkMCMkMDMkMzgxOTYxIzMxIyQxIyQ3IyQ4OSQzNjE4MzIjNjEjJDEjJDAjJDgz","name":"뉴삼성약국","category":"약국","sido":"부산","sigungu":"부산진구","address":"부산광역시 부산진구 가야대로 530, (가야동)","phone":"051-898-9263","openDate":"2008-10-02","longitude":129.0300181,"latitude":35.1533079},{"id":"JDQ4MTAxMiM1MSMkMSMkMCMkMDMkMzgxNzAyIzMxIyQxIyQ3IyQ4OSQyNjEwMDIjNjEjJDEjJDgjJDgz","name":"뉴송도약국","category":"약국","sido":"부산","sigungu":"부산서구","address":"부산광역시 서구 충무대로 8, (암남동,기산비치타운1층 105-1호)","phone":"051-254-1283","openDate":"2012-07-02","longitude":129.0164834,"latitude":35.0764184},{"id":"JDQ4MTAxMiM1MSMkMSMkMCMkMDMkNDgxMzUxIzIxIyQxIyQxIyQ4OSQyNjE0ODEjODEjJDEjJDIjJDgz","name":"뉴욕약국","category":"약국","sido":"부산","sigungu":"부산진구","address":"부산광역시 부산진구 복지로 81, 지하1층,지상1~2층 (개금동)","phone":"051-897-0034","openDate":"2023-01-30","longitude":129.0200402,"latitude":35.1460101},{"id":"JDQ4MTAxMiM1MSMkMSMkMCMkMDMkMzgxMTkxIzIxIyQxIyQ5IyQwMyQyNjEyMjIjNzEjJDEjJDgjJDgz","name":"뉴월드약국","category":"약국","sido":"부산","sigungu":"부산사상구","address":"부산광역시 사상구 낙동대로 733, (엄궁동)","phone":"051-311-1977","openDate":"2013-11-06","longitude":128.9683725,"latitude":35.1276629},{"id":"JDQ4MTAxMiM1MSMkMSMkMCMkMDMkNDgxMzUxIzIxIyQxIyQxIyQ5OSQzNjEwMDIjNjEjJDEjJDgjJDgz","name":"뉴이메디약국","category":"약국","sido":"부산","sigungu":"부산연제구","address":"부산광역시 연제구 중앙대로 1107, 연산동e메디칼 (연산동)","phone":"051-868-4101","openDate":"2019-02-27","longitude":129.0809947,"latitude":35.1866707},{"id":"JDQ4MTAxMiM1MSMkMSMkMCMkMDMkNDgxMzUxIzExIyQxIyQzIyQxMyQyNjE0ODEjNTEjJDEjJDYjJDgz","name":"늘봄약국","category":"약국","sido":"부산","sigungu":"부산동구","address":"부산광역시 동구 수정로 28-1, (수정동)","phone":"051-468-1138","openDate":"2023-05-31","longitude":129.0441529,"latitude":35.1286457},{"id":"JDQ4MTAxMiM1MSMkMSMkMCMkMDMkMzgxNzAyIzUxIyQxIyQ1IyQ4MiQyNjE4MzIjODEjJDEjJDIjJDgz","name":"늘봄약국","category":"약국","sido":"부산","sigungu":"부산남구","address":"부산광역시 남구 수영로 304, 8층 (대연동, 대승타워)","phone":"051-625-5565","openDate":"2016-04-15","longitude":129.0995214,"latitude":35.1367995},{"id":"JDQ4MTAxMiM1MSMkMSMkMCMkMDMkNDgxMzUxIzQxIyQxIyQ3IyQxMyQyNjE0ODEjODEjJDEjJDIjJDgz","name":"늘푸른경성약국","category":"약국","sido":"부산","sigungu":"부산연제구","address":"부산광역시 연제구 과정로 212, (연산동)","phone":"759-4476","openDate":"2015-08-11","longitude":129.1040637,"latitude":35.1879561},{"id":"JDQ4MTAxMiM1MSMkMSMkMCMkMDMkNDgxMzUxIzMxIyQxIyQzIyQ3MiQyNjEyMjIjNTEjJDEjJDIjJDgz","name":"늘푸른약국","category":"약국","sido":"부산","sigungu":"부산동래구","address":"부산광역시 동래구 충렬대로 469, (안락동)","phone":"051-742-1024","openDate":"2022-08-16","longitude":129.1094297,"latitude":35.1953042},{"id":"JDQ4MTAxMiM1MSMkMSMkMCMkMDMkMzgxMzUxIzIxIyQxIyQxIyQ4MiQzNjE4MzIjNDEjJDEjJDQjJDgz","name":"늘푸른약국","category":"약국","sido":"부산","sigungu":"부산중구","address":"부산광역시 중구 자갈치로37번길 4, 1층 (남포동5가)","phone":"051-254-3526","openDate":"2009-06-29","longitude":129.0286153,"latitude":35.0971667},{"id":"JDQ4MTAxMiM1MSMkMSMkMCMkMDMkNDgxMzUxIzExIyQxIyQzIyQxMyQzNjEwMDIjNjEjJDEjJDAjJDgz","name":"늘푸른약국","category":"약국","sido":"부산","sigungu":"부산진구","address":"부산광역시 부산진구 전포대로200번길 27, 1층 (전포동)","phone":"051-808-0641","openDate":"2017-11-27","longitude":129.0671035,"latitude":35.1546646},{"id":"JDQ4MTAxMiM1MSMkMSMkMCMkMDMkMzgxMTkxIzQxIyQxIyQ3IyQ4OSQzNjE4MzIjNjEjJDEjJDgjJDgz","name":"늘푸른약국","category":"약국","sido":"부산","sigungu":"부산수영구","address":"부산광역시 수영구 광남로 223, (민락동)","phone":"051-752-5840","openDate":"2003-05-27","longitude":129.123181,"latitude":35.1590124},{"id":"JDQ4MTAxMiM1MSMkMSMkMCMkMDMkMzgxMzUxIzIxIyQxIyQ5IyQ3MiQzNjE4MzIjNjEjJDEjJDQjJDgz","name":"늘푸른약국","category":"약국","sido":"부산","sigungu":"부산영도구","address":"부산광역시 영도구 태종로 83, (대교동2가)","phone":"051-412-8200","openDate":"2001-03-21","longitude":129.0401477,"latitude":35.0921893},{"id":"JDQ4MTAxMiM1MSMkMSMkMCMkMDMkNDgxMzUxIzIxIyQxIyQ1IyQ4MiQ0NjE0ODEjNjEjJDEjJDgjJDgz","name":"늘푸른약국","category":"약국","sido":"부산","sigungu":"부산기장군","address":"부산광역시 기장군 기장읍 차성동로 94, (기장읍)","phone":"051-722-8765","openDate":"2017-04-01","longitude":129.2170108,"latitude":35.2461629},{"id":"JDQ4MTAxMiM1MSMkMSMkMCMkMDMkMzgxNzAyIzIxIyQxIyQxIyQ2MiQzNjEwMDIjNjEjJDEjJDQjJDgz","name":"늘푸른약국","category":"약국","sido":"부산","sigungu":"부산서구","address":"부산광역시 서구 대영로 44-1, (서대신동1가)","phone":"051-245-0116","openDate":"2007-11-12","longitude":129.01642,"latitude":35.1093849},{"id":"JDQ4MTAxMiM1MSMkMSMkMCMkMDMkMzgxMTkxIzIxIyQxIyQ5IyQ5OSQyNjE4MzIjNDEjJDEjJDgjJDgz","name":"늘푸른약국","category":"약국","sido":"부산","sigungu":"부산수영구","address":"부산광역시 수영구 수영로 390-1, (남천동)","phone":"051-612-7875","openDate":"2009-05-26","longitude":129.1075375,"latitude":35.141148},{"id":"JDQ4MTAxMiM1MSMkMSMkMCMkMDMkMzgxMTkxIzIxIyQxIyQ5IyQ5OSQzNjE4MzIjNjEjJDEjJDAjJDgz","name":"늘푸른약국","category":"약국","sido":"부산","sigungu":"부산동구","address":"부산광역시 동구 중앙대로 371, (수정동)","phone":"051-466-5772","openDate":"2011-06-03","longitude":129.0484262,"latitude":35.1287466},{"id":"JDQ4MTAxMiM1MSMkMSMkMCMkMDMkMzgxMzUxIzMxIyQxIyQzIyQxMyQyNjEwMDIjNDEjJDEjJDgjJDgz","name":"늘푸른약국","category":"약국","sido":"부산","sigungu":"부산금정구","address":"부산광역시 금정구 서부로 31, 농협직판장 1층 (서동)","phone":"051-522-3426","openDate":"2021-06-30","longitude":129.1026166,"latitude":35.2165014},{"id":"JDQ4MTAxMiM1MSMkMSMkMCMkMDMkNDgxMzUxIzIxIyQyIyQxIyQwMCQzNjE4MzIjNDEjJDEjJDQjJDgz","name":"다감약국","category":"약국","sido":"부산","sigungu":"부산진구","address":"부산광역시 부산진구 동평로 106, 앨리움 메디컬센터 1층 103호 (당감동)","phone":"051-891-6008","openDate":"2020-12-08","longitude":129.0411348,"latitude":35.1655911},{"id":"JDQ4MTAxMiM1MSMkMSMkMCMkMDMkNDgxMzUxIzMxIyQxIyQ3IyQwMyQyNjE0ODEjNjEjJDEjJDAjJDgz","name":"다나약국","category":"약국","sido":"부산","sigungu":"부산진구","address":"부산광역시 부산진구 서면로 62, (부전동)","phone":"051-818-0365","openDate":"2023-06-13","longitude":129.057975,"latitude":35.1562421},{"id":"JDQ4MTAxMiM1MSMkMSMkMCMkMDMkNDgxMzUxIzExIyQxIyQzIyQ3OSQyNjE0ODEjODEjJDEjJDIjJDgz","name":"다나약국","category":"약국","sido":"부산","sigungu":"부산강서구","address":"부산광역시 강서구 명지새동네길1번길 30, 1층 (명지동)","phone":"051-271-1235","openDate":"2016-09-26","longitude":128.931632,"latitude":35.1097523},{"id":"JDQ4MTAxMiM1MSMkMSMkMCMkMDMkNDgxMzUxIzMxIyQxIyQzIyQwMyQzNjEyMjIjNzEjJDEjJDgjJDgz","name":"다나은 약국","category":"약국","sido":"부산","sigungu":"부산연제구","address":"부산광역시 연제구 거제천로 258, 월드빌스포츠센터 104호 (연산동)","phone":"051-852-0074","openDate":"2019-03-28","longitude":129.0852542,"latitude":35.1916108},{"id":"JDQ4MTAxMiM1MSMkMSMkMCMkMDMkNDgxMzUxIzIxIyQxIyQ1IyQ5OSQzNjEwMDIjNTEjJDEjJDIjJDgz","name":"다나은약국","category":"약국","sido":"부산","sigungu":"부산사상구","address":"부산광역시 사상구 주례로10번길 65, 1,2층 (주례동)","phone":"051-323-3272","openDate":"2020-05-01","longitude":129.0078245,"latitude":35.1498905},{"id":"JDQ4MTAxMiM1MSMkMSMkMCMkMDMkNDgxMzUxIzIxIyQxIyQxIyQ5MiQyNjE0ODEjNDEjJDEjJDgjJDgz","name":"다대포하나약국","category":"약국","sido":"부산","sigungu":"부산사하구","address":"부산광역시 사하구 다대로 563, 2층 (다대동)","phone":"051-266-2260","openDate":"2016-01-25","longitude":128.9707335,"latitude":35.0561822},{"id":"JDQ4MTAxMiM1MSMkMSMkMCMkMDMkMzgxOTYxIzUxIyQxIyQ1IyQwMyQyNjEyMjIjNTEjJDEjJDYjJDgz","name":"다모아약국","category":"약국","sido":"부산","sigungu":"부산동구","address":"부산광역시 동구 중앙대로 507, (범일동)","phone":"051-642-0083","openDate":"2016-12-01","longitude":129.0562059,"latitude":35.1384805},{"id":"JDQ4MTAxMiM1MSMkMSMkMCMkMDMkMzgxNzAyIzIxIyQxIyQxIyQ5OSQzNjEyMjIjODEjJDEjJDYjJDgz","name":"다사랑약국","category":"약국","sido":"부산","sigungu":"부산금정구","address":"부산광역시 금정구 벅구산로 2, 1층 101,102호 (남산동, 누리마을)","phone":"051-513-7811","openDate":"2007-09-03","longitude":129.0930561,"latitude":35.2707623},{"id":"JDQ4MTAxMiM1MSMkMSMkMCMkMDMkMzgxNzAyIzIxIyQxIyQ5IyQ4OSQyNjEyMjIjNDEjJDEjJDgjJDgz","name":"다사랑약국","category":"약국","sido":"부산","sigungu":"부산사하구","address":"부산광역시 사하구 다대로 576, (다대동)","phone":"051-262-0051","openDate":"2009-11-02","longitude":128.9702533,"latitude":35.0551323},{"id":"JDQ4MTAxMiM1MSMkMSMkMCMkMDMkMzgxNzAyIzUxIyQxIyQxIyQ3OSQyNjEwMDIjNDEjJDEjJDgjJDgz","name":"다사랑약국","category":"약국","sido":"부산","sigungu":"부산동구","address":"부산광역시 동구 중앙대로349번길 42, (수정동)","phone":"051-462-0516","openDate":"2014-11-25","longitude":129.045051,"latitude":35.1263376},{"id":"JDQ4MTAxMiM1MSMkMSMkMCMkMDMkMzgxMTkxIzQxIyQxIyQ3IyQ4OSQyNjE0ODEjODEjJDEjJDYjJDgz","name":"다사랑약국","category":"약국","sido":"부산","sigungu":"부산연제구","address":"부산광역시 연제구 월드컵대로 343, 상가동 101,102,206호 (거제동, 대우그린타워아파트)","phone":"051-507-7811","openDate":"2017-09-01","longitude":129.0611601,"latitude":35.1879894},{"id":"JDQ4MTAxMiM1MSMkMSMkMCMkMDMkMzgxMzUxIzMxIyQxIyQzIyQ5MiQyNjEwMDIjNzEjJDEjJDgjJDgz","name":"다사랑약국","category":"약국","sido":"부산","sigungu":"부산북구","address":"부산광역시 북구 효열로203번길 6, 1층 5호 (금곡동, 대성하이츠빌)","phone":"051-361-9490","openDate":"2013-01-18","longitude":129.0182068,"latitude":35.2628182},{"id":"JDQ4MTAxMiM1MSMkMSMkMCMkMDMkNDgxMzUxIzMxIyQxIyQzIyQxMyQ0NjEwMDIjODEjJDEjJDYjJDgz","name":"다사랑온누리약국","category":"약국","sido":"부산","sigungu":"부산사상구","address":"부산광역시 사상구 사상로 236, 1층 (괘법동)","phone":"051-312-7754","openDate":"2023-01-20","longitude":128.9830174,"latitude":35.1659783},{"id":"JDQ4MTAxMiM1MSMkMSMkMCMkMDMkNDgxMzUxIzIxIyQxIyQ5IyQ5OSQ0NjE0ODEjNTEjJDEjJDYjJDgz","name":"다솜약국","category":"약국","sido":"부산","sigungu":"부산해운대구","address":"부산광역시 해운대구 선수촌로 66, (반여동)","phone":"051-528-1475","openDate":"2021-05-06","longitude":129.1191803,"latitude":35.1993895},{"id":"JDQ4MTAxMiM1MSMkMSMkMCMkMDMkNDgxMzUxIzMxIyQxIyQzIyQwMyQyNjE4MzIjNTEjJDEjJDIjJDgz","name":"다솜약국","category":"약국","sido":"부산","sigungu":"부산진구","address":"부산광역시 부산진구 서전로 5, 1층 101호 (부전동)","phone":"051-710-4070","openDate":"2022-11-15","longitude":129.0603053,"latitude":35.1579903},{"id":"JDQ4MTAxMiM1MSMkMSMkMCMkMDMkNDgxMzUxIzIxIyQxIyQ1IyQ5OSQzNjE4MzIjODEjJDEjJDYjJDgz","name":"다솜약국","category":"약국","sido":"부산","sigungu":"부산금정구","address":"부산광역시 금정구 수림로20번길 36, 주2동 1층 102호 (부곡동)","phone":"051-513-3205","openDate":"2020-05-14","longitude":129.0907349,"latitude":35.2415092},{"id":"JDQ4MTAxMiM1MSMkMSMkMCMkMDMkMzgxNzAyIzUxIyQxIyQ1IyQ3OSQyNjEwMDIjODEjJDEjJDIjJDgz","name":"다솜약국","category":"약국","sido":"부산","sigungu":"부산남구","address":"부산광역시 남구 수영로 21, 1층 (문현동)","phone":"051-634-2338","openDate":"2015-12-14","longitude":129.0700536,"latitude":35.1372814},{"id":"JDQ4MTAxMiM1MSMkMSMkMCMkMDMkNDgxMzUxIzIxIyQxIyQxIyQ2MiQzNjE4MzIjNzEjJDEjJDgjJDgz","name":"다솜약국","category":"약국","sido":"부산","sigungu":"부산동래구","address":"부산광역시 동래구 동래로 159, (복천동)","phone":"051-555-4825","openDate":"2019-07-01","longitude":129.0882756,"latitude":35.2042119},{"id":"JDQ4MTAxMiM1MSMkMSMkMCMkMDMkNDgxMzUxIzExIyQxIyQ3IyQ5MiQ0NjE0ODEjNDEjJDEjJDgjJDgz","name":"다송약국","category":"약국","sido":"부산","sigungu":"부산사하구","address":"부산광역시 사하구 다대로 381, (다대동)","phone":"051-262-1151","openDate":"2018-09-01","longitude":128.978584,"latitude":35.0687275},{"id":"JDQ4MTAxMiM1MSMkMSMkMCMkMDMkMzgxMTkxIzQxIyQxIyQ3IyQ2MiQyNjEyMjIjNzEjJDEjJDgjJDgz","name":"다양약국","category":"약국","sido":"부산","sigungu":"부산진구","address":"부산광역시 부산진구 성지로 77-1, (초읍동)","phone":"051-805-6120","openDate":"2003-04-09","longitude":129.0537507,"latitude":35.1774861},{"id":"JDQ4MTAxMiM1MSMkMSMkMCMkMDMkNDgxMzUxIzUxIyQxIyQxIyQ3OSQyNjEyMjIjNjEjJDEjJDQjJDgz","name":"다온약국","category":"약국","sido":"부산","sigungu":"부산중구","address":"부산광역시 중구 중앙대로 85, 1층 (중앙동4가)","phone":"051-464-7575","openDate":"2025-03-25","longitude":129.0359265,"latitude":35.1052911},{"id":"JDQ4MTAxMiM1MSMkMSMkMCMkMDMkNDgxMzUxIzIxIyQyIyQ5IyQwMCQ0NjEwMDIjODEjJDEjJDYjJDgz","name":"다온약국","category":"약국","sido":"부산","sigungu":"부산금정구","address":"부산광역시 금정구 금강로 441, 태영빌딩 (구서동)","phone":"051-515-7468","openDate":"2021-06-10","longitude":129.0887076,"latitude":35.2469781},{"id":"JDQ4MTAxMiM1MSMkMSMkMCMkMDMkMzgxMTkxIzQxIyQyIyQ3IyQwMCQyNjE4MzIjODEjJDEjJDIjJDgz","name":"다온약국","category":"약국","sido":"부산","sigungu":"부산연제구","address":"부산광역시 연제구 연수로 216, 101호 (연산동)","phone":"051-633-1201","openDate":"2015-09-08","longitude":129.0942257,"latitude":35.1734751},{"id":"JDQ4MTAxMiM1MSMkMSMkMCMkMDMkNDgxMzUxIzIxIyQyIyQxIyQwMCQzNjEyMjIjNDEjJDEjJDgjJDgz","name":"다온약국","category":"약국","sido":"부산","sigungu":"부산진구","address":"부산광역시 부산진구 새싹로 196, 1층 (초읍동)","phone":"051-803-3124","openDate":"2022-10-20","longitude":129.0493896,"latitude":35.1736693},{"id":"JDQ4MTAxMiM1MSMkMSMkMCMkMDMkMzgxNzAyIzQxIyQxIyQ3IyQxMyQyNjE0ODEjNTEjJDEjJDIjJDgz","name":"다온약국","category":"약국","sido":"부산","sigungu":"부산남구","address":"부산광역시 남구 수영로 182-1, (대연동)","phone":"051-632-7500","openDate":"2019-12-31","longitude":129.0865615,"latitude":35.1345804},{"id":"JDQ4MTAxMiM1MSMkMSMkMCMkMDMkMzgxOTYxIzIxIyQxIyQ5IyQwMyQzNjE4MzIjNTEjJDEjJDIjJDgz","name":"다온온누리약국","category":"약국","sido":"부산","sigungu":"부산북구","address":"부산광역시 북구 만덕대로27번길 3, 1층 (덕천동)","phone":"051-338-1288","openDate":"2019-07-01","longitude":129.0079373,"latitude":35.2110281},{"id":"JDQ4MTAxMiM1MSMkMSMkMCMkMDMkNDgxMzUxIzExIyQxIyQzIyQ3MiQyNjE4MzIjODEjJDEjJDYjJDgz","name":"다올약국","category":"약국","sido":"부산","sigungu":"부산수영구","address":"부산광역시 수영구 수영로 577, 1층 (광안동)","phone":"051-758-7585","openDate":"2017-01-11","longitude":129.1127221,"latitude":35.157337},{"id":"JDQ4MTAxMiM1MSMkMSMkMCMkMDMkNDgxMzUxIzExIyQxIyQ3IyQxMyQyNjEyMjIjNjEjJDEjJDgjJDgz","name":"다올약국","category":"약국","sido":"부산","sigungu":"부산남구","address":"부산광역시 남구 수영로 216, 미즈빌딩 1층 (대연동)","phone":"051-918-2237","openDate":"2022-10-05","longitude":129.0901151,"latitude":35.1347824},{"id":"JDQ4MTAxMiM1MSMkMSMkMCMkMDMkNDgxMzUxIzMxIyQxIyQzIyQ3OSQzNjEwMDIjNDEjJDEjJDgjJDgz","name":"다우약국","category":"약국","sido":"부산","sigungu":"부산영도구","address":"부산광역시 영도구 절영로 30, 삼세메디컬센터 1층 101호 (대교동1가)","phone":"051-412-9629","openDate":"2022-03-07","longitude":129.0392387,"latitude":35.0919114},{"id":"JDQ4MTAxMiM1MSMkMSMkMCMkMDMkMzgxNzAyIzMxIyQxIyQ3IyQ4MiQ0NjE0ODEjNDEjJDEjJDQjJDgz","name":"다원약국","category":"약국","sido":"부산","sigungu":"부산기장군","address":"부산광역시 기장군 기장읍 읍내로 101, (기장읍)","phone":"051-721-2338","openDate":"2013-02-22","longitude":129.2153506,"latitude":35.24529},{"id":"JDQ4MTAxMiM1MSMkMSMkMCMkMDMkNDgxMzUxIzQxIyQyIyQ3IyQwMCQ0NjE0ODEjNDEjJDEjJDQjJDgz","name":"다정약국","category":"약국","sido":"부산","sigungu":"부산연제구","address":"부산광역시 연제구 월드컵대로 124, B102호 (연산동)","phone":"051-865-9710","openDate":"2023-08-02","longitude":129.082406,"latitude":35.1853546},{"id":"JDQ4MTAxMiM1MSMkMSMkMCMkMDMkMzgxNzAyIzMxIyQxIyQ3IyQ3OSQyNjE4MzIjNjEjJDEjJDQjJDgz","name":"다정약국","category":"약국","sido":"부산","sigungu":"부산수영구","address":"부산광역시 수영구 수영로611번길 15, 1층 (광안동)","phone":"051-817-6949","openDate":"2016-06-01","longitude":129.1127598,"latitude":35.1605326},{"id":"JDQ4MTAxMiM1MSMkMSMkMCMkMDMkNDgxMzUxIzMxIyQxIyQzIyQ4OSQzNjE4MzIjNjEjJDEjJDAjJDgz","name":"다정약국","category":"약국","sido":"부산","sigungu":"부산북구","address":"부산광역시 북구 약초골목길 27, (구포동)","phone":"051-341-2328","openDate":"2007-03-30","longitude":129.0029701,"latitude":35.2081862},{"id":"JDQ4MTAxMiM1MSMkMSMkMCMkMDMkMzgxNzAyIzUxIyQxIyQxIyQ2MiQzNjE0ODEjNjEjJDEjJDQjJDgz","name":"다정약국","category":"약국","sido":"부산","sigungu":"부산진구","address":"부산광역시 부산진구 가야대로 470, (개금동)","phone":"051-893-1910","openDate":"2015-05-22","longitude":129.0234245,"latitude":35.1528934},{"id":"JDQ4MTAxMiM1MSMkMSMkMCMkMDMkMzgxMTkxIzQxIyQxIyQ3IyQwMyQzNjEyMjIjODEjJDEjJDYjJDgz","name":"다정온누리약국","category":"약국","sido":"부산","sigungu":"부산동구","address":"부산광역시 동구 범일로 104, (범일동)","phone":"051-634-7323","openDate":"2002-05-18","longitude":129.0596402,"latitude":35.1393433},{"id":"JDQ4MTAxMiM1MSMkMSMkMCMkMDMkNDgxMzUxIzMxIyQxIyQzIyQ3OSQzNjE0ODEjNTEjJDEjJDIjJDgz","name":"다정온누리약국","category":"약국","sido":"부산","sigungu":"부산서구","address":"부산광역시 서구 까치고개로 195, 1층 (아미동2가)","phone":"051-711-2203","openDate":"2022-03-03","longitude":129.0173091,"latitude":35.1000529},{"id":"JDQ4MTAxMiM1MSMkMSMkMCMkMDMkMzgxNzAyIzIxIyQxIyQ5IyQ3MiQyNjEwMDIjNTEjJDEjJDIjJDgz","name":"다정온누리약국","category":"약국","sido":"부산","sigungu":"부산진구","address":"부산광역시 부산진구 가야대로 715, 1층 (당감동)","phone":"051-804-1196","openDate":"2014-08-28","longitude":129.0497862,"latitude":35.1575893},{"id":"JDQ4MTAxMiM1MSMkMSMkMCMkMDMkNDgxMzUxIzIxIyQyIyQ5IyQwMCQzNjE0ODEjODEjJDEjJDIjJDgz","name":"다정한약국","category":"약국","sido":"부산","sigungu":"부산수영구","address":"부산광역시 수영구 황령대로489번길 24, 1층 (남천동)","phone":"051-624-3120","openDate":"2021-06-03","longitude":129.1086027,"latitude":35.1390857},{"id":"JDQ4MTAxMiM1MSMkMSMkMCMkMDMkNDgxMzUxIzIxIyQxIyQ5IyQ2MiQyNjE0ODEjNTEjJDEjJDIjJDgz","name":"다정한약국","category":"약국","sido":"부산","sigungu":"부산중구","address":"부산광역시 중구 대청로53번길 7, 1층 (보수동1가)","phone":"051-242-2257","openDate":"2020-10-16","longitude":129.0257113,"latitude":35.1033692},{"id":"JDQ4MTAxMiM1MSMkMSMkMCMkMDMkMzgxMzUxIzQxIyQyIyQ3IyQwMCQyNjEyMjIjODEjJDEjJDYjJDgz","name":"단성약국","category":"약국","sido":"부산","sigungu":"부산서구","address":"부산광역시 서구 해돋이로 268, (아미동2가)","phone":"051-256-5114","openDate":"1974-04-12","longitude":129.0165252,"latitude":35.1004199},{"id":"JDQ4MTAxMiM1MSMkMSMkMCMkMDMkMzgxOTYxIzIxIyQyIyQ5IyQwMCQ0NjEwMDIjNTEjJDEjJDIjJDgz","name":"당감당약국","category":"약국","sido":"부산","sigungu":"부산진구","address":"부산광역시 부산진구 동평로 94, (당감동)","phone":"051-897-4001","openDate":"2003-10-02","longitude":129.039779,"latitude":35.165341},{"id":"JDQ4MTAxMiM1MSMkMSMkMCMkMDMkMzgxNzAyIzMxIyQyIyQzIyQwMCQyNjEyMjIjNTEjJDEjJDIjJDgz","name":"당리1번약국","category":"약국","sido":"부산","sigungu":"부산사하구","address":"부산광역시 사하구 낙동대로 416, 1층 (당리동)","phone":"051-625-6461","openDate":"2017-01-04","longitude":128.9729767,"latitude":35.1041396},{"id":"JDQ4MTAxMiM1MSMkMSMkMCMkMDMkMzgxOTYxIzUxIyQyIyQxIyQwMCQyNjE4MzIjODEjJDEjJDYjJDgz","name":"당리수정약국","category":"약국","sido":"부산","sigungu":"부산사하구","address":"부산광역시 사하구 다대로 3, (당리동)","phone":"051-203-6636","openDate":"1996-07-27","longitude":128.9770106,"latitude":35.1017714},{"id":"JDQ4MTAxMiM1MSMkMSMkMCMkMDMkMzgxMTkxIzIxIyQxIyQ1IyQ2MiQzNjE4MzIjNTEjJDEjJDIjJDgz","name":"대경약국","category":"약국","sido":"부산","sigungu":"부산서구","address":"부산광역시 서구 자갈치로 10, (충무동1가)","phone":"051-242-2962","openDate":"2012-07-19","longitude":129.0254267,"latitude":35.0961247},{"id":"JDQ4MTAxMiM1MSMkMSMkMCMkMDMkMzgxOTYxIzIxIyQyIyQxIyQwMCQzNjEyMjIjNjEjJDEjJDQjJDgz","name":"대경약국","category":"약국","sido":"부산","sigungu":"부산동구","address":"부산광역시 동구 중앙대로371번길 35, (수정동)","phone":"051-464-2141","openDate":"2002-08-26","longitude":129.0468476,"latitude":35.1295617},{"id":"JDQ4MTAxMiM1MSMkMSMkMCMkMDMkMzgxMzUxIzUxIyQyIyQ1IyQwMCQyNjE4MzIjNDEjJDEjJDQjJDgz","name":"대경약국","category":"약국","sido":"부산","sigungu":"부산사상구","address":"부산광역시 사상구 모라로192번길 24, 모라3단지 가동 종합상가 (모라동)","phone":"051-304-3380","openDate":"1993-08-04","longitude":129.0010288,"latitude":35.1844353},{"id":"JDQ4MTAxMiM1MSMkMSMkMCMkMDMkNDgxMzUxIzIxIyQxIyQ1IyQ2MiQzNjEyMjIjNjEjJDEjJDQjJDgz","name":"대남약국","category":"약국","sido":"부산","sigungu":"부산수영구","address":"부산광역시 수영구 수영로 394, 1층 (남천동, 남천동 메디칼센타)","phone":"051-900-9611","openDate":"2017-10-19","longitude":129.1075702,"latitude":35.1414169},{"id":"JDQ4MTAxMiM1MSMkMSMkMCMkMDMkMzgxOTYxIzQxIyQxIyQ3IyQ4OSQyNjE0ODEjNTEjJDEjJDYjJDgz","name":"대도약국","category":"약국","sido":"부산","sigungu":"부산동래구","address":"부산광역시 동래구 금강공원로 28, (온천동)","phone":"051-556-7890","openDate":"2008-03-03","longitude":129.0814636,"latitude":35.2191951},{"id":"JDQ4MTAxMiM1MSMkMSMkMCMkMDMkMzgxMTkxIzUxIyQxIyQxIyQ5MiQyNjE4MzIjNTEjJDEjJDYjJDgz","name":"대동약국","category":"약국","sido":"부산","sigungu":"부산동래구","address":"부산광역시 동래구 충렬대로348번길 8, (안락동)","phone":"051-528-5500","openDate":"2007-05-30","longitude":129.0958869,"latitude":35.1974457},{"id":"JDQ4MTAxMiM1MSMkMSMkMCMkMDMkMzgxMzUxIzExIyQxIyQzIyQ4OSQzNjE4MzIjNDEjJDEjJDgjJDgz","name":"대림약국","category":"약국","sido":"부산","sigungu":"부산동구","address":"부산광역시 동구 초량로 43-1, (초량동)","phone":"051-468-1528","openDate":"1981-04-18","longitude":129.0376973,"latitude":35.1201323},{"id":"JDQ4MTAxMiM1MSMkMSMkMCMkMDMkMzgxNzAyIzMxIyQxIyQ3IyQ4MiQyNjE0ODEjNjEjJDEjJDAjJDgz","name":"대림약국","category":"약국","sido":"부산","sigungu":"부산북구","address":"부산광역시 북구 금곡대로 268, 101호 (화명동, 대림타운상가)","phone":"051-363-3413","openDate":"2015-12-31","longitude":129.0154964,"latitude":35.2308715},{"id":"JDQ4MTAxMiM1MSMkMSMkMCMkMDMkNDgxMzUxIzExIyQxIyQ3IyQ5MiQyNjE4MzIjNDEjJDEjJDQjJDgz","name":"대림팜약국","category":"약국","sido":"부산","sigungu":"부산해운대구","address":"부산광역시 해운대구 재반로 72, 1층 일부호 (재송동)","phone":"051-784-0181","openDate":"2018-08-13","longitude":129.1261903,"latitude":35.1852021},{"id":"JDQ4MTAxMiM1MSMkMSMkMCMkMDMkMzgxMTkxIzIxIyQxIyQ5IyQxMyQyNjEyMjIjNjEjJDEjJDAjJDgz","name":"대명문약국","category":"약국","sido":"부산","sigungu":"부산사상구","address":"부산광역시 사상구 학감대로 238-36, (감전동)","phone":"051-316-5570","openDate":"2010-04-30","longitude":128.9921037,"latitude":35.1516473},{"id":"JDQ4MTAxMiM1MSMkMSMkMCMkMDMkMzgxMTkxIzUxIyQxIyQxIyQ5OSQzNjEwMDIjNTEjJDEjJDYjJDgz","name":"대명약국","category":"약국","sido":"부산","sigungu":"부산동래구","address":"부산광역시 동래구 명장로 142, (안락동)","phone":"051-528-8181","openDate":"2002-10-11","longitude":129.1122938,"latitude":35.1991938},{"id":"JDQ4MTAxMiM1MSMkMSMkMCMkMDMkMzgxMTkxIzIxIyQxIyQxIyQ4MiQzNjEyMjIjNTEjJDEjJDIjJDgz","name":"대명약국","category":"약국","sido":"부산","sigungu":"부산진구","address":"부산광역시 부산진구 동평로 102, (당감동)","phone":"051-896-0272","openDate":"1999-07-27","longitude":129.0406319,"latitude":35.1655656},{"id":"JDQ4MTAxMiM1MSMkMSMkMCMkMDMkMzgxMTkxIzIxIyQxIyQ5IyQ4MiQzNjE4MzIjNTEjJDEjJDYjJDgz","name":"대문약국","category":"약국","sido":"부산","sigungu":"부산남구","address":"부산광역시 남구 못골로 71, (대연동)","phone":"051-627-5677","openDate":"2011-10-04","longitude":129.0901594,"latitude":35.1361083},{"id":"JDQ4MTAxMiM1MSMkMSMkMCMkMDMkMzgxMzUxIzIxIyQxIyQxIyQ3MiQyNjEwMDIjNTEjJDEjJDYjJDgz","name":"대변약국","category":"약국","sido":"부산","sigungu":"부산기장군","address":"부산광역시 기장군 기장읍 기장해안로 581-1, 대변약국","phone":"051-721-6008","openDate":"2010-02-01","longitude":129.2279446,"latitude":35.2248774},{"id":"JDQ4MTAxMiM1MSMkMSMkMCMkMDMkMzgxMzUxIzMxIyQxIyQzIyQ5OSQyNjEyMjIjODEjJDEjJDYjJDgz","name":"대생약국","category":"약국","sido":"부산","sigungu":"부산진구","address":"부산광역시 부산진구 당감로16번길 3, (당감동)","phone":"051-894-8383","openDate":"1999-09-16","longitude":129.0398479,"latitude":35.1632403},{"id":"JDQ4MTAxMiM1MSMkMSMkMCMkMDMkMzgxMTkxIzMxIyQxIyQ3IyQ5OSQyNjEyMjIjNjEjJDEjJDgjJDgz","name":"대선약국","category":"약국","sido":"부산","sigungu":"부산사하구","address":"부산광역시 사하구 낙동대로 213, (괴정동)","phone":"051-206-2205","openDate":"2000-12-01","longitude":128.993539,"latitude":35.0999895},{"id":"JDQ4MTAxMiM1MSMkMSMkMCMkMDMkMzgxMzUxIzExIyQxIyQ3IyQ3MiQ0NjEwMDIjNTEjJDEjJDIjJDgz","name":"대성약국","category":"약국","sido":"부산","sigungu":"부산사하구","address":"부산광역시 사하구 장평로 298, (신평동)","phone":"051-291-1324","openDate":"1994-02-03","longitude":128.9734434,"latitude":35.0927409},{"id":"JDQ4MTAxMiM1MSMkMSMkMCMkMDMkMzgxMzUxIzMxIyQxIyQ3IyQ3OSQ0NjE0ODEjNDEjJDEjJDQjJDgz","name":"대성약국","category":"약국","sido":"부산","sigungu":"부산영도구","address":"부산광역시 영도구 태종로 382, 102호 (청학동, 동구빌딩)","phone":"051-415-3100","openDate":"2009-03-10","longitude":129.0652731,"latitude":35.0928808},{"id":"JDQ4MTAxMiM1MSMkMSMkMCMkMDMkMzgxMTkxIzUxIyQxIyQxIyQ3OSQzNjEwMDIjODEjJDEjJDYjJDgz","name":"대성약국","category":"약국","sido":"부산","sigungu":"부산동래구","address":"부산광역시 동래구 충렬대로181번길 25, (명륜동)","phone":"051-557-6275","openDate":"2002-07-31","longitude":129.0798543,"latitude":35.2049417},{"id":"JDQ4MTAxMiM1MSMkMSMkMCMkMDMkNDgxMzUxIzIxIyQxIyQxIyQ3OSQyNjEyMjIjNzEjJDEjJDgjJDgz","name":"대연시장약국","category":"약국","sido":"부산","sigungu":"부산남구","address":"부산광역시 남구 수영로266번길 36, 1층 (대연동)","phone":"051-626-2356","openDate":"2021-03-30","longitude":129.0971531,"latitude":35.13471},{"id":"JDQ4MTAxMiM1MSMkMSMkMCMkMDMkMzgxNzAyIzMxIyQxIyQ3IyQxMyQzNjE0ODEjODEjJDEjJDYjJDgz","name":"대연약국","category":"약국","sido":"부산","sigungu":"부산남구","address":"부산광역시 남구 수영로 239, (대연동)","phone":"051-624-7484","openDate":"2013-07-12","longitude":129.0927843,"latitude":35.1353715},{"id":"JDQ4MTAxMiM1MSMkMSMkMCMkMDMkMzgxMTkxIzIxIyQxIyQxIyQ3MiQzNjE4MzIjNTEjJDEjJDYjJDgz","name":"대영남약국","category":"약국","sido":"부산","sigungu":"부산진구","address":"부산광역시 부산진구 중앙대로 769, 1층 (부전동)","phone":"051-807-4464","openDate":"2021-07-14","longitude":129.0614219,"latitude":35.1610796},{"id":"JDQ4MTAxMiM1MSMkMSMkMCMkMDMkMzgxMTkxIzIxIyQxIyQ1IyQ3MiQzNjE0ODEjNjEjJDEjJDQjJDgz","name":"대영당약국","category":"약국","sido":"부산","sigungu":"부산영도구","address":"부산광역시 영도구 남항로 48-1, (영선동2가)","phone":"051-415-6382","openDate":"1998-12-08","longitude":129.0415221,"latitude":35.0882681},{"id":"JDQ4MTAxMiM1MSMkMSMkMCMkMDMkNDgxMzUxIzIxIyQxIyQxIyQwMyQ0NjEwMDIjNTEjJDEjJDIjJDgz","name":"대영약국","category":"약국","sido":"부산","sigungu":"부산남구","address":"부산광역시 남구 황령대로492번길 8, 영보빌딩 103호 (대연동)","phone":"051-622-5777","openDate":"2024-01-12","longitude":129.1071265,"latitude":35.1380366},{"id":"JDQ4MTAxMiM1MSMkMSMkMCMkMDMkMzgxNzAyIzMxIyQxIyQ3IyQ5OSQzNjEwMDIjNjEjJDEjJDgjJDgz","name":"대영약국","category":"약국","sido":"부산","sigungu":"부산기장군","address":"부산광역시 기장군 기장읍 차성동로 63, (기장읍)","phone":"051-723-1235","openDate":"2017-10-20","longitude":129.2162786,"latitude":35.2434227},{"id":"JDQ4MTAxMiM1MSMkMSMkMCMkMDMkNDgxMzUxIzMxIyQxIyQ3IyQxMyQzNjEwMDIjNTEjJDEjJDIjJDgz","name":"대영약국","category":"약국","sido":"부산","sigungu":"부산영도구","address":"부산광역시 영도구 태종로 368, (청학동)","phone":"051-416-4744","openDate":"2024-01-15","longitude":129.0645142,"latitude":35.0940759},{"id":"JDQ4MTAxMiM1MSMkMSMkMCMkMDMkMzgxNzAyIzExIyQyIyQ3IyQwMCQyNjE0ODEjNDEjJDEjJDgjJDgz","name":"대영약국","category":"약국","sido":"부산","sigungu":"부산수영구","address":"부산광역시 수영구 연수로 423, (수영동)","phone":"051-756-5040","openDate":"2009-02-24","longitude":129.1151217,"latitude":35.1678505},{"id":"JDQ4MTAxMiM1MSMkMSMkMCMkMDMkMzgxMTkxIzQxIyQyIyQ3IyQwMCQzNjEwMDIjNjEjJDEjJDAjJDgz","name":"대우약국","category":"약국","sido":"부산","sigungu":"부산사하구","address":"부산광역시 사하구 낙동대로 279, (괴정동)","phone":"051-317-1479","openDate":"2010-03-26","longitude":128.9863148,"latitude":35.0989805},{"id":"JDQ4MTAxMiM1MSMkMSMkMCMkMDMkMzgxMzUxIzUxIyQxIyQxIyQwMyQzNjE0ODEjODEjJDEjJDIjJDgz","name":"대우약국","category":"약국","sido":"부산","sigungu":"부산금정구","address":"부산광역시 금정구 금강로 338-1, (장전동)","phone":"051-514-1460","openDate":"2016-02-15","longitude":129.0866087,"latitude":35.2382234},{"id":"JDQ4MTAxMiM1MSMkMSMkMCMkMDMkNDgxMzUxIzQxIyQxIyQ3IyQ3MiQyNjEyMjIjNjEjJDEjJDQjJDgz","name":"대우약국","category":"약국","sido":"부산","sigungu":"부산해운대구","address":"부산광역시 해운대구 선수촌로165번길 3, 대우약국 1층 (반여동)","phone":"051-523-0634","openDate":"1978-04-11","longitude":129.1227537,"latitude":35.2077807},{"id":"JDQ4MTAxMiM1MSMkMSMkMCMkMDMkMzgxMzUxIzUxIyQxIyQxIyQ5MiQzNjEwMDIjODEjJDEjJDYjJDgz","name":"대웅사약국","category":"약국","sido":"부산","sigungu":"부산진구","address":"부산광역시 부산진구 동평로 90, 1층 (당감동)","phone":"051-898-9477","openDate":"2019-02-27","longitude":129.0394146,"latitude":35.1653088},{"id":"JDQ4MTAxMiM1MSMkMSMkMCMkMDMkMzgxNzAyIzIxIyQxIyQxIyQ2MiQzNjE0ODEjNzEjJDEjJDgjJDgz","name":"대원약국","category":"약국","sido":"부산","sigungu":"부산금정구","address":"부산광역시 금정구 중앙대로 2029, 1층 (남산동, 세중한의원)","phone":"051-516-3030","openDate":"2016-01-26","longitude":129.0921721,"latitude":35.2655728},{"id":"JDQ4MTAxMiM1MSMkMSMkMCMkMDMkMzgxMzUxIzIxIyQxIyQxIyQ4OSQyNjE4MzIjNDEjJDEjJDgjJDgz","name":"대지약국","category":"약국","sido":"부산","sigungu":"부산남구","address":"부산광역시 남구 용호로 189-2, (용호동)","phone":"622-8700","openDate":"2004-06-14","longitude":129.1112128,"latitude":35.1153152},{"id":"JDQ4MTAxMiM1MSMkMSMkMCMkMDMkMzgxMzUxIzUxIyQxIyQ1IyQ2MiQzNjE0ODEjNjEjJDEjJDQjJDgz","name":"대지약국","category":"약국","sido":"부산","sigungu":"부산사하구","address":"부산광역시 사하구 옥천로 37, (감천동)","phone":"051-203-9764","openDate":"1984-01-30","longitude":129.0065099,"latitude":35.0908178},{"id":"JDQ4MTAxMiM1MSMkMSMkMCMkMDMkMzgxOTYxIzIxIyQxIyQxIyQ5OSQ0NjEwMDIjNTEjJDEjJDIjJDgz","name":"대지온누리약국","category":"약국","sido":"부산","sigungu":"부산동래구","address":"부산광역시 동래구 명서로 154, (명장동)","phone":"051-528-6271","openDate":"1991-05-17","longitude":129.1024538,"latitude":35.2092621},{"id":"JDQ4MTAxMiM1MSMkMSMkMCMkMDMkMzgxNzAyIzMxIyQxIyQzIyQ5OSQ0NjEwMDIjNTEjJDEjJDIjJDgz","name":"대청약국","category":"약국","sido":"부산","sigungu":"부산중구","address":"부산광역시 중구 영주로 12, (영주동)","phone":"051-462-6353","openDate":"2015-07-31","longitude":129.0323162,"latitude":35.1100358},{"id":"JDQ4MTAxMiM1MSMkMSMkMCMkMDMkMzgxNzAyIzUxIyQxIyQ1IyQ5OSQyNjE0ODEjNjEjJDEjJDAjJDgz","name":"대추당한약국","category":"약국","sido":"부산","sigungu":"부산영도구","address":"부산광역시 영도구 절영로 49, (남항동1가)","phone":"414-9091","openDate":"2010-04-13","longitude":129.0387703,"latitude":35.0901213},{"id":"JDQ4MTAxMiM1MSMkMSMkMCMkMDMkMzgxNzAyIzUxIyQxIyQxIyQ3MiQzNjE4MzIjNzEjJDEjJDgjJDgz","name":"대티약국","category":"약국","sido":"부산","sigungu":"부산서구","address":"부산광역시 서구 대티로 173, (서대신동3가)","phone":"051-256-2718","openDate":"2023-08-28","longitude":129.0118854,"latitude":35.1121306},{"id":"JDQ4MTAxMiM1MSMkMSMkMCMkMDMkMzgxNzAyIzMxIyQxIyQzIyQxMyQ0NjEwMDIjNTEjJDEjJDYjJDgz","name":"대하약국","category":"약국","sido":"부산","sigungu":"부산연제구","address":"부산광역시 연제구 반송로 50-6, (연산동)","phone":"051-853-5400","openDate":"2017-03-13","longitude":129.0857577,"latitude":35.1888102},{"id":"JDQ4MTAxMiM1MSMkMSMkMCMkMDMkMzgxNzAyIzMxIyQxIyQ3IyQ2MiQyNjE0ODEjNDEjJDEjJDQjJDgz","name":"대학로약국","category":"약국","sido":"부산","sigungu":"부산금정구","address":"부산광역시 금정구 부산대학로 47, 1층 (장전동)","phone":"513-2558","openDate":"2012-11-01","longitude":129.0860497,"latitude":35.2311702},{"id":"JDQ4MTAxMiM1MSMkMSMkMCMkMDMkMzgxMzUxIzMxIyQxIyQ3IyQ2MiQzNjE0ODEjNjEjJDEjJDgjJDgz","name":"대학약국","category":"약국","sido":"부산","sigungu":"부산서구","address":"부산광역시 서구 감천로 261, (암남동)","phone":"051-243-8492","openDate":"1993-05-03","longitude":129.016434,"latitude":35.0814442},{"id":"JDQ4MTAxMiM1MSMkMSMkMCMkMDMkMzgxOTYxIzIxIyQxIyQ5IyQxMyQyNjEwMDIjNDEjJDEjJDgjJDgz","name":"대학약국","category":"약국","sido":"부산","sigungu":"부산금정구","address":"부산광역시 금정구 부산대학로49번길 17, 1층 (장전동)","phone":"051-514-3937","openDate":"1992-01-22","longitude":129.0858523,"latitude":35.2304858},{"id":"JDQ4MTAxMiM1MSMkMSMkMCMkMDMkMzgxNzAyIzUxIyQxIyQxIyQ5MiQzNjE4MzIjNDEjJDEjJDgjJDgz","name":"대학약국","category":"약국","sido":"부산","sigungu":"부산해운대구","address":"부산광역시 해운대구 좌동순환로 252, 상가동 105호 (좌동, 대원아파트)","phone":"051-703-2902","openDate":"2017-12-01","longitude":129.180702,"latitude":35.1727462},{"id":"JDQ4MTAxMiM1MSMkMSMkMCMkMDMkNDgxMzUxIzExIyQyIyQ3IyQwMCQzNjE4MzIjNTEjJDEjJDYjJDgz","name":"대학약국","category":"약국","sido":"부산","sigungu":"부산진구","address":"부산광역시 부산진구 복지로 61, 승현빌딩 2층 (개금동)","phone":"051-894-2800","openDate":"2018-11-26","longitude":129.0207464,"latitude":35.1474388},{"id":"JDQ4MTAxMiM1MSMkMSMkMCMkMDMkMzgxMzUxIzQxIyQxIyQ3IyQ5OSQyNjE0ODEjNjEjJDEjJDQjJDgz","name":"대학약국","category":"약국","sido":"부산","sigungu":"부산서구","address":"부산광역시 서구 구덕로 188, (토성동3가)","phone":"051-244-8989","openDate":"1981-07-25","longitude":129.0200331,"latitude":35.1013257},{"id":"JDQ4MTAxMiM1MSMkMSMkMCMkMDMkMzgxNzAyIzQxIyQxIyQ3IyQ4MiQyNjEwMDIjODEjJDEjJDYjJDgz","name":"대학약국","category":"약국","sido":"부산","sigungu":"부산동래구","address":"부산광역시 동래구 충렬대로181번길 21, (명륜동, 명륜빌딩)","phone":"051-555-3628","openDate":"2017-04-03","longitude":129.0797423,"latitude":35.2046658},{"id":"JDQ4MTAxMiM1MSMkMSMkMCMkMDMkMzgxOTYxIzQxIyQyIyQ3IyQwMCQ0NjE0ODEjNTEjJDEjJDYjJDgz","name":"대학온누리약국","category":"약국","sido":"부산","sigungu":"부산남구","address":"부산광역시 남구 수영로 299, (대연동)","phone":"051-622-6421","openDate":"2014-10-01","longitude":129.0988754,"latitude":35.1371668},{"id":"JDQ4MTAxMiM1MSMkMSMkMCMkMDMkMzgxMzUxIzIxIyQxIyQxIyQ5OSQ0NjE0ODEjODEjJDEjJDYjJDgz","name":"대한약국","category":"약국","sido":"부산","sigungu":"부산수영구","address":"부산광역시 수영구 수영로 607-1, (광안동)","phone":"051-752-4092","openDate":"1981-04-04","longitude":129.1133813,"latitude":35.1600955},{"id":"JDQ4MTAxMiM1MSMkMSMkMCMkMDMkMzgxNzAyIzUxIyQxIyQ1IyQ4MiQzNjE0ODEjNjEjJDEjJDgjJDgz","name":"대한약국","category":"약국","sido":"부산","sigungu":"부산사상구","address":"부산광역시 사상구 사상로 295, (덕포동)","phone":"051-305-2302","openDate":"1977-07-04","longitude":128.9827828,"latitude":35.1711785},{"id":"JDQ4MTAxMiM1MSMkMSMkMCMkMDMkMzgxMzUxIzQxIyQxIyQ3IyQ4MiQyNjEyMjIjNDEjJDEjJDgjJDgz","name":"대흥약국","category":"약국","sido":"부산","sigungu":"부산서구","address":"부산광역시 서구 부용로 21, (서대신동1가)","phone":"051-256-3033","openDate":"1980-07-23","longitude":129.0176537,"latitude":35.108043},{"id":"JDQ4MTAxMiM1MSMkMSMkMCMkMDMkMzgxMzUxIzIxIyQxIyQxIyQ5OSQzNjEyMjIjNTEjJDEjJDIjJDgz","name":"대흥천보약국","category":"약국","sido":"부산","sigungu":"부산남구","address":"부산광역시 남구 고동골로 80, (문현동)","phone":"051-634-5810","openDate":"1977-08-12","longitude":129.0716207,"latitude":35.1440753},{"id":"JDQ4MTAxMiM1MSMkMSMkMCMkMDMkMzgxNzAyIzIxIyQyIyQxIyQwMCQ0NjE0ODEjNTEjJDEjJDIjJDgz","name":"더나은약국","category":"약국","sido":"부산","sigungu":"부산사하구","address":"부산광역시 사하구 낙동남로 1400, 103·104호 (하단동)","phone":"051-961-6900","openDate":"2019-09-02","longitude":128.9646788,"latitude":35.1058136},{"id":"JDQ4MTAxMiM1MSMkMSMkMCMkMDMkNDgxMzUxIzIxIyQxIyQxIyQ3OSQ0NjEwMDIjNjEjJDEjJDAjJDgz","name":"더나은약국","category":"약국","sido":"부산","sigungu":"부산수영구","address":"부산광역시 수영구 수영로 671, 1층 (광안동)","phone":"051-759-7755","openDate":"2018-12-31","longitude":129.1144799,"latitude":35.1657592},{"id":"JDQ4MTAxMiM1MSMkMSMkMCMkMDMkMzgxNzAyIzExIyQxIyQzIyQ5OSQzNjE0ODEjNDEjJDEjJDQjJDgz","name":"더원약국","category":"약국","sido":"부산","sigungu":"부산해운대구","address":"부산광역시 해운대구 구남로11번길 30, 109호 (우동, 해운대역 푸르지오 더원)","phone":"744-4855","openDate":"2010-03-02","longitude":129.1606311,"latitude":35.1636033},{"id":"JDQ4MTAxMiM1MSMkMSMkMCMkMDMkMzgxMTkxIzExIyQxIyQzIyQ5MiQzNjEyMjIjNzEjJDEjJDgjJDgz","name":"더조은약국","category":"약국","sido":"부산","sigungu":"부산금정구","address":"부산광역시 금정구 중앙대로 1941, 태일빌딩 1층 (구서동)","phone":"051-517-7036","openDate":"2018-07-02","longitude":129.0910486,"latitude":35.2575901},{"id":"JDQ4MTAxMiM1MSMkMSMkMCMkMDMkNDgxMzUxIzIxIyQyIyQ1IyQwMCQzNjE4MzIjNjEjJDEjJDgjJDgz","name":"더좋은약사와약국","category":"약국","sido":"부산","sigungu":"부산해운대구","address":"부산광역시 해운대구 구남로29번길 9, (중동)","phone":"051-744-5999","openDate":"2020-06-26","longitude":129.1611779,"latitude":35.1618945},{"id":"JDQ4MTAxMiM1MSMkMSMkMCMkMDMkNDgxMzUxIzQxIyQxIyQ3IyQxMyQzNjE4MzIjNjEjJDEjJDQjJDgz","name":"더튼튼약국","category":"약국","sido":"부산","sigungu":"부산금정구","address":"부산광역시 금정구 금정로 244, 1층 (구서동)","phone":"051-967-5331","openDate":"2017-09-18","longitude":129.0922161,"latitude":35.2451243},{"id":"JDQ4MTAxMiM1MSMkMSMkMCMkMDMkMzgxMzUxIzIxIyQyIyQ1IyQwMCQyNjE0ODEjNzEjJDEjJDgjJDgz","name":"덕성약국","category":"약국","sido":"부산","sigungu":"부산수영구","address":"부산광역시 수영구 광안해변로255번길 12, (민락동)","phone":"051-753-8251","openDate":"1982-05-19","longitude":129.1217349,"latitude":35.1556691},{"id":"JDQ4MTAxMiM1MSMkMSMkMCMkMDMkMzgxNzAyIzMxIyQxIyQ3IyQwMyQzNjE0ODEjNDEjJDEjJDgjJDgz","name":"덕인약국","category":"약국","sido":"부산","sigungu":"부산해운대구","address":"부산광역시 해운대구 우동2로 16, (우동)","phone":"051-747-8589","openDate":"2013-05-13","longitude":129.160493,"latitude":35.1661551},{"id":"JDQ4MTAxMiM1MSMkMSMkMCMkMDMkNDgxMzUxIzMxIyQyIyQ3IyQwMCQyNjEwMDIjNjEjJDEjJDgjJDgz","name":"덕천역 2번출구약국","category":"약국","sido":"부산","sigungu":"부산북구","address":"부산광역시 북구 백양대로 1204, 동강빌딩 1층 (덕천동)","phone":"051-337-2008","openDate":"2023-05-03","longitude":129.0059238,"latitude":35.2099677},{"id":"JDQ4MTAxMiM1MSMkMSMkMCMkMDMkNDgxMzUxIzMxIyQxIyQzIyQ2MiQzNjEwMDIjNDEjJDEjJDQjJDgz","name":"덕천온누리약국","category":"약국","sido":"부산","sigungu":"부산북구","address":"부산광역시 북구 만덕대로 17, 1층 (덕천동)","phone":"","openDate":"2022-07-19","longitude":129.006946,"latitude":35.2107578},{"id":"JDQ4MTAxMiM1MSMkMSMkMCMkMDMkMzgxNzAyIzIxIyQxIyQxIyQxMyQzNjEyMjIjNDEjJDEjJDQjJDgz","name":"덕천우리약국","category":"약국","sido":"부산","sigungu":"부산북구","address":"부산광역시 북구 백양대로 1202, 1층 (덕천동)","phone":"051-336-2234","openDate":"2017-06-29","longitude":129.005941,"latitude":35.2097118},{"id":"JDQ4MTAxMiM1MSMkMSMkMCMkMDMkNDgxMzUxIzIxIyQxIyQxIyQ5MiQyNjEwMDIjNDEjJDEjJDQjJDgz","name":"덕천지하철약국","category":"약국","sido":"부산","sigungu":"부산북구","address":"부산광역시 북구 낙동대로 1790, (구포동)","phone":"051-338-0119","openDate":"2021-07-23","longitude":129.0049778,"latitude":35.2097809},{"id":"JDQ4MTAxMiM1MSMkMSMkMCMkMDMkNDgxMzUxIzExIyQxIyQzIyQ5MiQ0NjEwMDIjNTEjJDEjJDIjJDgz","name":"덕천참약국","category":"약국","sido":"부산","sigungu":"부산북구","address":"부산광역시 북구 낙동대로 1780, 1층 (구포동)","phone":"051-336-8818","openDate":"2017-10-02","longitude":129.0041108,"latitude":35.2095632},{"id":"JDQ4MTAxMiM1MSMkMSMkMCMkMDMkNDgxMzUxIzMxIyQyIyQzIyQwMCQzNjEyMjIjNDEjJDEjJDgjJDgz","name":"덕천프라자약국","category":"약국","sido":"부산","sigungu":"부산북구","address":"부산광역시 북구 만덕대로 24, 국민은행 덕천동지점 1층 (덕천동)","phone":"051-338-1901","openDate":"2022-07-18","longitude":129.007765,"latitude":35.2104608},{"id":"JDQ4MTAxMiM1MSMkMSMkMCMkMDMkNDgxMzUxIzIxIyQxIyQ1IyQ3MiQ0NjEwMDIjNzEjJDEjJDgjJDgz","name":"도담도담약국","category":"약국","sido":"부산","sigungu":"부산기장군","address":"부산광역시 기장군 일광읍 해빛로 17, 1층 105호","phone":"051-723-4499","openDate":"2020-08-24","longitude":129.2260207,"latitude":35.2663011},{"id":"JDQ4MTAxMiM1MSMkMSMkMCMkMDMkMzgxNzAyIzUxIyQxIyQxIyQ5OSQzNjE4MzIjNjEjJDEjJDQjJDgz","name":"도리약국","category":"약국","sido":"부산","sigungu":"부산동래구","address":"부산광역시 동래구 아시아드대로 142, 사직빌딩 (사직동)","phone":"","openDate":"2018-12-03","longitude":129.0659641,"latitude":35.1970968},{"id":"JDQ4MTAxMiM1MSMkMSMkMCMkMDMkMzgxNzAyIzUxIyQxIyQxIyQ5MiQyNjEwMDIjNTEjJDEjJDIjJDgz","name":"돌봄약국","category":"약국","sido":"부산","sigungu":"부산연제구","address":"부산광역시 연제구 월드컵대로79번길 50, 1층 104호 (연산동)","phone":"070-8691-3031","openDate":"2025-01-17","longitude":129.0815925,"latitude":35.1801886},{"id":"JDQ4MTAxMiM1MSMkMSMkMCMkMDMkMzgxOTYxIzExIyQyIyQ3IyQwMCQ0NjE0ODEjNjEjJDEjJDQjJDgz","name":"동광약국","category":"약국","sido":"부산","sigungu":"부산진구","address":"부산광역시 부산진구 백양관문로 3, 106호 (개금동)","phone":"051-896-2040","openDate":"2003-07-03","longitude":129.0311601,"latitude":35.1594433},{"id":"JDQ4MTAxMiM1MSMkMSMkMCMkMDMkNDgxMzUxIzUxIyQxIyQxIyQ4OSQyNjE4MzIjNDEjJDEjJDgjJDgz","name":"동구보건약국","category":"약국","sido":"부산","sigungu":"부산동구","address":"부산광역시 동구 수정동로 9, (수정동)","phone":"441-4701","openDate":"2015-08-03","longitude":129.0448,"latitude":35.1295582},{"id":"JDQ4MTAxMiM1MSMkMSMkMCMkMDMkMzgxOTYxIzUxIyQxIyQxIyQ4OSQyNjEyMjIjNjEjJDEjJDgjJDgz","name":"동남약국","category":"약국","sido":"부산","sigungu":"부산동래구","address":"부산광역시 동래구 아시아드대로 225, (온천동)","phone":"051-503-7003","openDate":"2003-06-02","longitude":129.0666022,"latitude":35.2042991},{"id":"JDQ4MTAxMiM1MSMkMSMkMCMkMDMkNDgxMzUxIzMxIyQxIyQzIyQxMyQzNjEyMjIjNjEjJDEjJDAjJDgz","name":"동대약국","category":"약국","sido":"부산","sigungu":"부산서구","address":"부산광역시 서구 대신공원로 25, (서대신동3가)","phone":"051-245-6999","openDate":"2008-11-01","longitude":129.0162886,"latitude":35.1202412},{"id":"JDQ4MTAxMiM1MSMkMSMkMCMkMDMkNDgxMzUxIzExIyQxIyQ3IyQxMyQzNjEyMjIjODEjJDEjJDYjJDgz","name":"동대제일약국","category":"약국","sido":"부산","sigungu":"부산서구","address":"부산광역시 서구 동대로 16, (동대신동3가)","phone":"051-231-0890","openDate":"2018-11-12","longitude":129.0176334,"latitude":35.1191638},{"id":"JDQ4MTAxMiM1MSMkMSMkMCMkMDMkNDgxMzUxIzMxIyQxIyQ3IyQ3OSQ0NjEwMDIjNDEjJDEjJDQjJDgz","name":"동래늘푸른약국","category":"약국","sido":"부산","sigungu":"부산동래구","address":"부산광역시 동래구 여고로113번길 78, (사직동)","phone":"051-503-0272","openDate":"2023-02-28","longitude":129.0740623,"latitude":35.2019349},{"id":"JDQ4MTAxMiM1MSMkMSMkMCMkMDMkNDgxMzUxIzQxIyQxIyQ3IyQ4MiQyNjE4MzIjNDEjJDEjJDgjJDgz","name":"동래대형약국","category":"약국","sido":"부산","sigungu":"부산동래구","address":"부산광역시 동래구 충렬대로 251, (수안동)","phone":"051-556-2008","openDate":"2024-07-02","longitude":129.086865,"latitude":35.2013956},{"id":"JDQ4MTAxMiM1MSMkMSMkMCMkMDMkNDgxMzUxIzIxIyQyIyQ1IyQwMCQzNjEwMDIjNDEjJDEjJDQjJDgz","name":"동래럭키약국","category":"약국","sido":"부산","sigungu":"부산동래구","address":"부산광역시 동래구 충렬대로181번길 21, (명륜동,외2필지)","phone":"051-554-8275","openDate":"2010-12-28","longitude":129.0797423,"latitude":35.2046658},{"id":"JDQ4MTAxMiM1MSMkMSMkMCMkMDMkMzgxNzAyIzUxIyQxIyQxIyQ4MiQyNjEwMDIjNjEjJDEjJDQjJDgz","name":"동래메가약국","category":"약국","sido":"부산","sigungu":"부산동래구","address":"부산광역시 동래구 충렬대로 197, 메가마트 1층 (명륜동)","phone":"051-557-5713","openDate":"2018-05-11","longitude":129.0811356,"latitude":35.2046412},{"id":"JDQ4MTAxMiM1MSMkMSMkMCMkMDMkMzgxMTkxIzUxIyQxIyQxIyQ5OSQyNjE0ODEjNTEjJDEjJDIjJDgz","name":"동래시장약국","category":"약국","sido":"부산","sigungu":"부산동래구","address":"부산광역시 동래구 충렬대로 249-1, (수안동)","phone":"051-553-3424","openDate":"2004-11-15","longitude":129.0867123,"latitude":35.2014178},{"id":"JDQ4MTAxMiM1MSMkMSMkMCMkMDMkNDgxMzUxIzIxIyQxIyQ5IyQ2MiQ0NjEwMDIjNjEjJDEjJDgjJDgz","name":"동래역2번출구약국","category":"약국","sido":"부산","sigungu":"부산동래구","address":"부산광역시 동래구 중앙대로 1324, 도시철도 1호선 동래역 1층 2호 (온천동)","phone":"","openDate":"2016-04-26","longitude":129.0784801,"latitude":35.2056146},{"id":"JDQ4MTAxMiM1MSMkMSMkMCMkMDMkNDgxMzUxIzQxIyQxIyQ3IyQ4MiQyNjEwMDIjNjEjJDEjJDAjJDgz","name":"동래오렌지약국","category":"약국","sido":"부산","sigungu":"부산동래구","address":"부산광역시 동래구 안연로109번길 17, 1층 1호 (안락동)","phone":"051-715-4849","openDate":"2019-12-02","longitude":129.0968908,"latitude":35.1969093},{"id":"JDQ4MTAxMiM1MSMkMSMkMCMkMDMkMzgxNzAyIzQxIyQxIyQ3IyQwMyQ0NjEwMDIjODEjJDEjJDYjJDgz","name":"동래온누리약국","category":"약국","sido":"부산","sigungu":"부산동래구","address":"부산광역시 동래구 동래로136번길 30, 1층 일부호 (복천동)","phone":"051-557-2410","openDate":"2019-04-01","longitude":129.0844991,"latitude":35.2050286},{"id":"JDQ4MTAxMiM1MSMkMSMkMCMkMDMkMzgxMzUxIzIxIyQxIyQ5IyQ3OSQyNjE0ODEjNDEjJDEjJDgjJDgz","name":"동림약국","category":"약국","sido":"부산","sigungu":"부산수영구","address":"부산광역시 수영구 구락로75번길 4, (망미동)","phone":"051-754-1467","openDate":"1979-06-26","longitude":129.116915,"latitude":35.1739298},{"id":"JDQ4MTAxMiM1MSMkMSMkMCMkMDMkMzgxMTkxIzUxIyQxIyQ1IyQ5OSQzNjE0ODEjNDEjJDEjJDgjJDgz","name":"동명당약국","category":"약국","sido":"부산","sigungu":"부산중구","address":"부산광역시 중구 중구로 59, 1층 (보수동1가)","phone":"051-255-1445","openDate":"2020-09-29","longitude":129.0279318,"latitude":35.1033264},{"id":"JDQ4MTAxMiM1MSMkMSMkMCMkMDMkMzgxMTkxIzUxIyQxIyQxIyQ5OSQ0NjEwMDIjNjEjJDEjJDgjJDgz","name":"동명약국","category":"약국","sido":"부산","sigungu":"부산서구","address":"부산광역시 서구 까치고개로 194, (아미동1가)","phone":"051-241-0718","openDate":"2017-09-05","longitude":129.0169691,"latitude":35.0998946},{"id":"JDQ4MTAxMiM1MSMkMSMkMCMkMDMkNDgxMzUxIzIxIyQxIyQ1IyQ3OSQzNjEwMDIjODEjJDEjJDIjJDgz","name":"동문굿모닝약국","category":"약국","sido":"부산","sigungu":"부산북구","address":"부산광역시 북구 덕천로276번길 60, 311호 (만덕동, 백양산동문굿모닝힐)","phone":"051-333-5587","openDate":"2016-03-02","longitude":129.032675,"latitude":35.207631},{"id":"JDQ4MTAxMiM1MSMkMSMkMCMkMDMkMzgxOTYxIzExIyQyIyQ3IyQwMCQzNjEyMjIjODEjJDEjJDYjJDgz","name":"동민약국","category":"약국","sido":"부산","sigungu":"부산연제구","address":"부산광역시 연제구 연제로8번길 30, 상가2동 1층 201호 (연산동, 브라운스톤연제2단지)","phone":"051-804-7780","openDate":"2019-08-14","longitude":129.080402,"latitude":35.1768208},{"id":"JDQ4MTAxMiM1MSMkMSMkMCMkMDMkMzgxMTkxIzIxIyQxIyQ5IyQ3MiQzNjEwMDIjNDEjJDEjJDQjJDgz","name":"동민약국","category":"약국","sido":"부산","sigungu":"부산해운대구","address":"부산광역시 해운대구 재반로 198-1, (반여동)","phone":"051-783-4250","openDate":"2001-12-15","longitude":129.1308031,"latitude":35.1948892},{"id":"JDQ4MTAxMiM1MSMkMSMkMCMkMDMkMzgxMzUxIzIxIyQxIyQ1IyQ4OSQzNjEwMDIjNTEjJDEjJDYjJDgz","name":"동방약국","category":"약국","sido":"부산","sigungu":"부산수영구","address":"부산광역시 수영구 감포로 2, (민락동)","phone":"051-753-9483","openDate":"1978-04-28","longitude":129.1210684,"latitude":35.1588499},{"id":"JDQ4MTAxMiM1MSMkMSMkMCMkMDMkMzgxMzUxIzMxIyQxIyQ3IyQwMyQzNjEyMjIjNDEjJDEjJDgjJDgz","name":"동백약국","category":"약국","sido":"부산","sigungu":"부산해운대구","address":"부산광역시 해운대구 해운대로 540, 104동 103호 (우동, 해운대 동백 두산위브더제니스)","phone":"","openDate":"2024-03-12","longitude":129.1509131,"latitude":35.1599158},{"id":"JDQ4MTAxMiM1MSMkMSMkMCMkMDMkNDgxMzUxIzMxIyQxIyQ3IyQwMyQzNjEyMjIjNTEjJDEjJDYjJDgz","name":"동보약국","category":"약국","sido":"부산","sigungu":"부산해운대구","address":"부산광역시 해운대구 센텀동로 6, 홈플러스 센텀시티점 3층 (우동)","phone":"051-609-8155","openDate":"2023-12-15","longitude":129.1336852,"latitude":35.1709266},{"id":"JDQ4MTAxMiM1MSMkMSMkMCMkMDMkMzgxOTYxIzIxIyQxIyQ1IyQxMyQ0NjE0ODEjNDEjJDEjJDgjJDgz","name":"동보약국","category":"약국","sido":"부산","sigungu":"부산진구","address":"부산광역시 부산진구 가야대로 772, 지하1층 (부전동, 롯데백화점 지하)","phone":"051-810-4056","openDate":"2009-05-01","longitude":129.0564313,"latitude":35.1568255},{"id":"JDQ4MTAxMiM1MSMkMSMkMCMkMDMkNDgxMzUxIzExIyQxIyQ3IyQ5OSQzNjEwMDIjNDEjJDEjJDQjJDgz","name":"동부산약국","category":"약국","sido":"부산","sigungu":"부산기장군","address":"부산광역시 기장군 기장읍 기장해안로 147, 롯데몰 동부산점 롯데마트 2층","phone":"051-901-2160","openDate":"2020-10-05","longitude":129.2127177,"latitude":35.1921607},{"id":"JDQ4MTAxMiM1MSMkMSMkMCMkMDMkNDgxMzUxIzUxIyQxIyQxIyQ4OSQzNjE0ODEjODEjJDEjJDYjJDgz","name":"동부산오시리아수약국","category":"약국","sido":"부산","sigungu":"부산기장군","address":"부산광역시 기장군 기장읍 동부산관광3로 17, 이케아 동부산점 1층","phone":"","openDate":"2025-04-29","longitude":129.2102711,"latitude":35.1902849},{"id":"JDQ4MTAxMiM1MSMkMSMkMCMkMDMkNDgxMzUxIzExIyQxIyQzIyQ4MiQzNjE0ODEjNjEjJDEjJDAjJDgz","name":"동부약국","category":"약국","sido":"부산","sigungu":"부산해운대구","address":"부산광역시 해운대구 재반로 153, (재송동)","phone":"051-783-4285","openDate":"2017-08-14","longitude":129.1279705,"latitude":35.1917989},{"id":"JDQ4MTAxMiM1MSMkMSMkMCMkMDMkMzgxMzUxIzExIyQxIyQzIyQ3MiQyNjEwMDIjNDEjJDEjJDgjJDgz","name":"동산약국","category":"약국","sido":"부산","sigungu":"부산사하구","address":"부산광역시 사하구 다송로 59, 상가동 106호 (다대동, 도시개발공사4지구아파트)","phone":"051-266-1101","openDate":"1995-09-07","longitude":128.9852252,"latitude":35.0621031},{"id":"JDQ4MTAxMiM1MSMkMSMkMCMkMDMkMzgxMzUxIzIxIyQxIyQxIyQwMyQyNjEyMjIjNTEjJDEjJDYjJDgz","name":"동산약국","category":"약국","sido":"부산","sigungu":"부산사상구","address":"부산광역시 사상구 백양대로 945, 1층 (모라동)","phone":"051-317-7985","openDate":"2014-04-21","longitude":128.9915338,"latitude":35.1906074},{"id":"JDQ4MTAxMiM1MSMkMSMkMCMkMDMkMzgxNzAyIzIxIyQxIyQ1IyQ3OSQyNjE0ODEjNDEjJDEjJDgjJDgz","name":"동산약국","category":"약국","sido":"부산","sigungu":"부산해운대구","address":"부산광역시 해운대구 재반로 169, 1층 (재송동)","phone":"051-784-7552","openDate":"2020-06-29","longitude":129.1288947,"latitude":35.1930266},{"id":"JDQ4MTAxMiM1MSMkMSMkMCMkMDMkMzgxOTYxIzIxIyQxIyQxIyQ5MiQyNjEyMjIjNDEjJDEjJDgjJDgz","name":"동산약국","category":"약국","sido":"부산","sigungu":"부산진구","address":"부산광역시 부산진구 새싹로 277, (초읍동)","phone":"051-805-0386","openDate":"2003-07-22","longitude":129.0471017,"latitude":35.1808301},{"id":"JDQ4MTAxMiM1MSMkMSMkMCMkMDMkMzgxMzUxIzIxIyQxIyQ1IyQwMyQ0NjEwMDIjNzEjJDEjJDgjJDgz","name":"동산약국","category":"약국","sido":"부산","sigungu":"부산수영구","address":"부산광역시 수영구 과정로 41, (망미동)","phone":"051-754-7820","openDate":"1982-06-29","longitude":129.1074109,"latitude":35.1749224},