{"pharmacies":[{"id":"JDQ4MTYyMiM1MSMkMSMkMCMkMDMkNTgxMzUxIzMxIyQxIyQzIyQxMyQyNjE4MzIjNjEjJDEjJDAjJDgz","name":"1(일)약국","category":"약국","sido":"경기","sigungu":"안양만안구","address":"경기도 안양시 만안구 박달로 518, (박달동)","phone":"031-468-3354","openDate":"2007-10-10","longitude":126.9102181,"latitude":37.4024396},{"id":"JDU4MTI3MSM1MSMkMSMkMCMkMDMkMzgxMTkxIzIxIyQyIyQxIyQwMCQ0NjE0ODEjNTEjJDEjJDIjJDgz","name":"1,2,3약국","category":"약국","sido":"경기","sigungu":"남양주시","address":"경기도 남양주시 오남읍 양지로 47-63, (오남읍)","phone":"031-529-8099","openDate":"2012-12-17","longitude":127.2033555,"latitude":37.6826923},{"id":"JDU4MTI3MSM1MSMkMSMkMCMkMDMkNDgxMzUxIzIxIyQxIyQ5IyQ3MiQ0NjE0ODEjNDEjJDEjJDgjJDgz","name":"1004 약국","category":"약국","sido":"경기","sigungu":"고양덕양구","address":"경기도 고양시 덕양구 동세로 19, 아카메디 105호 (동산동)","phone":"02-381-5052","openDate":"2018-11-01","longitude":126.8863524,"latitude":37.6445654},{"id":"JDQ4MTYyMiM1MSMkMSMkMCMkMDMkNDgxOTYxIzIxIyQxIyQ1IyQ2MiQ0NjEwMDIjODEjJDEjJDIjJDgz","name":"100세건강약국","category":"약국","sido":"경기","sigungu":"안양만안구","address":"경기도 안양시 만안구 안양로 408, 1층 (안양동)","phone":"031-465-1320","openDate":"2015-12-28","longitude":126.914839,"latitude":37.4071533},{"id":"JDQ4MTYyMiM1MSMkMSMkMCMkMDMkNDgxMTkxIzIxIyQxIyQ1IyQ3MiQyNjEwMDIjNjEjJDEjJDQjJDgz","name":"100세약국","category":"약국","sido":"경기","sigungu":"화성시","address":"경기도 화성시 정남면 만년로 540, (정남면)","phone":"031-353-7575","openDate":"1999-03-26","longitude":126.983629,"latitude":37.1694566},{"id":"JDQ4MTYyMiM1MSMkMSMkMCMkMDMkNDgxOTYxIzIxIyQxIyQ1IyQ4MiQzNjE4MzIjNjEjJDEjJDgjJDgz","name":"100세약국","category":"약국","sido":"경기","sigungu":"광명시","address":"경기도 광명시 광명로 877, 상가동 제2-1층 4호 (광명동, 한진아파트)","phone":"02-2619-0081","openDate":"2021-10-28","longitude":126.8521846,"latitude":37.4779305},{"id":"JDU4MTI3MSM1MSMkMSMkMCMkMDMkMzgxMzUxIzMxIyQxIyQzIyQ2MiQyNjE4MzIjNzEjJDEjJDgjJDgz","name":"100세약국","category":"약국","sido":"경기","sigungu":"수원팔달구","address":"경기도 수원시 팔달구 경수대로 568, (인계동)","phone":"031-239-4801","openDate":"2007-11-09","longitude":127.0308268,"latitude":37.2763011},{"id":"JDU4MTI3MSM1MSMkMSMkMCMkMDMkNDgxMTkxIzIxIyQxIyQ5IyQ4MiQyNjEwMDIjNDEjJDEjJDgjJDgz","name":"100평 광장약국","category":"약국","sido":"경기","sigungu":"의정부시","address":"경기도 의정부시 동일로 732, 금오동 근린생활시설 1층 102호 (금오동)","phone":"","openDate":"2021-03-02","longitude":127.0492861,"latitude":37.7519574},{"id":"JDQ4MTYyMiM1MSMkMSMkMCMkMDMkNDgxMzUxIzIxIyQxIyQ5IyQ5OSQyNjE0ODEjNDEjJDEjJDgjJDgz","name":"123약국","category":"약국","sido":"경기","sigungu":"수원영통구","address":"경기도 수원시 영통구 월드컵로 153, (원천동)","phone":"031-211-1230","openDate":"2007-06-01","longitude":127.048347,"latitude":37.2773246},{"id":"JDU4MTI3MSM1MSMkMSMkMCMkMDMkMzgxOTYxIzIxIyQxIyQ5IyQxMyQzNjE0ODEjNDEjJDEjJDgjJDgz","name":"1등약국","category":"약국","sido":"경기","sigungu":"화성시","address":"경기도 화성시 동탄중앙로 381-13, 101호 (석우동, 성심제일프라자)","phone":"","openDate":"2012-10-18","longitude":127.0790632,"latitude":37.2164163},{"id":"JDQ4MTYyMiM1MSMkMSMkMCMkMDMkNTgxMzUxIzIxIyQyIyQxIyQwMCQyNjE0ODEjNzEjJDEjJDgjJDgz","name":"1번약국","category":"약국","sido":"경기","sigungu":"안양만안구","address":"경기도 안양시 만안구 현충로48번길 57, (안양동)","phone":"031-466-0521","openDate":"2013-06-07","longitude":126.9242412,"latitude":37.3930497},{"id":"JDQ4MTYyMiM1MSMkMSMkMCMkMDMkMzgxMTkxIzExIyQxIyQ3IyQ3OSQyNjE0ODEjNjEjJDEjJDgjJDgz","name":"21세기 동규약국","category":"약국","sido":"경기","sigungu":"오산시","address":"경기도 오산시 대원로 1, (오산동)","phone":"031-374-3680","openDate":"2008-12-16","longitude":127.068641,"latitude":37.1466082},{"id":"JDU4MTI3MSM1MSMkMSMkMCMkMDMkMzgxOTYxIzExIyQxIyQ3IyQxMyQzNjE4MzIjNjEjJDEjJDgjJDgz","name":"21세기 정약국","category":"약국","sido":"경기","sigungu":"수원권선구","address":"경기도 수원시 권선구 정조로 523, 1층 (세류동)","phone":"031-234-3847","openDate":"2015-05-27","longitude":127.0110436,"latitude":37.2559647},{"id":"JDU4MTI3MSM1MSMkMSMkMCMkMDMkMzgxMzUxIzUxIyQxIyQ1IyQ2MiQyNjEwMDIjNjEjJDEjJDgjJDgz","name":"21세기분당종로약국","category":"약국","sido":"경기","sigungu":"성남분당구","address":"경기도 성남시 분당구 야탑로81번길 10, 303-1호 (야탑동, 아미고타워)","phone":"031-622-1100","openDate":"2009-01-02","longitude":127.1282197,"latitude":37.4105955},{"id":"JDQ4MTYyMiM1MSMkMSMkMCMkMDMkNDgxMTkxIzMxIyQxIyQzIyQ5OSQyNjE4MzIjNTEjJDEjJDIjJDgz","name":"21세기세계로약국","category":"약국","sido":"경기","sigungu":"성남중원구","address":"경기도 성남시 중원구 산성대로372번길 14, 1층 (금광동, 동성빌딩)","phone":"031-743-0624","openDate":"1999-10-05","longitude":127.1585912,"latitude":37.4447568},{"id":"JDU4MTI3MSM1MSMkMSMkMCMkMDMkNDgxMzUxIzMxIyQxIyQ3IyQxMyQ0NjE0ODEjNTEjJDEjJDIjJDgz","name":"21세기약국","category":"약국","sido":"경기","sigungu":"수원장안구","address":"경기도 수원시 장안구 만석로19번길 25-10, 롯데마트 1층 (천천동)","phone":"031-269-5640","openDate":"2019-06-01","longitude":126.9823913,"latitude":37.2961344},{"id":"JDU4MTI3MSM1MSMkMSMkMCMkMDMkMzgxNzAyIzUxIyQyIyQxIyQwMCQ0NjEwMDIjNjEjJDEjJDAjJDgz","name":"21세기약국","category":"약국","sido":"경기","sigungu":"수원팔달구","address":"경기도 수원시 팔달구 정조로 775, 102호 (팔달로3가)","phone":"242-3991","openDate":"2017-03-20","longitude":127.0161571,"latitude":37.2771889},{"id":"JDU4MTI3MSM1MSMkMSMkMCMkMDMkNDgxMzUxIzUxIyQxIyQxIyQ2MiQyNjEwMDIjNDEjJDEjJDgjJDgz","name":"21세기연세약국","category":"약국","sido":"경기","sigungu":"성남분당구","address":"경기도 성남시 분당구 서현로321번길 10, 1층 (서현동)","phone":"031-707-7990","openDate":"2016-03-29","longitude":127.1360479,"latitude":37.3799841},{"id":"JDQ4MTYyMiM1MSMkMSMkMCMkMDMkNDgxMTkxIzMxIyQxIyQ3IyQwMyQzNjE0ODEjNDEjJDEjJDgjJDgz","name":"21세기청학보건당약국","category":"약국","sido":"경기","sigungu":"남양주시","address":"경기도 남양주시 별내면 청학로중앙길 9, (청화빌딩 1층)","phone":"031-821-1653","openDate":"2000-05-09","longitude":127.1184072,"latitude":37.7086991},{"id":"JDU4MTI3MSM1MSMkMSMkMCMkMDMkNDgxOTYxIzMxIyQxIyQ3IyQ3MiQyNjEyMjIjNDEjJDEjJDQjJDgz","name":"2동탄약국","category":"약국","sido":"경기","sigungu":"화성시","address":"경기도 화성시 동탄순환대로 685, 111호 (영천동)","phone":"031-375-1119","openDate":"2018-08-30","longitude":127.1109261,"latitude":37.2059564},{"id":"JDU4MTI3MSM1MSMkMSMkMCMkMDMkNDgxMTkxIzMxIyQxIyQ3IyQwMyQyNjE4MzIjNjEjJDEjJDQjJDgz","name":"2층 리본약국","category":"약국","sido":"경기","sigungu":"안양동안구","address":"경기도 안양시 동안구 평촌대로217번길 45, 평촌코아주차빌딩 211호 (호계동)","phone":"031-381-6366","openDate":"2020-11-16","longitude":126.953531,"latitude":37.3899764},{"id":"JDU4MTI3MSM1MSMkMSMkMCMkMDMkNDgxOTYxIzQxIyQxIyQ3IyQ4MiQzNjE4MzIjNjEjJDEjJDAjJDgz","name":"2층약국","category":"약국","sido":"경기","sigungu":"용인기흥구","address":"경기도 용인시 기흥구 흥덕2로87번길 18, 이씨티 C동 207호 (영덕동)","phone":"031-831-1171","openDate":"2024-04-16","longitude":127.0718775,"latitude":37.2758482},{"id":"JDU4MTI3MSM1MSMkMSMkMCMkMDMkNDgxOTYxIzMxIyQxIyQ3IyQ5MiQzNjE0ODEjNDEjJDEjJDgjJDgz","name":"2층약국","category":"약국","sido":"경기","sigungu":"안양동안구","address":"경기도 안양시 동안구 경수대로 428, 214호 (호계동, 덕유파크)","phone":"031-427-1350","openDate":"2015-01-08","longitude":126.9625171,"latitude":37.3622378},{"id":"JDU4MTI3MSM1MSMkMSMkMCMkMDMkNDgxNzAyIzIxIyQxIyQ5IyQ4MiQyNjE0ODEjODEjJDEjJDYjJDgz","name":"2층엔약국","category":"약국","sido":"경기","sigungu":"남양주시","address":"경기도 남양주시 다산중앙로123번길 22-30, 다산 헤리움 그랑비스타 2차 214호 (다산동)","phone":"031-565-8875","openDate":"2021-04-02","longitude":127.1521046,"latitude":37.6254944},{"id":"JDU4MTI3MSM1MSMkMSMkMCMkMDMkNDgxOTYxIzMxIyQxIyQ3IyQ3OSQyNjE4MzIjNDEjJDEjJDgjJDgz","name":"2층우리약국","category":"약국","sido":"경기","sigungu":"의정부시","address":"경기도 의정부시 호동로 67, 화성프라자 2층 207호 (호원동)","phone":"855-8454","openDate":"2019-03-18","longitude":127.0433266,"latitude":37.7279274},{"id":"JDU4MTI3MSM1MSMkMSMkMCMkMDMkNDgxOTYxIzMxIyQxIyQ3IyQwMyQ0NjEwMDIjODEjJDEjJDYjJDgz","name":"2층푸른약국","category":"약국","sido":"경기","sigungu":"고양덕양구","address":"경기도 고양시 덕양구 권율대로 512, 원흥퍼스트푸르지오시티 (도내동)","phone":"031-969-3545","openDate":"2021-10-05","longitude":126.8703619,"latitude":37.6362883},{"id":"JDU4MTI3MSM1MSMkMSMkMCMkMDMkNDgxOTYxIzUxIyQxIyQ1IyQ3OSQyNjEwMDIjNjEjJDEjJDAjJDgz","name":"365 열린큰약국","category":"약국","sido":"경기","sigungu":"용인수지구","address":"경기도 용인시 수지구 성복2로 38, 성복역 롯데캐슬 골드타운 지상2층 약국코너호 (성복동)","phone":"","openDate":"2021-05-31","longitude":127.081613,"latitude":37.3128099},{"id":"JDU4MTI3MSM1MSMkMSMkMCMkMDMkNDgxOTYxIzExIyQxIyQ3IyQ3OSQzNjE4MzIjNTEjJDEjJDIjJDgz","name":"365구름약국","category":"약국","sido":"경기","sigungu":"수원장안구","address":"경기도 수원시 장안구 경수대로 979, 2층 (송죽동)","phone":"031-309-8117","openDate":"2024-01-29","longitude":127.0037753,"latitude":37.3045254},{"id":"JDU4MTI3MSM1MSMkMSMkMCMkMDMkMzgxMTkxIzExIyQxIyQ3IyQ5OSQyNjE4MzIjODEjJDEjJDIjJDgz","name":"365그린약국","category":"약국","sido":"경기","sigungu":"성남분당구","address":"경기도 성남시 분당구 성남대로 165, 천사의도시1 오피스텔 2층 231호 (금곡동)","phone":"031-717-2267","openDate":"2020-06-04","longitude":127.1083309,"latitude":37.350748},{"id":"JDQ4MTYyMiM1MSMkMSMkMCMkMDMkMzgxMzUxIzIxIyQxIyQxIyQ5MiQyNjEyMjIjODEjJDEjJDYjJDgz","name":"365남문약국","category":"약국","sido":"경기","sigungu":"수원팔달구","address":"경기도 수원시 팔달구 정조로 789, (팔달로2가)","phone":"031-251-5558","openDate":"2022-09-23","longitude":127.0165076,"latitude":37.2785505},{"id":"JDU4MTI3MSM1MSMkMSMkMCMkMDMkNDgxOTYxIzExIyQxIyQzIyQwMyQyNjE4MzIjNDEjJDEjJDgjJDgz","name":"365녹십자약국","category":"약국","sido":"경기","sigungu":"평택시","address":"경기도 평택시 중앙로 2, (통복동)","phone":"031-652-3307","openDate":"2016-12-13","longitude":127.0835289,"latitude":36.9954122},{"id":"JDQ4MTYyMiM1MSMkMSMkMCMkMDMkNDgxNzAyIzExIyQxIyQ3IyQ3OSQzNjEwMDIjNjEjJDEjJDAjJDgz","name":"365달빛약국","category":"약국","sido":"경기","sigungu":"안양동안구","address":"경기도 안양시 동안구 경수대로 876, 1층 일부(4,5)호 (비산동)","phone":"031-385-3856","openDate":"2024-08-21","longitude":126.9390784,"latitude":37.3965545},{"id":"JDU4MTI3MSM1MSMkMSMkMCMkMDMkNDgxMTkxIzExIyQxIyQzIyQ3OSQzNjE0ODEjNzEjJDEjJDgjJDgz","name":"365담이약국","category":"약국","sido":"경기","sigungu":"시흥시","address":"경기도 시흥시 황고개로 530, 107호 (장곡동)","phone":"","openDate":"2022-05-09","longitude":126.7892647,"latitude":37.378223},{"id":"JDU4MTI3MSM1MSMkMSMkMCMkMDMkNDgxNzAyIzIxIyQxIyQ1IyQxMyQzNjEyMjIjNTEjJDEjJDYjJDgz","name":"365돌고래약국","category":"약국","sido":"경기","sigungu":"수원영통구","address":"경기도 수원시 영통구 광교호수공원로 20, 제판매시설동 제지2층 제B2-20B호 (원천동, 더샵 광교레이크시티)","phone":"031-546-0640","openDate":"2024-12-03","longitude":127.060146,"latitude":37.2710306},{"id":"JDU4MTI3MSM1MSMkMSMkMCMkMDMkMzgxNzAyIzExIyQxIyQzIyQxMyQyNjEyMjIjNDEjJDEjJDQjJDgz","name":"365동서약국","category":"약국","sido":"경기","sigungu":"구리시","address":"경기도 구리시 체육관로 162, (수택동, 온누리약국)","phone":"031-552-4289","openDate":"2017-05-01","longitude":127.1364294,"latitude":37.5990303},{"id":"JDQ4MTYyMiM1MSMkMSMkMCMkMDMkNDgxMTkxIzQxIyQxIyQ3IyQ5MiQ0NjEwMDIjNDEjJDEjJDgjJDgz","name":"365드림약국","category":"약국","sido":"경기","sigungu":"의정부시","address":"경기도 의정부시 천보로 44, 8층 804호 (민락동)","phone":"031-8092-2365","openDate":"2017-11-03","longitude":127.0963397,"latitude":37.7443257},{"id":"JDU4MTI3MSM1MSMkMSMkMCMkMDMkMzgxOTYxIzUxIyQyIyQ1IyQwMCQzNjEwMDIjNzEjJDEjJDgjJDgz","name":"365드림약국","category":"약국","sido":"경기","sigungu":"남양주시","address":"경기도 남양주시 늘을1로16번길 25, 1층 3, 4호 (호평동, 성보빌딩)","phone":"031-594-3652","openDate":"2012-01-20","longitude":127.2428881,"latitude":37.6540709},{"id":"JDU4MTI3MSM1MSMkMSMkMCMkMDMkMzgxNzAyIzMxIyQxIyQzIyQ4OSQzNjEwMDIjODEjJDEjJDIjJDgz","name":"365박달온누리약국","category":"약국","sido":"경기","sigungu":"안양만안구","address":"경기도 안양시 만안구 양화로 112, 101호 (박달동)","phone":"031-465-3512","openDate":"2016-04-04","longitude":126.910635,"latitude":37.4027788},{"id":"JDU4MTI3MSM1MSMkMSMkMCMkMDMkNDgxMzUxIzUxIyQyIyQ1IyQwMCQzNjEyMjIjNDEjJDEjJDgjJDgz","name":"365밝은약국","category":"약국","sido":"경기","sigungu":"광명시","address":"경기도 광명시 광명로 914, 1층 (광명동)","phone":"02-2612-4100","openDate":"2019-03-10","longitude":126.85516,"latitude":37.4802891},{"id":"JDU4MTI3MSM1MSMkMSMkOCMkMDMkMzgxMzUxIzExIyQxIyQzIyQ4OSQyNjE4MzIjNDEjJDEjJDgjJDgz","name":"365베스트약국","category":"약국","sido":"경기","sigungu":"파주시","address":"경기도 파주시 청석로 122, 112, 113, 114호 (동패동)","phone":"031-943-0422","openDate":"2025-05-30","longitude":126.7211085,"latitude":37.7134376},{"id":"JDU4MTI3MSM1MSMkMSMkMCMkMDMkNDgxMzUxIzQxIyQxIyQ3IyQxMyQyNjE4MzIjODEjJDEjJDIjJDgz","name":"365별약국","category":"약국","sido":"경기","sigungu":"수원영통구","address":"경기도 수원시 영통구 광교중앙로 170, 광교 효성해링턴 타워 3층 311호 (하동)","phone":"031-212-1705","openDate":"2019-08-21","longitude":127.0607027,"latitude":37.2881246},{"id":"JDU4MTI3MSM1MSMkMSMkMCMkMDMkNDgxMTkxIzMxIyQxIyQzIyQwMyQyNjE4MzIjODEjJDEjJDYjJDgz","name":"365보건약국","category":"약국","sido":"경기","sigungu":"시흥시","address":"경기도 시흥시 정왕천로411번길 48, 102호 (정왕동)","phone":"031-504-1611","openDate":"2023-06-02","longitude":126.7477123,"latitude":37.3470453},{"id":"JDU4MTI3MSM1MSMkMSMkMCMkMDMkNDgxMTkxIzMxIyQxIyQ3IyQ4OSQyNjEyMjIjNjEjJDEjJDgjJDgz","name":"365봄날약국","category":"약국","sido":"경기","sigungu":"시흥시","address":"경기도 시흥시 은행고길 28, 1층 101,102호 (은행동)","phone":"031-8042-3034","openDate":"2023-06-27","longitude":126.7993284,"latitude":37.4407635},{"id":"JDU4MTI3MSM1MSMkMSMkMCMkMDMkMzgxMTkxIzIxIyQxIyQxIyQ4MiQzNjEyMjIjODEjJDEjJDIjJDgz","name":"365봉담약국","category":"약국","sido":"경기","sigungu":"화성시","address":"경기도 화성시 봉담읍 상리2길 51, 101-105호","phone":"031-296-0365","openDate":"2022-02-08","longitude":126.9471441,"latitude":37.2245561},{"id":"JDU4MTI3MSM1MSMkMSMkMCMkMDMkNDgxNzAyIzMxIyQxIyQzIyQwMyQ0NjEwMDIjNTEjJDEjJDYjJDgz","name":"365선유약국","category":"약국","sido":"경기","sigungu":"파주시","address":"경기도 파주시 문산읍 사임당로 26, 102호","phone":"","openDate":"2025-04-14","longitude":126.7973456,"latitude":37.8594225},{"id":"JDU4MTI3MSM1MSMkMSMkMCMkMDMkMzgxMzUxIzIxIyQxIyQxIyQ5MiQzNjEwMDIjNjEjJDEjJDgjJDgz","name":"365세심당약국","category":"약국","sido":"경기","sigungu":"안성시","address":"경기도 안성시 인지2길 6, 1층 (인지동)","phone":"031-672-0365","openDate":"2020-11-09","longitude":127.2674558,"latitude":37.0052865},{"id":"JDU4MTI3MSM1MSMkMSMkMCMkMDMkNDgxMTkxIzMxIyQyIyQzIyQwMCQyNjEyMjIjNjEjJDEjJDAjJDgz","name":"365수정메디약국","category":"약국","sido":"경기","sigungu":"성남수정구","address":"경기도 성남시 수정구 수정로 128, 1층 일부호 (수진동)","phone":"031-758-3650","openDate":"2023-05-01","longitude":127.1345863,"latitude":37.4414339},{"id":"JDU4MTI3MSM1MSMkMSMkMCMkMDMkNDgxMTkxIzMxIyQyIyQ3IyQwMCQ0NjE0ODEjNDEjJDEjJDQjJDgz","name":"365스마일약국","category":"약국","sido":"경기","sigungu":"안양동안구","address":"경기도 안양시 동안구 평촌대로217번길 27, 백두프라자 1층 108호 (호계동)","phone":"031-381-8864","openDate":"2022-11-23","longitude":126.9541319,"latitude":37.3903352},{"id":"JDU4MTI3MSM1MSMkMSMkMCMkMDMkNDgxMTkxIzIxIyQxIyQxIyQ5MiQzNjEyMjIjNzEjJDEjJDgjJDgz","name":"365스마일약국","category":"약국","sido":"경기","sigungu":"오산시","address":"경기도 오산시 죽담안로 38-15, 1층 103호 (궐동)","phone":"070-4032-8864","openDate":"2024-12-27","longitude":127.0521088,"latitude":37.1636716},{"id":"JDU4MTI3MSM1MSMkMSMkMCMkMDMkMzgxOTYxIzUxIyQxIyQ1IyQ5OSQzNjEwMDIjNDEjJDEjJDQjJDgz","name":"365시티약국","category":"약국","sido":"경기","sigungu":"양주시","address":"경기도 양주시 화합로 1361, 102호 (덕정동, 아트시티)","phone":"031-862-3650","openDate":"2015-03-18","longitude":127.0624542,"latitude":37.8435707},{"id":"JDQ4MTYyMiM1MSMkMSMkMCMkMDMkNDgxMzUxIzMxIyQxIyQzIyQ2MiQyNjE0ODEjNDEjJDEjJDgjJDgz","name":"365약국","category":"약국","sido":"경기","sigungu":"하남시","address":"경기도 하남시 미사강변중앙로 226, 우성르보아파크 1층 112호 (망월동)","phone":"031-794-0367","openDate":"2018-10-18","longitude":127.1889881,"latitude":37.5667509},{"id":"JDU4MTI3MSM1MSMkMSMkMCMkMDMkNDgxNzAyIzIxIyQxIyQ1IyQ4OSQzNjE4MzIjNTEjJDEjJDYjJDgz","name":"365약국","category":"약국","sido":"경기","sigungu":"평택시","address":"경기도 평택시 소사5길 120, 106호 (소사동)","phone":"031-618-3365","openDate":"2024-10-08","longitude":127.1264616,"latitude":36.99168},{"id":"JDU4MTI3MSM1MSMkMSMkMCMkMDMkNDgxMTkxIzQxIyQxIyQ3IyQwMyQyNjEwMDIjNjEjJDEjJDQjJDgz","name":"365약국","category":"약국","sido":"경기","sigungu":"동두천시","address":"경기도 동두천시 지행로 53, 1층 (지행동)","phone":"031-858-4435","openDate":"2022-10-04","longitude":127.0532456,"latitude":37.8926877},{"id":"JDU4MTI3MSM1MSMkMSMkMCMkMDMkNDgxMzUxIzMxIyQxIyQzIyQ2MiQyNjE4MzIjODEjJDEjJDYjJDgz","name":"365약국","category":"약국","sido":"경기","sigungu":"고양덕양구","address":"경기도 고양시 덕양구 충장로 150, 롯데마트 고양점 1층(일부)호 (행신동)","phone":"","openDate":"2024-03-14","longitude":126.8361639,"latitude":37.6251963},{"id":"JDU4MTI3MSM1MSMkMSMkMCMkMDMkNDgxMTkxIzIxIyQyIyQxIyQwMCQ0NjE0ODEjNjEjJDEjJDAjJDgz","name":"365약국","category":"약국","sido":"경기","sigungu":"남양주시","address":"경기도 남양주시 오남읍 진건오남로 813, 104~105호","phone":"031-523-3311","openDate":"2017-02-03","longitude":127.2018874,"latitude":37.698992},{"id":"JDU4MTI3MSM1MSMkMSMkMCMkMDMkMzgxNzAyIzUxIyQxIyQxIyQ3MiQ0NjE0ODEjNDEjJDEjJDgjJDgz","name":"365언제나약국","category":"약국","sido":"경기","sigungu":"성남분당구","address":"경기도 성남시 분당구 불정로 266, 유신제일조합 101-1호 (수내동)","phone":"031-698-2306","openDate":"2024-08-14","longitude":127.1276937,"latitude":37.3670981},{"id":"JDU4MTI3MSM1MSMkMSMkMCMkMDMkNDgxOTYxIzUxIyQxIyQxIyQ3OSQyNjEwMDIjODEjJDEjJDIjJDgz","name":"365에펠약국","category":"약국","sido":"경기","sigungu":"하남시","address":"경기도 하남시 미사강변동로 95, 힐스테이트 미사역 그랑파사쥬(12-1BL) B1048호 (망월동)","phone":"031-791-3650","openDate":"2020-10-12","longitude":127.1917417,"latitude":37.5637312},{"id":"JDQ4MTYyMiM1MSMkMSMkMCMkMDMkNTgxMzUxIzExIyQxIyQ3IyQ2MiQ0NjE0ODEjNTEjJDEjJDYjJDgz","name":"365열린약국","category":"약국","sido":"경기","sigungu":"성남분당구","address":"경기도 성남시 분당구 성남대로925번길 11, 유니마트 130호 (야탑동)","phone":"031-702-4764","openDate":"2018-02-13","longitude":127.1272966,"latitude":37.4120446},{"id":"JDU4MTI3MSM1MSMkMSMkMCMkMDMkNDgxNzAyIzIxIyQxIyQ1IyQ5MiQyNjEyMjIjNjEjJDEjJDgjJDgz","name":"365열린약국","category":"약국","sido":"경기","sigungu":"평택시","address":"경기도 평택시 평남로 1047-1, 102호 (동삭동)","phone":"","openDate":"2024-11-27","longitude":127.0949142,"latitude":37.0094348},{"id":"JDU4MTI3MSM1MSMkMSMkMCMkMDMkNDgxNzAyIzExIyQxIyQzIyQ4MiQzNjEyMjIjNTEjJDEjJDIjJDgz","name":"365열린약국","category":"약국","sido":"경기","sigungu":"이천시","address":"경기도 이천시 구만리로 191, 2층 (안흥동, 롯데캐슬 골드스카이)","phone":"031-637-7328","openDate":"2019-01-10","longitude":127.4546898,"latitude":37.2746581},{"id":"JDU4MTI3MSM1MSMkMSMkMCMkMDMkNDgxMTkxIzMxIyQxIyQ3IyQxMyQzNjE4MzIjNjEjJDEjJDQjJDgz","name":"365열린약국","category":"약국","sido":"경기","sigungu":"오산시","address":"경기도 오산시 경기대로 133, 오렌지팩토리아울렛 1층 102호 (원동)","phone":"031-374-0360","openDate":"2020-06-29","longitude":127.0727361,"latitude":37.1367571},{"id":"JDU4MTI3MSM1MSMkMSMkMCMkMDMkNDgxMTkxIzExIyQxIyQ3IyQ3MiQzNjE0ODEjNDEjJDEjJDQjJDgz","name":"365열린큰약국","category":"약국","sido":"경기","sigungu":"성남수정구","address":"경기도 성남시 수정구 위례광장로 104, 위례 한화 오벨리스크 센트럴스퀘어 1층 1049,1050,1051호 (창곡동)","phone":"0507-1362-3665","openDate":"2022-08-16","longitude":127.1412642,"latitude":37.4730526},{"id":"JDU4MTI3MSM1MSMkMSMkMCMkMDMkNDgxMTkxIzUxIyQxIyQxIyQ3OSQzNjEwMDIjNjEjJDEjJDgjJDgz","name":"365영통탑약국","category":"약국","sido":"경기","sigungu":"수원영통구","address":"경기도 수원시 영통구 효원로 400, 레몬스포렉스 103-2호 (매탄동)","phone":"031-217-8230","openDate":"2023-11-16","longitude":127.0453787,"latitude":37.2580632},{"id":"JDU4MTI3MSM1MSMkMSMkMCMkMDMkNDgxMzUxIzExIyQxIyQzIyQ2MiQzNjEwMDIjNTEjJDEjJDYjJDgz","name":"365올바른약국","category":"약국","sido":"경기","sigungu":"안양만안구","address":"경기도 안양시 만안구 태평로52번길 21, 103호, 115호 (안양동)","phone":"031-464-7511","openDate":"2017-09-21","longitude":126.9304996,"latitude":37.39558},{"id":"JDU4MTI3MSM1MSMkMSMkMCMkMDMkNDgxNzAyIzIxIyQxIyQ5IyQ5OSQzNjEwMDIjNDEjJDEjJDgjJDgz","name":"365우리약국","category":"약국","sido":"경기","sigungu":"부천원미구","address":"경기도 부천시 원미구 석천로169번길 34, 파크리움 101호 (중동)","phone":"","openDate":"2024-12-23","longitude":126.7609176,"latitude":37.5030664},{"id":"JDU4MTI3MSM1MSMkMSMkMCMkMDMkNDgxMzUxIzMxIyQxIyQzIyQ3MiQyNjEyMjIjODEjJDEjJDIjJDgz","name":"365우리약국","category":"약국","sido":"경기","sigungu":"포천시","address":"경기도 포천시 일동면 화동로 1056, 1층층","phone":"031-533-6127","openDate":"2019-01-28","longitude":127.3178463,"latitude":37.9574766},{"id":"JDU4MTI3MSM1MSMkMSMkMCMkMDMkMzgxMTkxIzQxIyQxIyQ3IyQ3MiQyNjE4MzIjODEjJDEjJDIjJDgz","name":"365웰스팜약국","category":"약국","sido":"경기","sigungu":"남양주시","address":"경기도 남양주시 별내2로 64, (별내동)","phone":"070-8807-5777","openDate":"2014-05-21","longitude":127.124913,"latitude":37.6464376},{"id":"JDU4MTI3MSM1MSMkMSMkMCMkMDMkNDgxMTkxIzIxIyQxIyQ5IyQ5OSQyNjE4MzIjODEjJDEjJDYjJDgz","name":"365자연약국","category":"약국","sido":"경기","sigungu":"수원영통구","address":"경기도 수원시 영통구 덕영대로 1503, (영통동)","phone":"031-202-3696","openDate":"2017-05-22","longitude":127.0552294,"latitude":37.2461023},{"id":"JDU4MTI3MSM1MSMkMSMkMCMkMDMkNDgxMzUxIzExIyQxIyQ3IyQxMyQzNjE4MzIjNTEjJDEjJDIjJDgz","name":"365조은약국","category":"약국","sido":"경기","sigungu":"시흥시","address":"경기도 시흥시 목감중앙로 47, 골든프라자 101호 (조남동)","phone":"031-403-1178","openDate":"2018-02-19","longitude":126.8547879,"latitude":37.3735281},{"id":"JDQ4MTYyMiM1MSMkMSMkMCMkMDMkMzgxNzAyIzMxIyQxIyQzIyQ3OSQzNjEyMjIjNjEjJDEjJDgjJDgz","name":"365종로약국","category":"약국","sido":"경기","sigungu":"고양일산서구","address":"경기도 고양시 일산서구 일산로 530, 1층 모아프라자 (일산동)","phone":"031-921-5232","openDate":"2010-07-27","longitude":126.7691091,"latitude":37.6775177},{"id":"JDU4MTI3MSM1MSMkMSMkMCMkMDMkNDgxOTYxIzExIyQxIyQzIyQ5OSQyNjE4MzIjODEjJDEjJDIjJDgz","name":"365종로온누리약국","category":"약국","sido":"경기","sigungu":"남양주시","address":"경기도 남양주시 진접읍 해밀예당1로 221, 지안빌딩 101호","phone":"070-4228-4523","openDate":"2020-08-05","longitude":127.2027443,"latitude":37.7206568},{"id":"JDU4MTI3MSM1MSMkMSMkMCMkMDMkNDgxMTkxIzIxIyQxIyQxIyQwMyQzNjEyMjIjNjEjJDEjJDAjJDgz","name":"365진약국","category":"약국","sido":"경기","sigungu":"화성시","address":"경기도 화성시 봉담읍 상리중심상가길 28-8, 1층 111-112호","phone":"031-297-8335","openDate":"2024-04-12","longitude":126.9461,"latitude":37.2262484},{"id":"JDU4MTI3MSM1MSMkMSMkMCMkMDMkNDgxOTYxIzExIyQxIyQ3IyQ4OSQzNjEyMjIjNDEjJDEjJDgjJDgz","name":"365케어약국","category":"약국","sido":"경기","sigungu":"안양만안구","address":"경기도 안양시 만안구 관악대로 54, 105호 (안양동)","phone":"031-464-0320","openDate":"2024-03-14","longitude":126.9307263,"latitude":37.396787},{"id":"JDU4MTI3MSM1MSMkMSMkMCMkMDMkNDgxOTYxIzUxIyQxIyQ1IyQxMyQzNjE0ODEjNjEjJDEjJDAjJDgz","name":"365팜프라자약국","category":"약국","sido":"경기","sigungu":"남양주시","address":"경기도 남양주시 진접읍 광릉내로 17-1, 나동 1층 일부호","phone":"","openDate":"2021-06-30","longitude":127.1983553,"latitude":37.7424279},{"id":"JDU4MTI3MSM1MSMkMSMkMCMkMDMkNDgxOTYxIzUxIyQxIyQxIyQ2MiQyNjE0ODEjODEjJDEjJDYjJDgz","name":"365편한약국","category":"약국","sido":"경기","sigungu":"안산상록구","address":"경기도 안산시 상록구 샘골로 150, 동성빌딩 205호 (본오동)","phone":"031-407-1025","openDate":"2018-04-09","longitude":126.8633704,"latitude":37.2972191},{"id":"JDU4MTI3MSM1MSMkMSMkMCMkMDMkNDgxMTkxIzIxIyQxIyQxIyQwMyQyNjE4MzIjNDEjJDEjJDQjJDgz","name":"365하나로약국","category":"약국","sido":"경기","sigungu":"수원권선구","address":"경기도 수원시 권선구 곡반정로 121, 1층 (곡반정동)","phone":"031-8067-6676","openDate":"2022-11-25","longitude":127.0308933,"latitude":37.2389316},{"id":"JDU4MTI3MSM1MSMkMSMkMCMkMDMkNDgxMTkxIzExIyQxIyQ3IyQxMyQyNjE4MzIjNDEjJDEjJDgjJDgz","name":"365해피약국","category":"약국","sido":"경기","sigungu":"시흥시","address":"경기도 시흥시 산현마을길 56, 청담빌딩 1동 1층 101호 (산현동)","phone":"031-411-3655","openDate":"2022-09-19","longitude":126.8455128,"latitude":37.3764645},{"id":"JDU4MTI3MSM1MSMkMSMkMCMkMDMkNDgxMzUxIzExIyQyIyQzIyQwMCQyNjEwMDIjNTEjJDEjJDYjJDgz","name":"365행복약국","category":"약국","sido":"경기","sigungu":"시흥시","address":"경기도 시흥시 마유로418번길 18, 108호 (정왕동, 정왕프라자)","phone":"031-431-4691","openDate":"2017-09-12","longitude":126.7428973,"latitude":37.351203},{"id":"JDU4MTI3MSM1MSMkMSMkMCMkMDMkNDgxMzUxIzMxIyQxIyQzIyQwMyQ0NjE0ODEjODEjJDEjJDYjJDgz","name":"3층 온누리약국","category":"약국","sido":"경기","sigungu":"용인기흥구","address":"경기도 용인시 기흥구 기흥역로 63, 3층 (구갈동, 힐스테이트 기흥)","phone":"031-307-2882","openDate":"2019-03-04","longitude":127.1179654,"latitude":37.2747434},{"id":"JDU4MTI3MSM1MSMkMSMkMCMkMDMkNDgxMTkxIzExIyQxIyQzIyQ4OSQzNjEwMDIjNTEjJDEjJDIjJDgz","name":"3층365약국","category":"약국","sido":"경기","sigungu":"고양일산동구","address":"경기도 고양시 일산동구 중앙로1261번길 55, 효산캐슬 3층 306호 (장항동)","phone":"031-926-3069","openDate":"2021-08-30","longitude":126.7708662,"latitude":37.6575787},{"id":"JDU4MTI3MSM1MSMkMSMkMCMkMDMkNDgxMzUxIzUxIyQxIyQ1IyQ3MiQzNjEyMjIjNjEjJDEjJDgjJDgz","name":"3층메디칼약국","category":"약국","sido":"경기","sigungu":"성남분당구","address":"경기도 성남시 분당구 서현로 192, 304호 (서현동, 야베스벨리)","phone":"703-9241","openDate":"2006-04-03","longitude":127.1244293,"latitude":37.3877936},{"id":"JDU4MTI3MSM1MSMkMSMkMCMkMDMkMzgxMTkxIzIxIyQyIyQ1IyQwMCQ0NjEwMDIjNzEjJDEjJDgjJDgz","name":"3층사랑약국","category":"약국","sido":"경기","sigungu":"고양덕양구","address":"경기도 고양시 덕양구 무원로 63, 308호 (행신동, 무원마을10단지서광상가)","phone":"031-979-6991","openDate":"2013-03-21","longitude":126.8305345,"latitude":37.6184485},{"id":"JDU4MTI3MSM1MSMkMSMkMCMkMDMkNDgxNzAyIzIxIyQxIyQxIyQ4OSQyNjEyMjIjNjEjJDEjJDgjJDgz","name":"3층신동아약국","category":"약국","sido":"경기","sigungu":"시흥시","address":"경기도 시흥시 정왕대로 230, 3층 306호 (정왕동)","phone":"031-434-4588","openDate":"2012-09-28","longitude":126.7385084,"latitude":37.3449671},{"id":"JDU4MTI3MSM1MSMkMSMkMCMkMDMkNDgxNzAyIzExIyQxIyQzIyQ4MiQ0NjEwMDIjNzEjJDEjJDgjJDgz","name":"3층약국","category":"약국","sido":"경기","sigungu":"하남시","address":"경기도 하남시 덕풍동로 111-21, 덕풍동 744 케이앤몰 3층 302-1호 (덕풍동)","phone":"-","openDate":"2025-06-02","longitude":127.2076955,"latitude":37.5518097},{"id":"JDU4MTI3MSM1MSMkMSMkMCMkMDMkNDgxMTkxIzIxIyQxIyQ1IyQ4OSQyNjE4MzIjNjEjJDEjJDQjJDgz","name":"3층약국","category":"약국","sido":"경기","sigungu":"고양일산서구","address":"경기도 고양시 일산서구 킨텍스로 240, 304(일부)호 (대화동, 킨텍스 꿈에그린)","phone":"","openDate":"2020-05-20","longitude":126.7504499,"latitude":37.6659014},{"id":"JDU4MTI3MSM1MSMkMSMkMCMkMDMkNDgxMTkxIzIxIyQyIyQ5IyQwMCQ0NjEwMDIjNjEjJDEjJDQjJDgz","name":"3층온누리약국","category":"약국","sido":"경기","sigungu":"부천소사구","address":"경기도 부천시 소사구 경인로 190, 3층 303-2호 (심곡본동, 부천라비앙로제)","phone":"032-721-6506","openDate":"2022-05-25","longitude":126.7765215,"latitude":37.4834201},{"id":"JDU4MTI3MSM1MSMkMSMkMCMkMDMkNDgxOTYxIzUxIyQxIyQxIyQ2MiQzNjE0ODEjNDEjJDEjJDgjJDgz","name":"3층큰별약국","category":"약국","sido":"경기","sigungu":"안산상록구","address":"경기도 안산시 상록구 화랑로 513, 스타프라자 317호 (성포동)","phone":"031-483-7180","openDate":"2022-02-08","longitude":126.8446288,"latitude":37.3208543},{"id":"JDU4MTI3MSM1MSMkMSMkMCMkMDMkNDgxMzUxIzQxIyQxIyQ3IyQxMyQzNjE4MzIjNDEjJDEjJDgjJDgz","name":"3층행복약국","category":"약국","sido":"경기","sigungu":"성남분당구","address":"경기도 성남시 분당구 양현로94번길 19, 새남서울조합상가 3층 301호 (이매동)","phone":"031-701-1042","openDate":"2018-05-14","longitude":127.126182,"latitude":37.3911325},{"id":"JDU4MTI3MSM1MSMkMSMkNCMkMDMkMzgxMzUxIzExIyQxIyQzIyQ2MiQzNjE0ODEjNzEjJDEjJDgjJDgz","name":"4층 바로약국","category":"약국","sido":"경기","sigungu":"용인수지구","address":"경기도 용인시 수지구 풍덕천로 119, 로얄스포츠센터 401-1호 (풍덕천동)","phone":"031-264-8586","openDate":"2025-06-12","longitude":127.09494,"latitude":37.3230615},{"id":"JDU4MTI3MSM1MSMkMSMkMCMkMDMkNDgxMzUxIzExIyQxIyQ3IyQ5MiQzNjEwMDIjNDEjJDEjJDgjJDgz","name":"4층가까운약국","category":"약국","sido":"경기","sigungu":"안양동안구","address":"경기도 안양시 동안구 시민대로 202, 에메랄드빌딩 4층 402호 (호계동)","phone":"031-382-8248","openDate":"2021-05-20","longitude":126.9534525,"latitude":37.3914721},{"id":"JDU4MTI3MSM1MSMkMSMkMCMkMDMkMzgxMTkxIzIxIyQxIyQ1IyQ2MiQzNjEwMDIjNDEjJDEjJDgjJDgz","name":"4층바로약국","category":"약국","sido":"경기","sigungu":"성남분당구","address":"경기도 성남시 분당구 성남대로331번길 7, 정자스타빌딩 4층 402-1호 (정자동)","phone":"031-698-3188","openDate":"2025-02-17","longitude":127.1072126,"latitude":37.36546},{"id":"JDU4MTI3MSM1MSMkMSMkMCMkMDMkMzgxMTkxIzUxIyQyIyQxIyQwMCQzNjE0ODEjODEjJDEjJDIjJDgz","name":"4층새빛약국","category":"약국","sido":"경기","sigungu":"평택시","address":"경기도 평택시 신촌2로 22, B동 405호 (칠원동)","phone":"031-611-1655","openDate":"2022-08-08","longitude":127.1040567,"latitude":37.0260471},{"id":"JDU4MTI3MSM1MSMkMSMkMCMkMDMkNDgxMTkxIzUxIyQxIyQxIyQ2MiQ0NjE0ODEjNDEjJDEjJDQjJDgz","name":"4층샘약국","category":"약국","sido":"경기","sigungu":"광주시","address":"경기도 광주시 경안로 5, 젤존빌딩 4층 (경안동)","phone":"031-762-0703","openDate":"2023-07-05","longitude":127.2600444,"latitude":37.4099378},{"id":"JDU4MTI3MSM1MSMkMSMkMCMkMDMkNDgxMTkxIzExIyQxIyQ3IyQ5OSQyNjEwMDIjNTEjJDEjJDYjJDgz","name":"4층써니약국","category":"약국","sido":"경기","sigungu":"남양주시","address":"경기도 남양주시 도농로 29, 부영프라자 404-1호 (다산동)","phone":"031-555-0158","openDate":"2022-07-26","longitude":127.1568302,"latitude":37.6084434},{"id":"JDU4MTI3MSM1MSMkMSMkMCMkMDMkNDgxNzAyIzIxIyQxIyQxIyQ2MiQ0NjE0ODEjNzEjJDEjJDgjJDgz","name":"4층약국","category":"약국","sido":"경기","sigungu":"안양동안구","address":"경기도 안양시 동안구 흥안대로 527, 스타타워빌딩 406호 (관양동)","phone":"070-8211-1017","openDate":"2024-08-19","longitude":126.9761498,"latitude":37.4011365},{"id":"JDU4MTI3MSM1MSMkMSMkMCMkMDMkNDgxOTYxIzExIyQyIyQzIyQwMCQzNjEyMjIjNDEjJDEjJDQjJDgz","name":"4층약국","category":"약국","sido":"경기","sigungu":"부천원미구","address":"경기도 부천시 원미구 신흥로 223, 신중동역 랜드마크 푸르지오 시티 406호 (중동)","phone":"","openDate":"2024-03-19","longitude":126.7752269,"latitude":37.5040637},{"id":"JDU4MTI3MSM1MSMkMSMkMCMkMDMkNDgxMzUxIzMxIyQxIyQ3IyQ3OSQzNjE0ODEjNjEjJDEjJDAjJDgz","name":"4층코너약국","category":"약국","sido":"경기","sigungu":"성남분당구","address":"경기도 성남시 분당구 내정로166번길 43, 금산프라자빌딩 4층 407호 (수내동)","phone":"031-8023-9418","openDate":"2019-03-11","longitude":127.1226425,"latitude":37.3703464},{"id":"JDU4MTI3MSM1MSMkMSMkMCMkMDMkNDgxNzAyIzExIyQxIyQzIyQ3MiQzNjE4MzIjNTEjJDEjJDYjJDgz","name":"5층 온누리약국","category":"약국","sido":"경기","sigungu":"남양주시","address":"경기도 남양주시 화도읍 비룡로 58, 정길프라자 5층 503호","phone":"","openDate":"2024-04-25","longitude":127.3020098,"latitude":37.6572373},{"id":"JDU4MTI3MSM1MSMkMSMkMCMkMDMkNDgxOTYxIzExIyQxIyQ3IyQwMyQyNjE4MzIjODEjJDEjJDIjJDgz","name":"5층구구약국","category":"약국","sido":"경기","sigungu":"고양덕양구","address":"경기도 고양시 덕양구 화신로260번길 57, 요진타워 502호 (화정동)","phone":"031-811-8961","openDate":"2020-07-27","longitude":126.8327834,"latitude":37.6335929},{"id":"JDU4MTI3MSM1MSMkMSMkMCMkMDMkNDgxNzAyIzMxIyQxIyQzIyQ4MiQyNjEyMjIjNDEjJDEjJDgjJDgz","name":"5층약국","category":"약국","sido":"경기","sigungu":"동두천시","address":"경기도 동두천시 중앙로 126, 생연프라자 5층 (지행동)","phone":"031-867-5350","openDate":"2023-01-16","longitude":127.052538,"latitude":37.892772},{"id":"JDU4MTI3MSM1MSMkMSMkMCMkMDMkNDgxOTYxIzIxIyQxIyQ1IyQ3OSQzNjE0ODEjNDEjJDEjJDgjJDgz","name":"5층약국","category":"약국","sido":"경기","sigungu":"부천원미구","address":"경기도 부천시 원미구 상동로 90, 509호 (상동)","phone":"032-327-5525","openDate":"2014-05-16","longitude":126.7537185,"latitude":37.5051724},{"id":"JDQ4MTYyMiM1MSMkMSMkMCMkMDMkNTgxOTYxIzIxIyQxIyQxIyQ3OSQyNjEyMjIjNzEjJDEjJDgjJDgz","name":"5층우리약국","category":"약국","sido":"경기","sigungu":"용인수지구","address":"경기도 용인시 수지구 풍덕천로 149, 501호 (풍덕천동, 현대그린프라자)","phone":"031-896-2393","openDate":"2016-01-02","longitude":127.0975921,"latitude":37.3246176},{"id":"JDU4MTI3MSM1MSMkMSMkMCMkMDMkNDgxNzAyIzMxIyQxIyQzIyQ5OSQyNjE0ODEjNjEjJDEjJDgjJDgz","name":"5층조은약국","category":"약국","sido":"경기","sigungu":"성남분당구","address":"경기도 성남시 분당구 돌마로 75, 미금프라자 504일부호 (금곡동)","phone":"070-8800-4133","openDate":"2023-10-27","longitude":127.1104347,"latitude":37.350393},{"id":"JDU4MTI3MSM1MSMkMSMkMCMkMDMkMzgxMzUxIzUxIyQxIyQxIyQ3MiQzNjEyMjIjODEjJDEjJDIjJDgz","name":"5층종로약국","category":"약국","sido":"경기","sigungu":"성남분당구","address":"경기도 성남시 분당구 성남대로 926, 506호 (야탑동, 메트로빌딩)","phone":"031-781-3133","openDate":"2013-05-01","longitude":127.129292,"latitude":37.4125779},{"id":"JDU4MTI3MSM1MSMkMSMkMCMkMDMkNDgxNzAyIzMxIyQxIyQzIyQ4OSQ0NjE0ODEjNjEjJDEjJDAjJDgz","name":"6층 이화약국","category":"약국","sido":"경기","sigungu":"고양일산동구","address":"경기도 고양시 일산동구 장백로 194, 위너스21 605호 (장항동)","phone":"031-994-7425","openDate":"2025-02-26","longitude":126.7766844,"latitude":37.652094},{"id":"JDU4MTI3MSM1MSMkMSMkMCMkMDMkNDgxOTYxIzUxIyQxIyQ1IyQ5MiQ0NjEwMDIjNDEjJDEjJDgjJDgz","name":"6층성모약국","category":"약국","sido":"경기","sigungu":"안양동안구","address":"경기도 안양시 동안구 동안로 120, 610호 (호계동, 평촌스포츠센타)","phone":"031-476-8221","openDate":"2017-05-17","longitude":126.9522483,"latitude":37.3895612},{"id":"JDQ4MTYyMiM1MSMkMSMkMCMkMDMkMzgxNzAyIzIxIyQyIyQ5IyQwMCQzNjE4MzIjNDEjJDEjJDQjJDgz","name":"6층수약국","category":"약국","sido":"경기","sigungu":"부천원미구","address":"경기도 부천시 원미구 상동로 90, 메가플러스 6층 603호 일부호 (상동)","phone":"","openDate":"2024-05-01","longitude":126.7537185,"latitude":37.5051724},{"id":"JDU4MTI3MSM1MSMkMSMkMCMkMDMkNDgxMTkxIzIxIyQxIyQ5IyQ2MiQ0NjE0ODEjNjEjJDEjJDAjJDgz","name":"7층은약국","category":"약국","sido":"경기","sigungu":"안양동안구","address":"경기도 안양시 동안구 시민대로 175, 동안프라자빌딩 704-1호 (비산동)","phone":"031-383-2461","openDate":"2023-03-15","longitude":126.9504303,"latitude":37.3913538},{"id":"JDU4MTI3MSM1MSMkMSMkMCMkMDMkNDgxMzUxIzMxIyQxIyQzIyQxMyQzNjE4MzIjODEjJDEjJDIjJDgz","name":"9시약국","category":"약국","sido":"경기","sigungu":"부천오정구","address":"경기도 부천시 오정구 소사로 712, 1층 일부 (원종동)","phone":"032-227-0250","openDate":"2021-05-03","longitude":126.8051508,"latitude":37.5196033},{"id":"JDU4MTI3MSM1MSMkMSMkMCMkMDMkNDgxMTkxIzQxIyQyIyQ3IyQwMCQzNjEwMDIjNDEjJDEjJDgjJDgz","name":"DMC하나약국","category":"약국","sido":"경기","sigungu":"고양덕양구","address":"경기도 고양시 덕양구 향기4로 1, 중흥메디프라자 108호 (향동동)","phone":"070-4110-2582","openDate":"2023-10-04","longitude":126.8952168,"latitude":37.6006999},{"id":"JDQ4MTYyMiM1MSMkMSMkMCMkMDMkNDgxNzAyIzIxIyQxIyQ1IyQ3MiQzNjE0ODEjNjEjJDEjJDQjJDgz","name":"e편한약국","category":"약국","sido":"경기","sigungu":"안양만안구","address":"경기도 안양시 만안구 경수대로 1201, 211호 (석수동, 석수대림아파트상가)","phone":"031-471-2830","openDate":"2002-06-20","longitude":126.9141922,"latitude":37.4160358},{"id":"JDQ4MTYyMiM1MSMkMSMkMCMkMDMkNDgxNzAyIzExIyQxIyQzIyQwMyQ0NjEwMDIjODEjJDEjJDYjJDgz","name":"E-푸른약국","category":"약국","sido":"경기","sigungu":"수원권선구","address":"경기도 수원시 권선구 덕영대로 1205, 103호 (권선동, 미래타운)","phone":"031-225-5384","openDate":"2002-12-05","longitude":127.0225258,"latitude":37.249256},{"id":"JDQ4MTYyMiM1MSMkMSMkMCMkMDMkNDgxNzAyIzMxIyQxIyQzIyQ3MiQzNjE0ODEjODEjJDEjJDIjJDgz","name":"GS약국","category":"약국","sido":"경기","sigungu":"평택시","address":"경기도 평택시 관광특구로 31, (서정동)","phone":"031-667-6564","openDate":"2007-01-25","longitude":127.0625582,"latitude":37.0671053},{"id":"JDU4MTI3MSM1MSMkMSMkMCMkMDMkNDgxOTYxIzQxIyQxIyQ3IyQxMyQyNjEwMDIjNzEjJDEjJDgjJDgz","name":"J정약국","category":"약국","sido":"경기","sigungu":"성남분당구","address":"경기도 성남시 분당구 느티로 16, 102호 (정자동, 젤존타워1)","phone":"031-712-5756","openDate":"2016-03-22","longitude":127.1063065,"latitude":37.3681714},{"id":"JDU4MTI3MSM1MSMkMSMkMCMkMDMkNDgxMzUxIzIxIyQxIyQxIyQ5MiQyNjE0ODEjNzEjJDEjJDgjJDgz","name":"K마트약국","category":"약국","sido":"경기","sigungu":"남양주시","address":"경기도 남양주시 늘을1로 286, 107호 (호평동)","phone":"031-595-4703","openDate":"2018-04-24","longitude":127.2549564,"latitude":37.655596},{"id":"JDQ4MTYyMiM1MSMkMSMkMCMkMDMkNTgxMzUxIzMxIyQxIyQzIyQ4MiQzNjEyMjIjNzEjJDEjJDgjJDgz","name":"LG청룡약국","category":"약국","sido":"경기","sigungu":"안양만안구","address":"경기도 안양시 만안구 연현로79번길 41, 석수 엘지 빌리지 상가동 534동 101,102호 (석수동)","phone":"031-472-4487","openDate":"1993-04-02","longitude":126.9014835,"latitude":37.4305266},{"id":"JDU4MTI3MSM1MSMkMSMkMCMkMDMkMzgxNzAyIzMxIyQyIyQzIyQwMCQyNjEwMDIjNDEjJDEjJDQjJDgz","name":"SK오렌지약국","category":"약국","sido":"경기","sigungu":"수원장안구","address":"경기도 수원시 장안구 이목로 24-3, 1층 109호 (정자동)","phone":"031-271-3260","openDate":"2016-04-18","longitude":126.9847596,"latitude":37.3096625},{"id":"JDU4MTI3MSM1MSMkMSMkMCMkMDMkMzgxNzAyIzUxIyQxIyQ1IyQ3MiQyNjE4MzIjNjEjJDEjJDgjJDgz","name":"The나은약국","category":"약국","sido":"경기","sigungu":"안양동안구","address":"경기도 안양시 동안구 부림로 188, 1층 104호 (관양동, 청용빌딩)","phone":"031-421-4613","openDate":"2017-06-27","longitude":126.9616111,"latitude":37.3996758},{"id":"JDU4MTI3MSM1MSMkMSMkMCMkMDMkNDgxOTYxIzQxIyQxIyQ3IyQ2MiQyNjE0ODEjNTEjJDEjJDIjJDgz","name":"THE맑은약국","category":"약국","sido":"경기","sigungu":"수원영통구","address":"경기도 수원시 영통구 덕영대로 1478, 망포역 포레 스퀘어 1층 119호 (망포동)","phone":"031-204-1119","openDate":"2021-11-22","longitude":127.0524779,"latitude":37.2451633},{"id":"JDU4MTI3MSM1MSMkMSMkMCMkMDMkNDgxOTYxIzMxIyQxIyQzIyQ3OSQzNjE4MzIjODEjJDEjJDIjJDgz","name":"U1스마트약국","category":"약국","sido":"경기","sigungu":"하남시","address":"경기도 하남시 하남대로 947, 하남테크노밸리 U1 CENTER 104호 (풍산동)","phone":"031-5180-3525","openDate":"2021-04-19","longitude":127.1936317,"latitude":37.545888},{"id":"JDU4MTI3MSM1MSMkMSMkMCMkMDMkNDgxMzUxIzUxIyQyIyQ1IyQwMCQzNjEwMDIjNTEjJDEjJDYjJDgz","name":"가가호호백세약국","category":"약국","sido":"경기","sigungu":"성남수정구","address":"경기도 성남시 수정구 수정로171번길 21, 1층 (태평동)","phone":"031-751-5222","openDate":"2019-12-17","longitude":127.1379932,"latitude":37.4446824},{"id":"JDU4MTI3MSM1MSMkMSMkMCMkMDMkMzgxOTYxIzQxIyQxIyQ3IyQ2MiQzNjEwMDIjNDEjJDEjJDgjJDgz","name":"가까운 광명약국","category":"약국","sido":"경기","sigungu":"광명시","address":"경기도 광명시 덕안로104번길 17, B126호 (일직동)","phone":"02-6676-4600","openDate":"2022-03-16","longitude":126.8870632,"latitude":37.4242146},{"id":"JDU4MTI3MSM1MSMkMSMkMCMkMDMkNDgxNzAyIzIxIyQxIyQ1IyQ5MiQzNjE4MzIjNzEjJDEjJDgjJDgz","name":"가까운 약국","category":"약국","sido":"경기","sigungu":"파주시","address":"경기도 파주시 문산읍 방촌로 1675-22, (문산읍)","phone":"031-952-5700","openDate":"2023-05-04","longitude":126.7814589,"latitude":37.8641825},{"id":"JDU4MTI3MSM1MSMkMSMkMCMkMDMkMzgxMzUxIzQxIyQxIyQ3IyQ3MiQzNjEyMjIjNDEjJDEjJDgjJDgz","name":"가까운 정문 약국","category":"약국","sido":"경기","sigungu":"안성시","address":"경기도 안성시 남파로 99, 1층 (당왕동)","phone":"031-674-7789","openDate":"2019-04-29","longitude":127.2612708,"latitude":37.0165473},{"id":"JDU4MTI3MSM1MSMkMSMkMCMkMDMkNDgxMTkxIzExIyQyIyQ3IyQwMCQyNjE0ODEjNTEjJDEjJDIjJDgz","name":"가까운대학 약국","category":"약국","sido":"경기","sigungu":"성남분당구","address":"경기도 성남시 분당구 돌마로 169, 더샵 분당파크리버 201동 B104,104,105,106호 (정자동)","phone":"031-712-5617","openDate":"2022-08-01","longitude":127.1176954,"latitude":37.3546675},{"id":"JDU4MTI3MSM1MSMkMSMkMCMkMDMkNDgxMzUxIzMxIyQxIyQzIyQ4OSQ0NjE0ODEjODEjJDEjJDIjJDgz","name":"가까운대학약국","category":"약국","sido":"경기","sigungu":"이천시","address":"경기도 이천시 영창로 108, 1층 101-103호 (관고동, 이천 벽산블루밍아파트)","phone":"031-634-1102","openDate":"2018-12-26","longitude":127.4351431,"latitude":37.2828753},{"id":"JDU4MTI3MSM1MSMkMSMkMCMkMDMkMzgxNzAyIzUxIyQxIyQxIyQ2MiQzNjE4MzIjNjEjJDEjJDQjJDgz","name":"가까운독수리약국","category":"약국","sido":"경기","sigungu":"용인기흥구","address":"경기도 용인시 기흥구 동백죽전대로 333, 지4층 108,109호 (중동, 스프링카운티자이)","phone":"031-286-5505","openDate":"2020-03-03","longitude":127.1487474,"latitude":37.2694563},{"id":"JDU4MTI3MSM1MSMkMSMkMCMkMDMkNDgxMTkxIzIxIyQxIyQ5IyQwMyQzNjEwMDIjODEjJDEjJDYjJDgz","name":"가까운상생약국","category":"약국","sido":"경기","sigungu":"성남분당구","address":"경기도 성남시 분당구 서현로180번길 19, 비전월드 1층 101-13호 (서현동)","phone":"031-702-8276","openDate":"2023-04-05","longitude":127.1224588,"latitude":37.3873372},{"id":"JDU4MTI3MSM1MSMkMSMkMCMkMDMkNDgxOTYxIzExIyQxIyQ3IyQ3OSQyNjEwMDIjNTEjJDEjJDYjJDgz","name":"가까운성모약국","category":"약국","sido":"경기","sigungu":"수원팔달구","address":"경기도 수원시 팔달구 중부대로87번길 6, 1층 (지동)","phone":"031-258-2161","openDate":"2020-04-29","longitude":127.0262502,"latitude":37.2768008},{"id":"JDU4MTI3MSM1MSMkMSMkMCMkMDMkNDgxNzAyIzExIyQxIyQzIyQ5OSQ0NjEwMDIjODEjJDEjJDIjJDgz","name":"가까운약국","category":"약국","sido":"경기","sigungu":"용인처인구","address":"경기도 용인시 처인구 명지로40번길 15-9, 유니버스트윈1 109,110호 (역북동)","phone":"031-328-0325","openDate":"2024-04-08","longitude":127.1867456,"latitude":37.231613},{"id":"JDQ4MTYyMiM1MSMkMSMkMCMkMDMkNTgxMzUxIzMxIyQxIyQ3IyQ3MiQyNjEwMDIjNjEjJDEjJDQjJDgz","name":"가까운약국","category":"약국","sido":"경기","sigungu":"김포시","address":"경기도 김포시 돌문로 98, (사우동)","phone":"031-984-4117","openDate":"2016-05-13","longitude":126.7132665,"latitude":37.6220234},{"id":"JDQ4MTYyMiM1MSMkMSMkMCMkMDMkNTgxOTYxIzMxIyQxIyQzIyQ2MiQzNjEwMDIjNDEjJDEjJDQjJDgz","name":"가까운약국","category":"약국","sido":"경기","sigungu":"고양일산동구","address":"경기도 고양시 일산동구 강송로 49, 102호 (백석동, 윈스턴파크아이)","phone":"031-901-7939","openDate":"2005-06-10","longitude":126.7920834,"latitude":37.6448507},{"id":"JDQ4MTYyMiM1MSMkMSMkMCMkMDMkNDgxNzAyIzIxIyQxIyQ1IyQ4MiQyNjE0ODEjNDEjJDEjJDQjJDgz","name":"가까운약국","category":"약국","sido":"경기","sigungu":"양주시","address":"경기도 양주시 화합로 1493, 메디타운 103호 (고암동)","phone":"031-867-7577","openDate":"2021-06-28","longitude":127.0733345,"latitude":37.8378239},{"id":"JDU4MTI3MSM1MSMkMSMkMCMkMDMkMzgxMzUxIzIxIyQxIyQ1IyQ3MiQzNjE0ODEjNDEjJDEjJDQjJDgz","name":"가까운약국","category":"약국","sido":"경기","sigungu":"성남분당구","address":"경기도 성남시 분당구 돌마로 68, 403-1호 (구미동, 분당프라자)","phone":"031-712-7300","openDate":"2010-02-05","longitude":127.1095409,"latitude":37.3496446},{"id":"JDU4MTI3MSM1MSMkMSMkMCMkMDMkNDgxOTYxIzIxIyQxIyQxIyQ2MiQyNjEyMjIjNzEjJDEjJDgjJDgz","name":"가까운약국","category":"약국","sido":"경기","sigungu":"화성시","address":"경기도 화성시 남양읍 남양로920번길 8-10, 105호","phone":"031-356-0506","openDate":"2021-02-23","longitude":126.8327095,"latitude":37.2171015},{"id":"JDU4MTI3MSM1MSMkMSMkMCMkMDMkMzgxNzAyIzMxIyQxIyQzIyQ5MiQzNjEyMjIjNDEjJDEjJDQjJDgz","name":"가까운약국","category":"약국","sido":"경기","sigungu":"안양만안구","address":"경기도 안양시 만안구 안양로 225, 지하1층 (안양동, KT서안양지점)","phone":"031-468-5566","openDate":"2016-06-13","longitude":126.925477,"latitude":37.3933866},{"id":"JDU4MTI3MSM1MSMkMSMkMCMkMDMkNDgxMzUxIzExIyQxIyQzIyQ4MiQyNjEyMjIjNTEjJDEjJDYjJDgz","name":"가까운약국","category":"약국","sido":"경기","sigungu":"군포시","address":"경기도 군포시 번영로 515, 112호 (산본동, 유화프라자빌딩)","phone":"031-395-7586","openDate":"2017-10-10","longitude":126.933713,"latitude":37.3590834},{"id":"JDU4MTI3MSM1MSMkMSMkMCMkMDMkNDgxMzUxIzExIyQxIyQzIyQ4MiQzNjE4MzIjNjEjJDEjJDAjJDgz","name":"가까운약국","category":"약국","sido":"경기","sigungu":"이천시","address":"경기도 이천시 장호원읍 서동대로 8787, (장호원읍)","phone":"031-641-8077","openDate":"2017-09-29","longitude":127.6116983,"latitude":37.115498},{"id":"JDU4MTI3MSM1MSMkMSMkMCMkMDMkMzgxMTkxIzQxIyQxIyQ3IyQ5OSQyNjE0ODEjNDEjJDEjJDgjJDgz","name":"가까운온누리약국","category":"약국","sido":"경기","sigungu":"안산단원구","address":"경기도 안산시 단원구 광덕대로 181, BYC빌딩 1층 (고잔동)","phone":"031-411-7823","openDate":"2018-01-02","longitude":126.8293298,"latitude":37.3128046},{"id":"JDU4MTI3MSM1MSMkMSMkMCMkMDMkMzgxOTYxIzMxIyQyIyQzIyQwMCQzNjEwMDIjNDEjJDEjJDgjJDgz","name":"가까운정문약국","category":"약국","sido":"경기","sigungu":"의정부시","address":"경기도 의정부시 동일로 725, 105,106호 (금오동)","phone":"031-848-8119","openDate":"2021-10-05","longitude":127.0495709,"latitude":37.7511279},{"id":"JDU4MTI3MSM1MSMkMSMkMCMkMDMkNDgxOTYxIzExIyQxIyQ3IyQ4OSQyNjEyMjIjODEjJDEjJDYjJDgz","name":"가까운천사약국","category":"약국","sido":"경기","sigungu":"수원팔달구","address":"경기도 수원시 팔달구 중부대로106번길 5, 2층 (인계동)","phone":"031-226-2004","openDate":"2020-05-08","longitude":127.0282478,"latitude":37.2774207},{"id":"JDQ4MTYyMiM1MSMkMSMkMCMkMDMkNDgxNzAyIzIxIyQxIyQxIyQ4OSQzNjEwMDIjODEjJDEjJDIjJDgz","name":"가까운태평양약국","category":"약국","sido":"경기","sigungu":"성남수정구","address":"경기도 성남시 수정구 수정로171번길 17-1, 1층 일부호 (태평동)","phone":"031-752-8020","openDate":"2019-11-29","longitude":127.1381905,"latitude":37.4443013},{"id":"JDQ4MTYyMiM1MSMkMSMkMCMkMDMkNDgxMTkxIzExIyQxIyQzIyQ2MiQyNjEyMjIjNzEjJDEjJDgjJDgz","name":"가나다약국","category":"약국","sido":"경기","sigungu":"수원권선구","address":"경기도 수원시 권선구 매송고색로 716, 1층 (고색동)","phone":"031-297-1717","openDate":"1998-05-06","longitude":126.9827913,"latitude":37.2511185},{"id":"JDU4MTI3MSM1MSMkMSMkMCMkMDMkNDgxMzUxIzMxIyQxIyQzIyQ3MiQyNjEwMDIjNDEjJDEjJDQjJDgz","name":"가나안약국","category":"약국","sido":"경기","sigungu":"의왕시","address":"경기도 의왕시 원골로 39, 모락산현대아파트 상가1 104,105호 (오전동)","phone":"455-5782","openDate":"2004-03-02","longitude":126.968954,"latitude":37.3607211},{"id":"JDQ4MTYyMiM1MSMkMSMkMCMkMDMkMzgxOTYxIzExIyQxIyQzIyQ4MiQyNjE4MzIjNTEjJDEjJDIjJDgz","name":"가나안약국","category":"약국","sido":"경기","sigungu":"화성시","address":"경기도 화성시 동탄순환대로3길 5-18, (송동)","phone":"","openDate":"2024-11-18","longitude":127.0947703,"latitude":37.1654431},{"id":"JDU4MTI3MSM1MSMkMSMkMCMkMDMkNDgxNzAyIzIxIyQxIyQxIyQ5MiQzNjE0ODEjNjEjJDEjJDgjJDgz","name":"가나안약국","category":"약국","sido":"경기","sigungu":"부천원미구","address":"경기도 부천시 원미구 부천로 30, 1층 (심곡동)","phone":"032-652-7582","openDate":"2014-02-17","longitude":126.7835532,"latitude":37.4868195},{"id":"JDQ4MTYyMiM1MSMkMSMkMCMkMDMkMzgxNzAyIzExIyQxIyQzIyQ3MiQzNjEyMjIjNDEjJDEjJDgjJDgz","name":"가나약국","category":"약국","sido":"경기","sigungu":"고양일산서구","address":"경기도 고양시 일산서구 중앙로 1449, 108호 (주엽동, 효원빌딩)","phone":"031-912-2627","openDate":"2000-11-21","longitude":126.7591814,"latitude":37.6706498},{"id":"JDU4MTI3MSM1MSMkMSMkMCMkMDMkNDgxOTYxIzUxIyQxIyQxIyQ5OSQyNjE0ODEjNjEjJDEjJDAjJDgz","name":"가나약국","category":"약국","sido":"경기","sigungu":"하남시","address":"경기도 하남시 미사강변대로 84, 미사탑프라자 110호 (풍산동)","phone":"796-0095","openDate":"2018-02-05","longitude":127.1879984,"latitude":37.5574071},{"id":"JDU4MTI3MSM1MSMkMSMkMCMkMDMkMzgxNzAyIzExIyQxIyQ3IyQwMyQ0NjEwMDIjNjEjJDEjJDgjJDgz","name":"가나약국","category":"약국","sido":"경기","sigungu":"용인기흥구","address":"경기도 용인시 기흥구 구성3로28번길 24, 105호 (청덕동, 가나프라자1차)","phone":"031-693-8543","openDate":"2011-07-01","longitude":127.1521398,"latitude":37.2955662},{"id":"JDU4MTI3MSM1MSMkMSMkMCMkMDMkMzgxMzUxIzUxIyQxIyQ1IyQwMyQyNjEyMjIjNTEjJDEjJDYjJDgz","name":"가남 프라자약국","category":"약국","sido":"경기","sigungu":"여주시","address":"경기도 여주시 가남읍 태평2길 33, 1층","phone":"031-881-3573","openDate":"2019-12-18","longitude":127.544715,"latitude":37.204053},{"id":"JDQ4MTYyMiM1MSMkMSMkMCMkMDMkMzgxNzAyIzExIyQxIyQ3IyQ5OSQzNjEyMjIjNjEjJDEjJDQjJDgz","name":"가능하주약국","category":"약국","sido":"경기","sigungu":"의정부시","address":"경기도 의정부시 호국로 1127, 1층 (가능동)","phone":"031-875-7775","openDate":"2004-01-09","longitude":127.0290148,"latitude":37.7428527},{"id":"JDQ4MTYyMiM1MSMkMSMkMCMkMDMkNTgxOTYxIzIxIyQxIyQ5IyQ5MiQyNjEyMjIjNDEjJDEjJDgjJDgz","name":"가람약국","category":"약국","sido":"경기","sigungu":"남양주시","address":"경기도 남양주시 도농로 1, (다산동)","phone":"031-557-5050","openDate":"2010-01-11","longitude":127.157235,"latitude":37.6061198},{"id":"JDU4MTI3MSM1MSMkMSMkMCMkMDMkNDgxNzAyIzMxIyQxIyQzIyQ5MiQzNjE4MzIjNDEjJDEjJDQjJDgz","name":"가람약국","category":"약국","sido":"경기","sigungu":"고양일산서구","address":"경기도 고양시 일산서구 킨텍스로 255, 일산 디엠시티 스카이뷰 139호 (대화동)","phone":"031-917-7720","openDate":"2022-02-11","longitude":126.7495581,"latitude":37.6691415},{"id":"JDQ4MTYyMiM1MSMkMSMkMCMkMDMkMzgxNzAyIzMxIyQxIyQzIyQxMyQzNjE0ODEjNjEjJDEjJDQjJDgz","name":"가람약국","category":"약국","sido":"경기","sigungu":"용인수지구","address":"경기도 용인시 수지구 만현로 88, (상현동, 상현종합상가201-2호)","phone":"031-266-9460","openDate":"2007-04-26","longitude":127.0853324,"latitude":37.3089181},{"id":"JDU4MTI3MSM1MSMkMSMkMCMkMDMkMzgxOTYxIzIxIyQxIyQ5IyQxMyQ0NjE0ODEjNTEjJDEjJDYjJDgz","name":"가람약국","category":"약국","sido":"경기","sigungu":"화성시","address":"경기도 화성시 동탄대로시범길 134, 판매시설 1128호,1129호 (청계동, 시범 반도유보라 아이비파크4.0)","phone":"031-377-7674","openDate":"2016-04-04","longitude":127.1142338,"latitude":37.1992157},{"id":"JDU4MTI3MSM1MSMkMSMkMCMkMDMkNDgxMzUxIzExIyQxIyQzIyQxMyQzNjE4MzIjNjEjJDEjJDgjJDgz","name":"가람약국","category":"약국","sido":"경기","sigungu":"김포시","address":"경기도 김포시 고촌읍 김포대로 327, 102호","phone":"031-986-2717","openDate":"2017-11-08","longitude":126.7711041,"latitude":37.6000232},{"id":"JDQ4MTYyMiM1MSMkMSMkMCMkMDMkMzgxMTkxIzIxIyQxIyQ1IyQ4OSQzNjE4MzIjNTEjJDEjJDYjJDgz","name":"가래비약국","category":"약국","sido":"경기","sigungu":"양주시","address":"경기도 양주시 광적면 가래비길 87, (광적면)","phone":"031-836-3882","openDate":"1989-04-18","longitude":126.984188,"latitude":37.8239807},{"id":"JDU4MTI3MSM1MSMkMSMkMCMkMDMkMzgxMzUxIzQxIyQxIyQ3IyQwMyQzNjEwMDIjNjEjJDEjJDQjJDgz","name":"가래비태평양약국","category":"약국","sido":"경기","sigungu":"양주시","address":"경기도 양주시 광적면 광적로 4, (광적면)","phone":"031-876-8734","openDate":"2010-12-03","longitude":126.9852845,"latitude":37.820044},{"id":"JDQ4MTYyMiM1MSMkMSMkMCMkMDMkMzgxMzUxIzIxIyQxIyQ1IyQ2MiQyNjE0ODEjNzEjJDEjJDgjJDgz","name":"가림약국","category":"약국","sido":"경기","sigungu":"부천원미구","address":"경기도 부천시 원미구 조마루로 233, 102호 (중동, 미리내마을상가)","phone":"032-322-8409","openDate":"1993-03-17","longitude":126.7699036,"latitude":37.4985022},{"id":"JDU4MTI3MSM1MSMkMSMkMCMkMDMkMzgxMTkxIzIxIyQxIyQ5IyQ5OSQzNjEyMjIjNDEjJDEjJDgjJDgz","name":"가온약국","category":"약국","sido":"경기","sigungu":"오산시","address":"경기도 오산시 수청로 199, 정원프라자 102호 (금암동)","phone":"","openDate":"2022-06-20","longitude":127.0448233,"latitude":37.1764456},{"id":"JDU4MTI3MSM1MSMkMSMkNCMkMDMkMzgxMzUxIzExIyQxIyQzIyQ2MiQyNjE4MzIjODEjJDEjJDYjJDgz","name":"가온약국","category":"약국","sido":"경기","sigungu":"광명시","address":"경기도 광명시 광명로 817, 백석빌딩 1층 일부호 (광명동)","phone":"02-2613-9813","openDate":"2025-06-12","longitude":126.8508511,"latitude":37.4725099},{"id":"JDQ4MTYyMiM1MSMkMSMkMCMkMDMkNDgxMzUxIzMxIyQyIyQ3IyQwMCQyNjE4MzIjNjEjJDEjJDQjJDgz","name":"가온약국","category":"약국","sido":"경기","sigungu":"의왕시","address":"경기도 의왕시 봇들로 40, 103호 (포일동, 포일프라자)","phone":"031-421-3939","openDate":"2012-06-27","longitude":126.9852821,"latitude":37.3964133},{"id":"JDU4MTI3MSM1MSMkMSMkMCMkMDMkMzgxNzAyIzMxIyQxIyQ3IyQxMyQ0NjE0ODEjNzEjJDEjJDgjJDgz","name":"가온약국","category":"약국","sido":"경기","sigungu":"고양덕양구","address":"경기도 고양시 덕양구 중앙로 442, 아성프라자 107호 (행신동)","phone":"070-4187-0607","openDate":"2021-03-02","longitude":126.846051,"latitude":37.6182356},{"id":"JDU4MTI3MSM1MSMkMSMkMCMkMDMkMzgxMzUxIzExIyQxIyQ3IyQ5MiQzNjE4MzIjNjEjJDEjJDgjJDgz","name":"가온온누리약국","category":"약국","sido":"경기","sigungu":"파주시","address":"경기도 파주시 와석순환로 431, 106호 (와동동, 신운정프라자)","phone":"031-947-1577","openDate":"2012-02-24","longitude":126.7531823,"latitude":37.7236492},{"id":"JDU4MTI3MSM1MSMkMSMkMCMkMDMkMzgxOTYxIzUxIyQxIyQ1IyQ4OSQyNjE0ODEjNDEjJDEjJDgjJDgz","name":"가운이층약국","category":"약국","sido":"경기","sigungu":"남양주시","address":"경기도 남양주시 경춘로 368, 203호 (다산동, 브릭스타워)","phone":"031-564-0818","openDate":"2016-10-06","longitude":127.1556209,"latitude":37.6046106},{"id":"JDQ4MTYyMiM1MSMkMSMkMCMkMDMkNDgxMTkxIzMxIyQxIyQzIyQ4MiQyNjE4MzIjNDEjJDEjJDgjJDgz","name":"가은약국","category":"약국","sido":"경기","sigungu":"고양일산서구","address":"경기도 고양시 일산서구 탄중로233번길 25, 105호 (탄현동, 외 1필지 양우프라자)","phone":"031-906-6039","openDate":"1999-12-01","longitude":126.7704113,"latitude":37.6946301},{"id":"JDQ4MTYyMiM1MSMkMSMkMCMkMDMkNTgxOTYxIzMxIyQxIyQzIyQ5MiQyNjEwMDIjODEjJDEjJDYjJDgz","name":"가자크린팜대학약국","category":"약국","sido":"경기","sigungu":"성남분당구","address":"경기도 성남시 분당구 금곡로 233, 101,102호 (금곡동, 청솔마을 동아A상가동)","phone":"712-4168","openDate":"2005-06-28","longitude":127.1154112,"latitude":37.3535029},{"id":"JDU4MTI3MSM1MSMkMSMkMCMkMDMkNDgxOTYxIzMxIyQxIyQzIyQ5OSQ0NjEwMDIjODEjJDEjJDYjJDgz","name":"가정약국","category":"약국","sido":"경기","sigungu":"고양덕양구","address":"경기도 고양시 덕양구 으뜸로 90, 상가동 1층 178호 (덕은동)","phone":"02-3159-0616","openDate":"2024-08-27","longitude":126.8665496,"latitude":37.5787805},{"id":"JDU4MTI3MSM1MSMkMSMkMCMkMDMkNDgxMzUxIzUxIyQxIyQxIyQ4MiQzNjE0ODEjNDEjJDEjJDgjJDgz","name":"가정약국","category":"약국","sido":"경기","sigungu":"용인수지구","address":"경기도 용인시 수지구 성복2로 92, (성복동)","phone":"031-263-1203","openDate":"2019-10-10","longitude":127.0759637,"latitude":37.3155207},{"id":"JDQ4MTYyMiM1MSMkMSMkMCMkMDMkMzgxNzAyIzIxIyQxIyQ5IyQ2MiQyNjE4MzIjNjEjJDEjJDAjJDgz","name":"가족사랑약국","category":"약국","sido":"경기","sigungu":"구리시","address":"경기도 구리시 체육관로74번길 80, 106호 (수택동, 럭키상가)","phone":"031-5510-112","openDate":"2011-09-19","longitude":127.1426736,"latitude":37.5912614},{"id":"JDQ4MTYyMiM1MSMkMSMkMCMkMDMkNDgxMzUxIzUxIyQxIyQ1IyQwMyQyNjEyMjIjNTEjJDEjJDIjJDgz","name":"가족약국","category":"약국","sido":"경기","sigungu":"양주시","address":"경기도 양주시 평화로 1426, (덕계동)","phone":"031-861-8288","openDate":"2017-07-19","longitude":127.0462927,"latitude":37.8181225},{"id":"JDU4MTI3MSM1MSMkMSMkMCMkMDMkNDgxNzAyIzIxIyQxIyQxIyQ4OSQ0NjE0ODEjNjEjJDEjJDQjJDgz","name":"가톨릭 성모약국","category":"약국","sido":"경기","sigungu":"의정부시","address":"경기도 의정부시 금오로 119, (금오동)","phone":"031-821-8275","openDate":"2002-03-05","longitude":127.0783932,"latitude":37.7572779},{"id":"JDU4MTI3MSM1MSMkMSMkMCMkMDMkNDgxOTYxIzExIyQxIyQ3IyQ5OSQyNjE0ODEjNDEjJDEjJDQjJDgz","name":"가톨릭건강약국","category":"약국","sido":"경기","sigungu":"수원팔달구","address":"경기도 수원시 팔달구 중부대로 98, (인계동)","phone":"031-239-1832","openDate":"2018-11-01","longitude":127.0273577,"latitude":37.2768869},{"id":"JDU4MTI3MSM1MSMkMSMkMCMkMDMkNDgxMzUxIzUxIyQyIyQxIyQwMCQ0NjE0ODEjNDEjJDEjJDgjJDgz","name":"가톨릭보령당약국","category":"약국","sido":"경기","sigungu":"수원팔달구","address":"경기도 수원시 팔달구 중부대로 94-5, (인계동, 대성빌딩)","phone":"031-239-0611","openDate":"2011-02-23","longitude":127.0272865,"latitude":37.2765929},{"id":"JDU4MTI3MSM1MSMkMSMkMCMkMDMkNDgxOTYxIzExIyQxIyQzIyQ4MiQyNjE4MzIjNzEjJDEjJDgjJDgz","name":"가톨릭약국","category":"약국","sido":"경기","sigungu":"수원팔달구","address":"경기도 수원시 팔달구 중부대로 94, 1층 (인계동, 성웅빌딩)","phone":"031-234-2161","openDate":"2008-11-20","longitude":127.0269673,"latitude":37.2765475},{"id":"JDU4MTI3MSM1MSMkMSMkMCMkMDMkMzgxMTkxIzMxIyQxIyQ3IyQxMyQzNjEwMDIjNzEjJDEjJDgjJDgz","name":"가평온누리약국","category":"약국","sido":"경기","sigungu":"가평군","address":"경기도 가평군 가평읍 가화로 113, (가평읍)","phone":"031-581-8777","openDate":"2014-03-20","longitude":127.5133558,"latitude":37.8297476},{"id":"JDQ4MTYyMiM1MSMkMSMkMCMkMDMkNDgxMzUxIzIxIyQxIyQxIyQ5MiQzNjEwMDIjNjEjJDEjJDQjJDgz","name":"가평중앙약국","category":"약국","sido":"경기","sigungu":"가평군","address":"경기도 가평군 가평읍 연인1길 1, 임내과의원 1층","phone":"031-581-7522","openDate":"2018-08-31","longitude":127.5136658,"latitude":37.829367},{"id":"JDQ4MTYyMiM1MSMkMSMkMCMkMDMkMzgxMTkxIzIxIyQxIyQ5IyQ5OSQyNjEwMDIjODEjJDEjJDIjJDgz","name":"가화약국","category":"약국","sido":"경기","sigungu":"군포시","address":"경기도 군포시 군포로 444, 101호 (당동, 서일빌딩)","phone":"031-394-1659","openDate":"1986-08-18","longitude":126.9424432,"latitude":37.3461988},{"id":"JDU4MTI3MSM1MSMkMSMkMCMkMDMkMzgxMTkxIzMxIyQxIyQ3IyQxMyQzNjEyMjIjNjEjJDEjJDQjJDgz","name":"갈매365약국","category":"약국","sido":"경기","sigungu":"구리시","address":"경기도 구리시 갈매중앙로 83, 107호 (갈매동)","phone":"031-527-3691","openDate":"2017-12-01","longitude":127.1172915,"latitude":37.6320766},{"id":"JDU4MTI3MSM1MSMkMSMkMCMkMDMkNDgxMzUxIzUxIyQxIyQ1IyQ4OSQzNjE0ODEjNDEjJDEjJDgjJDgz","name":"갈매도움온누리약국","category":"약국","sido":"경기","sigungu":"구리시","address":"경기도 구리시 갈매중앙로 87, 메이저타워 (갈매동)","phone":"031-572-1386","openDate":"2019-12-01","longitude":127.1174409,"latitude":37.6323288},{"id":"JDU4MTI3MSM1MSMkMSMkMCMkMDMkMzgxMzUxIzExIyQxIyQ3IyQ5MiQ0NjE0ODEjNjEjJDEjJDAjJDgz","name":"갈매메디칼센터약국","category":"약국","sido":"경기","sigungu":"구리시","address":"경기도 구리시 갈매중앙로 91, 109호 (갈매동, 한덕프라자)","phone":"031-529-3828","openDate":"2016-10-24","longitude":127.1176469,"latitude":37.6327878},{"id":"JDQ4MTYyMiM1MSMkMSMkMCMkMDMkNDgxMTkxIzUxIyQxIyQxIyQwMyQzNjEyMjIjNDEjJDEjJDQjJDgz","name":"감골약국","category":"약국","sido":"경기","sigungu":"안산상록구","address":"경기도 안산시 상록구 석호로 184, (사동)","phone":"031-502-3779","openDate":"2000-06-17","longitude":126.8517288,"latitude":37.2960386},{"id":"JDU4MTI3MSM1MSMkMSMkMCMkMDMkNDgxNzAyIzIxIyQyIyQxIyQwMCQzNjE0ODEjNzEjJDEjJDgjJDgz","name":"감사약국","category":"약국","sido":"경기","sigungu":"파주시","address":"경기도 파주시 문산읍 문향로 72-1, 1층 108,109호","phone":"031-953-1153","openDate":"2019-12-02","longitude":126.7857886,"latitude":37.8580855},{"id":"JDU4MTI3MSM1MSMkMSMkMCMkMDMkNDgxMTkxIzUxIyQyIyQxIyQwMCQyNjE0ODEjNzEjJDEjJDgjJDgz","name":"감사약국","category":"약국","sido":"경기","sigungu":"김포시","address":"경기도 김포시 고촌읍 김포대로 340, 김포뉴시티 1층 104호","phone":"031-997-3722","openDate":"2023-04-01","longitude":126.7708131,"latitude":37.6013677},{"id":"JDU4MTI3MSM1MSMkMSMkMCMkMDMkNDgxMTkxIzExIyQxIyQzIyQ3MiQ0NjEwMDIjNjEjJDEjJDAjJDgz","name":"감일365약국","category":"약국","sido":"경기","sigungu":"하남시","address":"경기도 하남시 감일백제로 177, JS스퀘어 1층 104호 (감이동)","phone":"02-476-0365","openDate":"2022-08-30","longitude":127.1538459,"latitude":37.5076488},{"id":"JDU4MTI3MSM1MSMkMSMkMCMkMDMkNDgxMTkxIzIxIyQxIyQ5IyQwMyQzNjE0ODEjNDEjJDEjJDgjJDgz","name":"감일드림약국","category":"약국","sido":"경기","sigungu":"하남시","address":"경기도 하남시 감일백제로 169, 현대타워 1층 115,116호 (감이동)","phone":"070-8869-5850","openDate":"2023-04-04","longitude":127.1549129,"latitude":37.5073264},{"id":"JDU4MTI3MSM1MSMkMSMkMCMkMDMkNDgxMTkxIzMxIyQxIyQzIyQ3OSQ0NjE0ODEjNDEjJDEjJDgjJDgz","name":"감일로약국","category":"약국","sido":"경기","sigungu":"하남시","address":"경기도 하남시 감일백제로 181, 1층 105, 106호 (감이동)","phone":"02-477-2081","openDate":"2023-04-24","longitude":127.1534027,"latitude":37.5078239},{"id":"JDU4MTI3MSM1MSMkMSMkMCMkMDMkNDgxOTYxIzIxIyQxIyQ1IyQ4MiQzNjEwMDIjNTEjJDEjJDIjJDgz","name":"감일별빛온누리약국","category":"약국","sido":"경기","sigungu":"하남시","address":"경기도 하남시 감일백제로 175, 1층 110~113호 (감이동)","phone":"02-2138-2677","openDate":"2025-03-26","longitude":127.1543519,"latitude":37.5075206},{"id":"JDU4MTI3MSM1MSMkMSMkMCMkMDMkNDgxNzAyIzIxIyQxIyQ1IyQxMyQzNjEwMDIjNjEjJDEjJDQjJDgz","name":"감일태평양약국","category":"약국","sido":"경기","sigungu":"하남시","address":"경기도 하남시 신우실로 61, 110, 111호 (감일동)","phone":"02-489-0022","openDate":"2021-04-05","longitude":127.161719,"latitude":37.5099425},{"id":"JDU4MTI3MSM1MSMkMSMkMCMkMDMkNDgxNzAyIzIxIyQxIyQ5IyQwMyQzNjEwMDIjNjEjJDEjJDAjJDgz","name":"감일튼튼약국","category":"약국","sido":"경기","sigungu":"하남시","address":"경기도 하남시 신우실로 73, 106호 (감일동)","phone":"02-489-3390","openDate":"2021-11-04","longitude":127.1629693,"latitude":37.5093252},{"id":"JDU4MTI3MSM1MSMkMSMkMCMkMDMkNDgxMTkxIzIxIyQxIyQ5IyQ3OSQzNjEyMjIjODEjJDEjJDYjJDgz","name":"감일현대약국","category":"약국","sido":"경기","sigungu":"하남시","address":"경기도 하남시 감일중앙로 60, 감일 벨솔레 파크 1층 108호 (감이동)","phone":"070-4333-0106","openDate":"2023-02-20","longitude":127.1539895,"latitude":37.5088806},{"id":"JDU4MTI3MSM1MSMkMSMkMCMkMDMkNDgxMTkxIzQxIyQxIyQ3IyQ3MiQzNjE0ODEjODEjJDEjJDIjJDgz","name":"감초당약국","category":"약국","sido":"경기","sigungu":"남양주시","address":"경기도 남양주시 화도읍 수레로1233번길 9, 경향아파트 상가동 104호","phone":"031-595-7750","openDate":"1999-09-29","longitude":127.3012988,"latitude":37.6469974},{"id":"JDQ4MTYyMiM1MSMkMSMkMCMkMDMkMzgxMTkxIzMxIyQxIyQ3IyQ5OSQyNjE0ODEjNTEjJDEjJDIjJDgz","name":"감초당약국","category":"약국","sido":"경기","sigungu":"광주시","address":"경기도 광주시 경안로 20, (경안동)","phone":"031-761-2840","openDate":"1983-10-28","longitude":127.2583762,"latitude":37.4099371},{"id":"JDQ4MTYyMiM1MSMkMSMkMCMkMDMkNDgxMTkxIzIxIyQxIyQxIyQ4MiQ0NjE0ODEjNTEjJDEjJDYjJDgz","name":"감초당약국","category":"약국","sido":"경기","sigungu":"하남시","address":"경기도 하남시 대청로 62-1, 101,102호 (신장동, 백조현대아파트 B상가 )","phone":"031-795-1366","openDate":"1998-12-21","longitude":127.2192784,"latitude":37.5401747},{"id":"JDQ4MTYyMiM1MSMkMSMkMCMkMDMkMzgxMTkxIzIxIyQxIyQ1IyQ4OSQzNjEwMDIjNzEjJDEjJDgjJDgz","name":"감초당약국","category":"약국","sido":"경기","sigungu":"양주시","address":"경기도 양주시 화합로 1357, (덕정동)","phone":"031-859-2219","openDate":"1987-02-27","longitude":127.062406,"latitude":37.8438445},{"id":"JDU4MTI3MSM1MSMkMSMkMCMkMDMkMzgxNzAyIzUxIyQyIyQ1IyQwMCQzNjE4MzIjNjEjJDEjJDAjJDgz","name":"감초약국","category":"약국","sido":"경기","sigungu":"성남중원구","address":"경기도 성남시 중원구 시민로 117-2, (성남동)","phone":"031-751-1644","openDate":"2017-06-15","longitude":127.1449133,"latitude":37.4388592},{"id":"JDU4MTI3MSM1MSMkMSMkMCMkMDMkNDgxMzUxIzExIyQxIyQ3IyQwMyQzNjEyMjIjNzEjJDEjJDgjJDgz","name":"감초온누리약국","category":"약국","sido":"경기","sigungu":"가평군","address":"경기도 가평군 설악면 신천중앙로88번길 1, (설악면)","phone":"031-585-1008","openDate":"2018-02-05","longitude":127.4937771,"latitude":37.676908},{"id":"JDQ4MTYyMiM1MSMkMSMkMCMkMDMkNDgxNzAyIzIxIyQxIyQ5IyQwMyQzNjE0ODEjNTEjJDEjJDYjJDgz","name":"강남 다나약국","category":"약국","sido":"경기","sigungu":"용인기흥구","address":"경기도 용인시 기흥구 중부대로 403, 105호, 106호 (신갈동)","phone":"031-284-0169","openDate":"2024-06-10","longitude":127.1111437,"latitude":37.2733192},{"id":"JDU4MTI3MSM1MSMkMSMkMCMkMDMkNDgxOTYxIzIxIyQxIyQxIyQ4OSQzNjE4MzIjNjEjJDEjJDgjJDgz","name":"강남2층약국","category":"약국","sido":"경기","sigungu":"용인기흥구","address":"경기도 용인시 기흥구 강남동로 10, 강남피아 204호 (구갈동)","phone":"031-275-7585","openDate":"2019-07-22","longitude":127.1281766,"latitude":37.2712436},{"id":"JDU4MTI3MSM1MSMkMSMkMCMkMDMkNDgxOTYxIzExIyQxIyQ3IyQwMyQyNjEwMDIjNDEjJDEjJDgjJDgz","name":"강남대약국","category":"약국","sido":"경기","sigungu":"용인기흥구","address":"경기도 용인시 기흥구 강남로 3, 강남앤플러스 112호 (구갈동)","phone":"031-693-7708","openDate":"2020-02-14","longitude":127.1261538,"latitude":37.2710359},{"id":"JDQ4MTYyMiM1MSMkMSMkMCMkMDMkNDgxNzAyIzIxIyQxIyQxIyQ4MiQyNjE0ODEjNTEjJDEjJDYjJDgz","name":"강남시장약국","category":"약국","sido":"경기","sigungu":"부천원미구","address":"경기도 부천시 원미구 옥산로 128, (중동)","phone":"032-322-6284","openDate":"2012-06-04","longitude":126.7804585,"latitude":37.5049709},{"id":"JDQ4MTYyMiM1MSMkMSMkMCMkMDMkMzgxMTkxIzMxIyQxIyQzIyQ2MiQyNjE0ODEjNDEjJDEjJDgjJDgz","name":"강남약국","category":"약국","sido":"경기","sigungu":"여주시","address":"경기도 여주시 신륵로 41, (천송동)","phone":"031-885-1443","openDate":"1986-04-03","longitude":127.6545329,"latitude":37.3011359},{"id":"JDU4MTI3MSM1MSMkMSMkMCMkMDMkNDgxMTkxIzMxIyQyIyQ3IyQwMCQzNjEyMjIjNTEjJDEjJDYjJDgz","name":"강남약국","category":"약국","sido":"경기","sigungu":"화성시","address":"경기도 화성시 향남읍 발안로 68, 104호","phone":"031-354-6310","openDate":"2023-07-10","longitude":126.9176043,"latitude":37.1314294},{"id":"JDQ4MTYyMiM1MSMkMSMkMCMkMDMkNDgxNzAyIzIxIyQxIyQxIyQ3MiQ0NjE0ODEjNDEjJDEjJDgjJDgz","name":"강남약국","category":"약국","sido":"경기","sigungu":"용인기흥구","address":"경기도 용인시 기흥구 신구로12번길 19, (구갈동)","phone":"031-285-9901","openDate":"2001-01-10","longitude":127.111378,"latitude":37.2740992},{"id":"JDQ4MTYyMiM1MSMkMSMkMCMkMDMkNTgxOTYxIzUxIyQxIyQxIyQ2MiQzNjEwMDIjODEjJDEjJDYjJDgz","name":"강남약국","category":"약국","sido":"경기","sigungu":"평택시","address":"경기도 평택시 평택로 54, (평택동, 외1필지)","phone":"031-692-7575","openDate":"2006-02-28","longitude":127.0865895,"latitude":36.9922498},{"id":"JDU4MTI3MSM1MSMkMSMkMCMkMDMkNDgxNzAyIzIxIyQxIyQ1IyQ3MiQzNjE4MzIjNTEjJDEjJDIjJDgz","name":"강남열린약국","category":"약국","sido":"경기","sigungu":"수원영통구","address":"경기도 수원시 영통구 봉영로 1569, 뉴월드프라자 4층 408호 (영통동)","phone":"031-202-1151","openDate":"2024-11-15","longitude":127.0710165,"latitude":37.2520638},{"id":"JDU4MTI3MSM1MSMkMSMkMCMkMDMkNDgxMTkxIzIxIyQxIyQ5IyQwMyQyNjE4MzIjNTEjJDEjJDIjJDgz","name":"강남참약국","category":"약국","sido":"경기","sigungu":"양주시","address":"경기도 양주시 옥정로 226, 제일타워 1층 103호 (옥정동)","phone":"031-928-7308","openDate":"2021-06-04","longitude":127.0921278,"latitude":37.8217516},{"id":"JDQ4MTYyMiM1MSMkMSMkMCMkMDMkNDgxNzAyIzIxIyQxIyQxIyQxMyQ0NjE0ODEjNDEjJDEjJDgjJDgz","name":"강남플러스약국","category":"약국","sido":"경기","sigungu":"용인기흥구","address":"경기도 용인시 기흥구 신구로12번길 12-1, (신갈동)","phone":"031-281-7700","openDate":"2010-09-01","longitude":127.1109574,"latitude":37.2735157},{"id":"JDQ4MTYyMiM1MSMkMSMkMCMkMDMkNTgxOTYxIzUxIyQxIyQxIyQ4OSQzNjE4MzIjNTEjJDEjJDYjJDgz","name":"강남효약국","category":"약국","sido":"경기","sigungu":"용인기흥구","address":"경기도 용인시 기흥구 신구로12번길 11-1, (구갈동)","phone":"031-286-3379","openDate":"2014-03-10","longitude":127.1105561,"latitude":37.2736499},{"id":"JDU4MTI3MSM1MSMkMSMkMCMkMDMkNDgxMzUxIzMxIyQxIyQ3IyQ5OSQ0NjE0ODEjNDEjJDEjJDgjJDgz","name":"강산약국","category":"약국","sido":"경기","sigungu":"파주시","address":"경기도 파주시 경의로 1090, 삼융타워 110호 (야당동)","phone":"031-8035-7102","openDate":"2019-03-26","longitude":126.7600697,"latitude":37.7145065},{"id":"JDU4MTI3MSM1MSMkMSMkMCMkMDMkNDgxNzAyIzIxIyQyIyQ5IyQwMCQyNjEyMjIjNTEjJDEjJDYjJDgz","name":"강선사거리약국","category":"약국","sido":"경기","sigungu":"고양일산서구","address":"경기도 고양시 일산서구 강선로 59, 103호 (주엽동, 동신파크)","phone":"031-916-5040","openDate":"2016-01-04","longitude":126.7643313,"latitude":37.6695383},{"id":"JDQ4MTYyMiM1MSMkMSMkMCMkMDMkNTgxMzUxIzIxIyQxIyQxIyQ2MiQyNjE0ODEjNjEjJDEjJDAjJDgz","name":"강선약국","category":"약국","sido":"경기","sigungu":"고양일산서구","address":"경기도 고양시 일산서구 대산로 117, 101호 (주엽동)","phone":"031-925-1141","openDate":"2002-11-12","longitude":126.7643098,"latitude":37.6739648},{"id":"JDQ4MTYyMiM1MSMkMSMkMCMkMDMkMzgxOTYxIzExIyQxIyQzIyQ5MiQzNjE4MzIjNTEjJDEjJDIjJDgz","name":"강성약국","category":"약국","sido":"경기","sigungu":"의정부시","address":"경기도 의정부시 금오로 121-6, (금오동)","phone":"031-847-2391","openDate":"1988-05-13","longitude":127.0787378,"latitude":37.7575994},{"id":"JDU4MTI3MSM1MSMkMSMkMCMkMDMkMzgxNzAyIzIxIyQxIyQ5IyQ5OSQyNjE4MzIjNTEjJDEjJDIjJDgz","name":"강송약국","category":"약국","sido":"경기","sigungu":"군포시","address":"경기도 군포시 산본로386번길 4-19, 1층 (산본동)","phone":"031-393-0051","openDate":"2015-12-28","longitude":126.9310988,"latitude":37.3639959},{"id":"JDQ4MTYyMiM1MSMkMSMkMCMkMDMkMzgxMzUxIzUxIyQxIyQxIyQxMyQzNjEwMDIjNjEjJDEjJDgjJDgz","name":"강약국","category":"약국","sido":"경기","sigungu":"수원장안구","address":"경기도 수원시 장안구 덕영대로407번길 34-22, 1층 (율전동)","phone":"031-207-6770","openDate":"1988-07-14","longitude":126.9686408,"latitude":37.302954},{"id":"JDQ4MTYyMiM1MSMkMSMkMCMkMDMkMzgxMTkxIzExIyQxIyQ3IyQ2MiQ0NjEwMDIjODEjJDEjJDYjJDgz","name":"강하약국","category":"약국","sido":"경기","sigungu":"양평군","address":"경기도 양평군 강하면 강남로 118, (강하면)","phone":"031-774-2210","openDate":"2019-01-18","longitude":127.4007841,"latitude":37.4933728},{"id":"JDQ4MTYyMiM1MSMkMSMkMCMkMDMkNDgxMzUxIzIxIyQxIyQxIyQ2MiQzNjEyMjIjNDEjJDEjJDgjJDgz","name":"강희약국","category":"약국","sido":"경기","sigungu":"성남수정구","address":"경기도 성남시 수정구 수정로 210, 1층 (신흥동)","phone":"031-742-0771","openDate":"2011-01-03","longitude":127.1431817,"latitude":37.4441603},{"id":"JDQ4MTYyMiM1MSMkMSMkMCMkMDMkNTgxMzUxIzUxIyQxIyQxIyQ3MiQyNjE0ODEjNDEjJDEjJDQjJDgz","name":"강희약국","category":"약국","sido":"경기","sigungu":"성남분당구","address":"경기도 성남시 분당구 백현로101번길 16, 402일부호 (수내동)","phone":"031-711-2143","openDate":"2012-11-19","longitude":127.1128823,"latitude":37.377023},{"id":"JDQ4MTYyMiM1MSMkMSMkMCMkMDMkNDgxOTYxIzUxIyQxIyQ1IyQ5OSQyNjE4MzIjNTEjJDEjJDIjJDgz","name":"개군약국","category":"약국","sido":"경기","sigungu":"양평군","address":"경기도 양평군 개군면 하자포길 33, (개군면)","phone":"031-773-5960","openDate":"1997-11-28","longitude":127.5377267,"latitude":37.4261041},{"id":"JDQ4MTYyMiM1MSMkMSMkMCMkMDMkNDgxMzUxIzMxIyQxIyQzIyQ3OSQyNjEyMjIjODEjJDEjJDYjJDgz","name":"갤러리약국","category":"약국","sido":"경기","sigungu":"수원팔달구","address":"경기도 수원시 팔달구 덕영대로 905, 602호 (매산로1가, 아이메카 상가)","phone":"031-256-9009","openDate":"2008-02-21","longitude":127.0005489,"latitude":37.267879},{"id":"JDU4MTI3MSM1MSMkMSMkMCMkMDMkMzgxMTkxIzMxIyQxIyQ3IyQ4OSQyNjE0ODEjODEjJDEjJDIjJDgz","name":"거모보룡약국","category":"약국","sido":"경기","sigungu":"시흥시","address":"경기도 시흥시 군자로 520, (거모동)","phone":"031-491-8306","openDate":"2014-01-01","longitude":126.784886,"latitude":37.3438605},{"id":"JDU4MTI3MSM1MSMkMSMkMCMkMDMkMzgxMzUxIzIxIyQxIyQ1IyQ4MiQyNjEwMDIjNTEjJDEjJDIjJDgz","name":"거북섬마린약국","category":"약국","sido":"경기","sigungu":"시흥시","address":"경기도 시흥시 거북섬로 219, 셀럽시티 104,105호 (정왕동)","phone":"031-499-5469","openDate":"2023-12-08","longitude":126.6883362,"latitude":37.3235258},{"id":"JDU4MTI3MSM1MSMkMSMkMCMkMDMkNDgxNzAyIzIxIyQxIyQ1IyQ4OSQ0NjE0ODEjNDEjJDEjJDgjJDgz","name":"거북섬약국","category":"약국","sido":"경기","sigungu":"시흥시","address":"경기도 시흥시 거북섬로 207, 돌핀프라자 106호 (정왕동)","phone":"031-433-7493","openDate":"2023-08-01","longitude":126.6875674,"latitude":37.3227592},{"id":"JDQ4MTYyMiM1MSMkMSMkMCMkMDMkMzgxOTYxIzIxIyQxIyQ1IyQ4OSQzNjEyMjIjNDEjJDEjJDQjJDgz","name":"건강100세 세종약국","category":"약국","sido":"경기","sigungu":"부천소사구","address":"경기도 부천시 소사구  호현로489번길 32, 1층 (소사본동)","phone":"032-346-6166","openDate":"2016-02-23","longitude":126.7915777,"latitude":37.480545},{"id":"JDU4MTI3MSM1MSMkMSMkMCMkMDMkMzgxNzAyIzUxIyQxIyQxIyQ3MiQzNjEwMDIjNjEjJDEjJDgjJDgz","name":"건강과 행복 약국","category":"약국","sido":"경기","sigungu":"수원장안구","address":"경기도 수원시 장안구 덕영대로535번길 34, 천천동그린프라자 1층 104-2호 (천천동)","phone":"031-269-3632","openDate":"2022-12-11","longitude":126.9821087,"latitude":37.2971232},{"id":"JDU4MTI3MSM1MSMkMSMkMCMkMDMkNDgxNzAyIzIxIyQxIyQ5IyQ4MiQzNjEyMjIjODEjJDEjJDIjJDgz","name":"건강나누리약국","category":"약국","sido":"경기","sigungu":"수원영통구","address":"경기도 수원시 영통구 동수원로537번길 15-4, (원천동)","phone":"031-214-6985","openDate":"2013-03-15","longitude":127.0480295,"latitude":37.2741307},{"id":"JDU4MTI3MSM1MSMkMSMkMCMkMDMkNDgxMzUxIzIxIyQxIyQ5IyQ4MiQ0NjE0ODEjODEjJDEjJDIjJDgz","name":"건강나눔약국","category":"약국","sido":"경기","sigungu":"수원장안구","address":"경기도 수원시 장안구 송정로 146, 101호 (조원동, 상훈아파트)","phone":"031-255-8517","openDate":"2018-11-06","longitude":127.0129369,"latitude":37.2968311},{"id":"JDU4MTI3MSM1MSMkMSMkMCMkMDMkMzgxOTYxIzIxIyQxIyQxIyQ2MiQ0NjEwMDIjNTEjJDEjJDIjJDgz","name":"건강낙원약국","category":"약국","sido":"경기","sigungu":"화성시","address":"경기도 화성시 남양읍 남양성지로 123, 103호 (삼기프라자)","phone":"031-355-5676","openDate":"2009-12-17","longitude":126.8171746,"latitude":37.2081773},{"id":"JDQ4MTYyMiM1MSMkMSMkMCMkMDMkNDgxOTYxIzUxIyQyIyQxIyQwMCQzNjE0ODEjNDEjJDEjJDgjJDgz","name":"건강누리약국","category":"약국","sido":"경기","sigungu":"수원장안구","address":"경기도 수원시 장안구 수성로245번길 60, 1층 (정자동)","phone":"031-242-5979","openDate":"2018-07-28","longitude":126.9978561,"latitude":37.2917701},{"id":"JDQ4MTYyMiM1MSMkMSMkMCMkMDMkMzgxNzAyIzUxIyQxIyQxIyQ4MiQzNjEwMDIjNDEjJDEjJDgjJDgz","name":"건강당약국","category":"약국","sido":"경기","sigungu":"시흥시","address":"경기도 시흥시 진말로9번길 2, 108호 (장곡동, 부석프라자)","phone":"031-503-0771","openDate":"1990-04-04","longitude":126.7852546,"latitude":37.3784773},{"id":"JDU4MTI3MSM1MSMkMSMkMCMkMDMkNDgxMzUxIzIxIyQxIyQ1IyQ2MiQyNjEyMjIjODEjJDEjJDIjJDgz","name":"건강당약국","category":"약국","sido":"경기","sigungu":"동두천시","address":"경기도 동두천시 큰시장로 43, 삼풍빌딩 (생연동)","phone":"031-864-7575","openDate":"2018-07-02","longitude":127.0529534,"latitude":37.9001908},{"id":"JDU4MTI3MSM1MSMkMSMkMCMkMDMkNDgxMTkxIzIxIyQxIyQxIyQ5OSQzNjE0ODEjNjEjJDEjJDAjJDgz","name":"건강돌봄약국","category":"약국","sido":"경기","sigungu":"부천원미구","address":"경기도 부천시 원미구 상동로 81, 센타프라자 1층 103호 (상동)","phone":"032-323-6709","openDate":"2022-10-12","longitude":126.7523759,"latitude":37.5045894},{"id":"JDU4MTI3MSM1MSMkMSMkMCMkMDMkNDgxNzAyIzMxIyQxIyQzIyQ5OSQzNjEwMDIjNzEjJDEjJDgjJDgz","name":"건강드림약국","category":"약국","sido":"경기","sigungu":"남양주시","address":"경기도 남양주시 와부읍 월문천로 33, 롯데마트 지하1층","phone":"031-577-1020","openDate":"2023-11-06","longitude":127.2140195,"latitude":37.5846972},{"id":"JDU4MTI3MSM1MSMkMSMkMCMkMDMkNDgxMTkxIzUxIyQxIyQ1IyQ2MiQyNjE4MzIjNjEjJDEjJDQjJDgz","name":"건강드림약국","category":"약국","sido":"경기","sigungu":"안산단원구","address":"경기도 안산시 단원구 고잔2길 9, 101,102호 (고잔동)","phone":"070-7570-0478","openDate":"2011-09-30","longitude":126.8320397,"latitude":37.3180094},{"id":"JDU4MTI3MSM1MSMkMSMkMCMkMDMkNDgxOTYxIzMxIyQxIyQzIyQ4OSQzNjE4MzIjNjEjJDEjJDQjJDgz","name":"건강드림약국","category":"약국","sido":"경기","sigungu":"수원영통구","address":"경기도 수원시 영통구 월드컵로 189, 1층 (원천동)","phone":"031-215-3321","openDate":"2021-04-28","longitude":127.0448707,"latitude":37.2789263},{"id":"JDU4MTI3MSM1MSMkMSMkMCMkMDMkNDgxMzUxIzUxIyQxIyQ1IyQ5OSQzNjEwMDIjNjEjJDEjJDgjJDgz","name":"건강드림약국","category":"약국","sido":"경기","sigungu":"고양덕양구","address":"경기도 고양시 덕양구 도래울로 52, 102호 (도내동, 센터프라자)","phone":"031-965-7582","openDate":"2016-09-26","longitude":126.8694921,"latitude":37.6303745},{"id":"JDU4MTI3MSM1MSMkMSMkMCMkMDMkMzgxMTkxIzIxIyQyIyQ5IyQwMCQzNjEwMDIjNDEjJDEjJDgjJDgz","name":"건강백세 온누리약국","category":"약국","sido":"경기","sigungu":"안성시","address":"경기도 안성시 고삼면 고삼호수로 10, (고삼면)","phone":"031-672-8836","openDate":"2013-06-29","longitude":127.2615964,"latitude":37.0829364},{"id":"JDU4MTI3MSM1MSMkMSMkMCMkMDMkNDgxMTkxIzUxIyQxIyQxIyQ3MiQyNjEwMDIjNDEjJDEjJDQjJDgz","name":"건강백세약국","category":"약국","sido":"경기","sigungu":"김포시","address":"경기도 김포시 양촌읍 양곡로 530, 1층","phone":"031-981-8360","openDate":"2018-05-04","longitude":126.6245605,"latitude":37.6551778},{"id":"JDQ4MTYyMiM1MSMkMSMkMCMkMDMkNTgxMzUxIzQxIyQxIyQ3IyQ3OSQyNjE0ODEjNzEjJDEjJDgjJDgz","name":"건강백세약국","category":"약국","sido":"경기","sigungu":"의정부시","address":"경기도 의정부시 금신로 323, 109호 (신곡동, 대명프라자빌딩)","phone":"031-821-0103","openDate":"2012-08-14","longitude":127.0616627,"latitude":37.7447767},{"id":"JDU4MTI3MSM1MSMkMSMkMCMkMDMkNDgxMTkxIzUxIyQxIyQxIyQ5OSQzNjE0ODEjNTEjJDEjJDIjJDgz","name":"건강백세약국","category":"약국","sido":"경기","sigungu":"부천원미구","address":"경기도 부천시 원미구 부천로 17, 1층 (심곡동)","phone":"032-612-1203","openDate":"2023-02-09","longitude":126.7828247,"latitude":37.4857097},{"id":"JDU4MTI3MSM1MSMkMSMkMCMkMDMkMzgxMTkxIzMxIyQxIyQ3IyQ2MiQyNjE4MzIjNjEjJDEjJDAjJDgz","name":"건강백세약국","category":"약국","sido":"경기","sigungu":"성남분당구","address":"경기도 성남시 분당구 돌마로 43, 102호 (금곡동, 메디파크빌딩)","phone":"031-711-3204","openDate":"2014-01-24","longitude":127.1066794,"latitude":37.3503551},{"id":"JDQ4MTYyMiM1MSMkMSMkMCMkMDMkNDgxMTkxIzIxIyQxIyQ1IyQ3OSQ0NjEwMDIjNjEjJDEjJDAjJDgz","name":"건강사랑약국","category":"약국","sido":"경기","sigungu":"부천소사구","address":"경기도 부천시 소사구 소사로 174-1, (소사본동)","phone":"032-348-0731","openDate":"2003-04-11","longitude":126.7957251,"latitude":37.4737859},{"id":"JDU4MTI3MSM1MSMkMSMkMCMkMDMkNDgxOTYxIzExIyQxIyQ3IyQ3MiQ0NjEwMDIjNjEjJDEjJDQjJDgz","name":"건강샘약국","category":"약국","sido":"경기","sigungu":"성남분당구","address":"경기도 성남시 분당구 불정로420번길 53, 1층 일부호 (분당동)","phone":"702-5319","openDate":"2005-08-09","longitude":127.1451508,"latitude":37.3745661},{"id":"JDU4MTI3MSM1MSMkMSMkMCMkMDMkMzgxMTkxIzIxIyQxIyQxIyQwMyQyNjE4MzIjODEjJDEjJDIjJDgz","name":"건강샘약국","category":"약국","sido":"경기","sigungu":"성남중원구","address":"경기도 성남시 중원구 도촌남로 27, 동강프라자 1층 107호 (도촌동)","phone":"031-755-7533","openDate":"2013-01-21","longitude":127.1506173,"latitude":37.414505},{"id":"JDU4MTI3MSM1MSMkMSMkMCMkMDMkMzgxMzUxIzMxIyQxIyQ3IyQwMyQyNjE4MzIjNTEjJDEjJDIjJDgz","name":"건강소망약국","category":"약국","sido":"경기","sigungu":"용인기흥구","address":"경기도 용인시 기흥구 동백중앙로 283, b동 403-1호 (중동, 골드프라자)","phone":"031-8006-2050","openDate":"2008-04-02","longitude":127.1534878,"latitude":37.278013},{"id":"JDU4MTI3MSM1MSMkMSMkMCMkMDMkMzgxNzAyIzUxIyQxIyQ1IyQ4OSQzNjE0ODEjNjEjJDEjJDQjJDgz","name":"건강약국","category":"약국","sido":"경기","sigungu":"화성시","address":"경기도 화성시 동탄순환대로 127-17, 동탄2우성메디피아 1층 110,111호 (산척동)","phone":"031-377-8671","openDate":"2023-05-04","longitude":127.1072679,"latitude":37.1670009},{"id":"JDQ4MTYyMiM1MSMkMSMkMCMkMDMkNDgxOTYxIzExIyQxIyQzIyQ4MiQyNjEyMjIjNjEjJDEjJDgjJDgz","name":"건강약국","category":"약국","sido":"경기","sigungu":"평택시","address":"경기도 평택시 평택2로20번길 8, (평택동)","phone":"657-4196","openDate":"2012-12-05","longitude":127.0887786,"latitude":36.9927437},{"id":"JDQ4MTYyMiM1MSMkMSMkMCMkMDMkNDgxNzAyIzExIyQxIyQ3IyQ4MiQzNjEyMjIjNjEjJDEjJDgjJDgz","name":"건강약국","category":"약국","sido":"경기","sigungu":"용인기흥구","address":"경기도 용인시 기흥구 구성로 103, 멀티프라자 206호 (언남동)","phone":"031-287-2363","openDate":"2019-11-29","longitude":127.1207504,"latitude":37.2938993},{"id":"JDU4MTI3MSM1MSMkMSMkMCMkMDMkNDgxMTkxIzUxIyQxIyQxIyQ2MiQzNjE0ODEjNzEjJDEjJDgjJDgz","name":"건강약국","category":"약국","sido":"경기","sigungu":"안산단원구","address":"경기도 안산시 단원구 석수로5길 8, 1층 (선부동)","phone":"031-403-3663","openDate":"2016-10-24","longitude":126.8067603,"latitude":37.3433364},{"id":"JDU4MTI3MSM1MSMkMSMkMCMkMDMkNDgxNzAyIzIxIyQxIyQ5IyQ3MiQ0NjEwMDIjNjEjJDEjJDQjJDgz","name":"건강약국","category":"약국","sido":"경기","sigungu":"용인처인구","address":"경기도 용인시 처인구 모현읍 외대로 10, 101호","phone":"070-8667-3137","openDate":"2025-01-08","longitude":127.2504518,"latitude":37.3370939},{"id":"JDQ4MTYyMiM1MSMkMSMkMCMkMDMkNDgxOTYxIzIxIyQxIyQxIyQ5OSQyNjE4MzIjODEjJDEjJDIjJDgz","name":"건강약국","category":"약국","sido":"경기","sigungu":"광주시","address":"경기도 광주시 양벌로 197, (양벌동)","phone":"070-8714-0360","openDate":"2009-09-21","longitude":127.2550344,"latitude":37.3789963},{"id":"JDQ4MTYyMiM1MSMkMSMkMCMkMDMkNDgxMTkxIzUxIyQxIyQ1IyQxMyQzNjE4MzIjNDEjJDEjJDgjJDgz","name":"건강약국","category":"약국","sido":"경기","sigungu":"성남분당구","address":"경기도 성남시 분당구 내정로166번길 43, 124호 (수내동, 금산프라자)","phone":"031-712-9200","openDate":"2000-09-20","longitude":127.1226425,"latitude":37.3703464},{"id":"JDQ4MTYyMiM1MSMkMSMkMCMkMDMkNDgxNzAyIzExIyQxIyQzIyQ3MiQyNjE4MzIjODEjJDEjJDIjJDgz","name":"건강약국","category":"약국","sido":"경기","sigungu":"고양덕양구","address":"경기도 고양시 덕양구 호국로 792, 1층 (성사동, 천일빌딩)","phone":"031-963-9639","openDate":"2000-10-13","longitude":126.8366454,"latitude":37.6566317},{"id":"JDQ4MTYyMiM1MSMkMSMkMCMkMDMkNDgxNzAyIzIxIyQxIyQ5IyQxMyQyNjE0ODEjODEjJDEjJDIjJDgz","name":"건강약국","category":"약국","sido":"경기","sigungu":"여주시","address":"경기도 여주시 청심로 82, (하동)","phone":"031-886-3545","openDate":"2001-07-02","longitude":127.6296097,"latitude":37.2997973},{"id":"JDQ4MTYyMiM1MSMkMSMkMCMkMDMkNTgxOTYxIzExIyQxIyQzIyQ5MiQyNjEyMjIjNjEjJDEjJDQjJDgz","name":"건강약국","category":"약국","sido":"경기","sigungu":"안양동안구","address":"경기도 안양시 동안구 동편로 6, 110호 (관양동, 스마트프라자)","phone":"031-421-3707","openDate":"2013-11-25","longitude":126.9714521,"latitude":37.4055499},{"id":"JDU4MTI3MSM1MSMkMSMkMCMkMDMkMzgxOTYxIzUxIyQxIyQxIyQ3OSQzNjE0ODEjNDEjJDEjJDgjJDgz","name":"건강약국","category":"약국","sido":"경기","sigungu":"성남분당구","address":"경기도 성남시 분당구 성남대로 345, 7층 704호 (정자동, 정자역프라자)","phone":"031-714-2233","openDate":"2011-08-02","longitude":127.1077021,"latitude":37.3669303},{"id":"JDQ4MTYyMiM1MSMkMSMkMCMkMDMkNDgxNzAyIzMxIyQxIyQ3IyQwMyQ0NjEwMDIjNzEjJDEjJDgjJDgz","name":"건강약국","category":"약국","sido":"경기","sigungu":"시흥시","address":"경기도 시흥시 중심상가4길 18, 18호 (정왕동, 이송빌딩)","phone":"031-433-3923","openDate":"2004-06-03","longitude":126.7375743,"latitude":37.3437944},{"id":"JDU4MTI3MSM1MSMkMSMkMCMkMDMkMzgxMTkxIzQxIyQxIyQ3IyQ5MiQyNjEyMjIjNjEjJDEjJDAjJDgz","name":"건강약국","category":"약국","sido":"경기","sigungu":"김포시","address":"경기도 김포시 북변로 24, (북변동)","phone":"031-998-4067","openDate":"2014-06-16","longitude":126.709872,"latitude":37.6290915},{"id":"JDU4MTI3MSM1MSMkMSMkMCMkMDMkNDgxOTYxIzExIyQxIyQ3IyQ3OSQyNjE4MzIjNDEjJDEjJDQjJDgz","name":"건강약국","category":"약국","sido":"경기","sigungu":"오산시","address":"경기도 오산시 성호대로 89, (오산동, 세명프라자)","phone":"031-374-7275","openDate":"2004-04-10","longitude":127.0713995,"latitude":37.1491526},{"id":"JDU4MTI3MSM1MSMkMSMkMCMkMDMkMzgxNzAyIzIxIyQxIyQ1IyQ5OSQzNjE4MzIjODEjJDEjJDYjJDgz","name":"건강약국","category":"약국","sido":"경기","sigungu":"양평군","address":"경기도 양평군 청운면 용두로139번길 1, (청운면)","phone":"031-773-9151","openDate":"2013-05-27","longitude":127.7085174,"latitude":37.5544977},{"id":"JDU4MTI3MSM1MSMkMSMkMCMkMDMkMzgxOTYxIzMxIyQxIyQ3IyQ4MiQ0NjE0ODEjNjEjJDEjJDAjJDgz","name":"건강약국","category":"약국","sido":"경기","sigungu":"이천시","address":"경기도 이천시 장호원읍 장감로 77, (장호원읍)","phone":"031-642-3981","openDate":"2011-03-21","longitude":127.6310466,"latitude":37.1174675},{"id":"JDU4MTI3MSM1MSMkMSMkMCMkMDMkNDgxMTkxIzExIyQxIyQ3IyQwMyQzNjE0ODEjNDEjJDEjJDgjJDgz","name":"건강약국","category":"약국","sido":"경기","sigungu":"광명시","address":"경기도 광명시 오리로 366, 태화빌딩 102,103호 (소하동)","phone":"02-897-1788","openDate":"2022-09-06","longitude":126.8796879,"latitude":37.4350351},{"id":"JDU4MTI3MSM1MSMkMSMkMCMkMDMkMzgxOTYxIzUxIyQyIyQxIyQwMCQyNjE4MzIjNjEjJDEjJDAjJDgz","name":"건강예쁜약국","category":"약국","sido":"경기","sigungu":"고양덕양구","address":"경기도 고양시 덕양구 지축로 70, 113(일부)호 (지축동)","phone":"02-371-1607","openDate":"2022-07-05","longitude":126.9157663,"latitude":37.6492686},{"id":"JDU4MTI3MSM1MSMkMSMkMCMkMDMkNDgxNzAyIzMxIyQxIyQzIyQwMyQzNjEyMjIjODEjJDEjJDYjJDgz","name":"건강온누리 약국","category":"약국","sido":"경기","sigungu":"화성시","address":"경기도 화성시 봉담읍 삼봉안3길 6-5, 127~128호","phone":"031-295-8156","openDate":"2025-04-08","longitude":126.9246741,"latitude":37.2250263},{"id":"JDQ4MTYyMiM1MSMkMSMkMCMkMDMkNDgxNzAyIzIxIyQxIyQ5IyQ5MiQ0NjE0ODEjODEjJDEjJDYjJDgz","name":"건강온누리약국","category":"약국","sido":"경기","sigungu":"부천소사구","address":"경기도 부천시 소사구  호현로489번길 25, (소사본동)","phone":"032-345-8114","openDate":"2001-05-23","longitude":126.7920604,"latitude":37.4805366},{"id":"JDQ4MTYyMiM1MSMkMSMkMCMkMDMkNDgxMTkxIzMxIyQxIyQzIyQ5MiQ0NjEwMDIjODEjJDEjJDIjJDgz","name":"건강온누리약국","category":"약국","sido":"경기","sigungu":"광주시","address":"경기도 광주시 퇴촌면 광동로 75-1, (퇴촌면)","phone":"031-765-8925","openDate":"1999-12-31","longitude":127.3107647,"latitude":37.4706253},{"id":"JDQ4MTYyMiM1MSMkMSMkMCMkMDMkMzgxOTYxIzMxIyQxIyQzIyQxMyQyNjE4MzIjNjEjJDEjJDgjJDgz","name":"건강온누리약국","category":"약국","sido":"경기","sigungu":"수원권선구","address":"경기도 수원시 권선구 금곡로196번길 76, 1층 1~2호 (금곡동)","phone":"031-294-7998","openDate":"1988-09-08","longitude":126.955518,"latitude":37.2735435},{"id":"JDU4MTI3MSM1MSMkMSMkMCMkMDMkMzgxOTYxIzIxIyQyIyQ1IyQwMCQzNjE0ODEjNDEjJDEjJDgjJDgz","name":"건강온누리약국","category":"약국","sido":"경기","sigungu":"성남분당구","address":"경기도 성남시 분당구 백현로101번길 16, 대덕프라자 211호일부 (수내동)","phone":"031-715-2159","openDate":"2018-11-01","longitude":127.1128823,"latitude":37.377023},{"id":"JDU4MTI3MSM1MSMkMSMkMCMkMDMkMzgxOTYxIzIxIyQxIyQ5IyQ5MiQyNjEwMDIjNDEjJDEjJDgjJDgz","name":"건강온누리약국","category":"약국","sido":"경기","sigungu":"남양주시","address":"경기도 남양주시 화도읍 맷돌로 118, (화도읍)","phone":"031-559-6334","openDate":"2012-02-29","longitude":127.3032852,"latitude":37.6572967},{"id":"JDU4MTI3MSM1MSMkMSMkMCMkMDMkMzgxMzUxIzExIyQxIyQ3IyQ2MiQzNjE0ODEjNDEjJDEjJDQjJDgz","name":"건강을 요리하는 약국","category":"약국","sido":"경기","sigungu":"이천시","address":"경기도 이천시 호법면 이섭대천로 534, 1층 105호","phone":"031-638-9552","openDate":"2023-12-11","longitude":127.4273117,"latitude":37.2230819},{"id":"JDU4MTI3MSM1MSMkMSMkMCMkMDMkNDgxMTkxIzMxIyQxIyQzIyQ2MiQzNjE0ODEjODEjJDEjJDIjJDgz","name":"건강을 이야기하는 부부약국","category":"약국","sido":"경기","sigungu":"용인기흥구","address":"경기도 용인시 기흥구 죽전로 50, 센타프라자 108호 (보정동)","phone":"031-889-9630","openDate":"2018-01-11","longitude":127.1142797,"latitude":37.3202944},{"id":"JDU4MTI3MSM1MSMkMSMkMCMkMDMkNDgxMTkxIzMxIyQxIyQ3IyQ4OSQzNjE4MzIjNzEjJDEjJDgjJDgz","name":"건강을주는 약국","category":"약국","sido":"경기","sigungu":"용인기흥구","address":"경기도 용인시 기흥구 신갈로 52, 101호 (신갈동, 외환은행)","phone":"031-286-7861","openDate":"2001-05-02","longitude":127.1059365,"latitude":37.271284},{"id":"JDQ4MTYyMiM1MSMkMSMkMCMkMDMkNDgxMTkxIzMxIyQxIyQ3IyQ3OSQyNjEwMDIjODEjJDEjJDIjJDgz","name":"건강을주는약국","category":"약국","sido":"경기","sigungu":"시흥시","address":"경기도 시흥시 도일로135번길 4, 104호 (거모동, 빅타운)","phone":"031-494-3554","openDate":"2006-12-04","longitude":126.784624,"latitude":37.3425827},{"id":"JDU4MTI3MSM1MSMkMSMkMCMkMDMkNDgxMzUxIzIxIyQxIyQxIyQ4OSQ0NjEwMDIjNzEjJDEjJDgjJDgz","name":"건강이열리는약국","category":"약국","sido":"경기","sigungu":"안산단원구","address":"경기도 안산시 단원구 선부로 187, 유송프라자 1층 (선부동)","phone":"031-485-9345","openDate":"2019-05-30","longitude":126.8159956,"latitude":37.3419576},{"id":"JDQ4MTYyMiM1MSMkMSMkMCMkMDMkNDgxOTYxIzUxIyQxIyQxIyQ4OSQyNjEyMjIjNDEjJDEjJDgjJDgz","name":"건강제일약국","category":"약국","sido":"경기","sigungu":"화성시","address":"경기도 화성시 팔탄면 푸른들판로 670, (팔탄면)","phone":"031-353-5856","openDate":"2012-03-16","longitude":126.895226,"latitude":37.1680409},{"id":"JDQ4MTYyMiM1MSMkMSMkMCMkMDMkNDgxNzAyIzMxIyQxIyQ3IyQ5OSQyNjE4MzIjNjEjJDEjJDAjJDgz","name":"건강종합약국","category":"약국","sido":"경기","sigungu":"화성시","address":"경기도 화성시 장안면 수정로 143, (장안면)","phone":"031-358-3707","openDate":"2014-02-20","longitude":126.8584682,"latitude":37.0795138},{"id":"JDU4MTI3MSM1MSMkMSMkMCMkMDMkNDgxMTkxIzExIyQxIyQzIyQ2MiQyNjEyMjIjNDEjJDEjJDQjJDgz","name":"건강프라자약국","category":"약국","sido":"경기","sigungu":"김포시","address":"경기도 김포시 유현로 19, 상가동 109,110호 (풍무동, 유현마을신동아아파트)","phone":"031-998-0295","openDate":"2014-04-28","longitude":126.7231046,"latitude":37.597525},{"id":"JDU4MTI3MSM1MSMkMSMkMCMkMDMkNDgxMzUxIzUxIyQxIyQ1IyQ3OSQzNjE4MzIjODEjJDEjJDIjJDgz","name":"건강플러스약국","category":"약국","sido":"경기","sigungu":"군포시","address":"경기도 군포시 산본로323번길 16-14, 센타빌딩 A동 704호 (산본동)","phone":"031-391-8794","openDate":"2019-11-26","longitude":126.9320481,"latitude":37.3596767},{"id":"JDU4MTI3MSM1MSMkMSMkMCMkMDMkNDgxMzUxIzIxIyQyIyQxIyQwMCQyNjE4MzIjNTEjJDEjJDIjJDgz","name":"건강플러스약국","category":"약국","sido":"경기","sigungu":"안산단원구","address":"경기도 안산시 단원구 광덕대로 175, 삼성홈플러스 2층 (고잔동)","phone":"031-402-2081","openDate":"2018-03-26","longitude":126.8288995,"latitude":37.3119422},{"id":"JDU4MTI3MSM1MSMkMSMkMCMkMDMkNDgxMzUxIzIxIyQxIyQ1IyQxMyQ0NjE0ODEjNTEjJDEjJDYjJDgz","name":"건강플러스약국","category":"약국","sido":"경기","sigungu":"남양주시","address":"경기도 남양주시 진접읍 해밀예당1로 30-9, 110호","phone":"031-574-8796","openDate":"2018-09-03","longitude":127.1867779,"latitude":37.7116431},{"id":"JDU4MTI3MSM1MSMkMSMkMCMkMDMkNDgxMzUxIzMxIyQxIyQ3IyQ3MiQzNjE0ODEjNDEjJDEjJDgjJDgz","name":"건강플러스약국","category":"약국","sido":"경기","sigungu":"시흥시","address":"경기도 시흥시 희망공원로 269, 홈플러스시화점 2층 (정왕동)","phone":"031-496-9736","openDate":"2019-04-19","longitude":126.7251736,"latitude":37.3452489},{"id":"JDU4MTI3MSM1MSMkMSMkMCMkMDMkMzgxNzAyIzMxIyQxIyQ3IyQwMyQzNjE4MzIjNDEjJDEjJDgjJDgz","name":"건강필약국","category":"약국","sido":"경기","sigungu":"수원영통구","address":"경기도 수원시 영통구 효원로 363, 상가B동 315호 (매탄동, 매탄 위브 하늘채)","phone":"031-211-3545","openDate":"2016-10-17","longitude":127.041401,"latitude":37.2622858},{"id":"JDU4MTI3MSM1MSMkMSMkMCMkMDMkNDgxOTYxIzMxIyQxIyQzIyQ3MiQzNjEyMjIjNjEjJDEjJDgjJDgz","name":"건강한백세약국","category":"약국","sido":"경기","sigungu":"용인처인구","address":"경기도 용인시 처인구 원삼면 고당로 9, (원삼면)","phone":"031-333-5571","openDate":"2006-10-20","longitude":127.3114308,"latitude":37.1650036},{"id":"JDQ4MTYyMiM1MSMkMSMkMCMkMDMkNTgxMzUxIzUxIyQyIyQ1IyQwMCQyNjE4MzIjNjEjJDEjJDgjJDgz","name":"건강한세상약국","category":"약국","sido":"경기","sigungu":"안산단원구","address":"경기도 안산시 단원구 광덕대로 161, 1층 114,115호 (고잔동)","phone":"031-439-6557","openDate":"2004-03-16","longitude":126.8291214,"latitude":37.3110042},{"id":"JDQ4MTYyMiM1MSMkMSMkMCMkMDMkNDgxOTYxIzExIyQxIyQ3IyQxMyQzNjEwMDIjODEjJDEjJDYjJDgz","name":"건강한약국","category":"약국","sido":"경기","sigungu":"성남분당구","address":"경기도 성남시 분당구 황새울로311번길 14, 101호 (서현동, 서현리더스빌딩)","phone":"031-705-1181","openDate":"2013-08-12","longitude":127.1196311,"latitude":37.3854947},{"id":"JDQ4MTYyMiM1MSMkMSMkMCMkMDMkNDgxMTkxIzUxIyQxIyQ1IyQ2MiQzNjE0ODEjNDEjJDEjJDgjJDgz","name":"건강한약국","category":"약국","sido":"경기","sigungu":"광명시","address":"경기도 광명시 광명로 824, 1층 (광명동)","phone":"02-2681-7077","openDate":"2000-07-18","longitude":126.8515538,"latitude":37.4727964},{"id":"JDQ4MTYyMiM1MSMkMSMkMCMkMDMkNTgxOTYxIzUxIyQxIyQ1IyQ5MiQyNjE4MzIjNDEjJDEjJDgjJDgz","name":"건강한약국","category":"약국","sido":"경기","sigungu":"의정부시","address":"경기도 의정부시 추동로 9, 310호 (신곡동, 휴먼시티)","phone":"031-848-7085","openDate":"2006-05-25","longitude":127.0570465,"latitude":37.7429956},{"id":"JDU4MTI3MSM1MSMkMSMkMCMkMDMkMzgxMzUxIzIxIyQyIyQ1IyQwMCQyNjEyMjIjODEjJDEjJDYjJDgz","name":"건강한약국","category":"약국","sido":"경기","sigungu":"고양일산서구","address":"경기도 고양시 일산서구 일산로 526, 1층 (일산동, 진송빌딩)","phone":"031-916-8645","openDate":"2007-04-11","longitude":126.7695985,"latitude":37.6772811},{"id":"JDU4MTI3MSM1MSMkMSMkMCMkMDMkNDgxOTYxIzUxIyQxIyQxIyQ4OSQzNjE0ODEjNDEjJDEjJDQjJDgz","name":"건강한약국","category":"약국","sido":"경기","sigungu":"안성시","address":"경기도 안성시 장기로 9, S TOWER (석정동)","phone":"031-671-2627","openDate":"2022-01-14","longitude":127.2659215,"latitude":37.0077564},{"id":"JDU4MTI3MSM1MSMkMSMkMCMkMDMkNDgxMzUxIzExIyQxIyQ3IyQ4OSQ0NjEwMDIjNDEjJDEjJDgjJDgz","name":"건강한약국","category":"약국","sido":"경기","sigungu":"하남시","address":"경기도 하남시 신장로 156, 3층 302호 (덕풍동)","phone":"031-791-7772","openDate":"2017-11-29","longitude":127.2019465,"latitude":37.5399292},{"id":"JDU4MTI3MSM1MSMkMSMkMCMkMDMkMzgxMTkxIzIxIyQxIyQ1IyQwMyQyNjEwMDIjODEjJDEjJDIjJDgz","name":"건강한약국","category":"약국","sido":"경기","sigungu":"안산단원구","address":"경기도 안산시 단원구 원곡1로 49, 1층 (원곡동)","phone":"031-493-6211","openDate":"2018-04-02","longitude":126.7953672,"latitude":37.3304891},{"id":"JDQ4MTYyMiM1MSMkMSMkMCMkMDMkMzgxNzAyIzMxIyQxIyQ3IyQxMyQzNjE0ODEjNDEjJDEjJDgjJDgz","name":"건강한온누리약국","category":"약국","sido":"경기","sigungu":"화성시","address":"경기도 화성시 봉담읍 삼천병마로 621, 101호","phone":"070-8874-4703","openDate":"2011-12-27","longitude":126.9316975,"latitude":37.1644279},{"id":"JDQ4MTYyMiM1MSMkMSMkMCMkMDMkNTgxMzUxIzUxIyQxIyQ1IyQ3OSQyNjE4MzIjNjEjJDEjJDAjJDgz","name":"건강한우리약국","category":"약국","sido":"경기","sigungu":"광주시","address":"경기도 광주시 초월읍 산수로 568, A동","phone":"031-798-2888","openDate":"2022-03-18","longitude":127.3062891,"latitude":37.4111826},{"id":"JDQ4MTYyMiM1MSMkMSMkMCMkMDMkNDgxOTYxIzQxIyQxIyQ3IyQxMyQzNjE4MzIjNTEjJDEjJDYjJDgz","name":"건민약국","category":"약국","sido":"경기","sigungu":"부천오정구","address":"경기도 부천시 오정구 지양로158번길 5, (고강동)","phone":"032-671-2118","openDate":"2004-10-07","longitude":126.8252572,"latitude":37.5232675},{"id":"JDU4MTI3MSM1MSMkMSMkMCMkMDMkNDgxOTYxIzExIyQxIyQ3IyQ2MiQyNjE0ODEjNjEjJDEjJDAjJDgz","name":"건약국","category":"약국","sido":"경기","sigungu":"평택시","address":"경기도 평택시 평택4로 41, 1층 (합정동)","phone":"031-652-9456","openDate":"2020-06-02","longitude":127.100359,"latitude":36.9917538},{"id":"JDU4MTI3MSM1MSMkMSMkMCMkMDMkNDgxMTkxIzIxIyQxIyQxIyQ3MiQ0NjEwMDIjNzEjJDEjJDgjJDgz","name":"건우약국","category":"약국","sido":"경기","sigungu":"의정부시","address":"경기도 의정부시 호동로 52, 101호 (호원동, 가든아파트상가)","phone":"031-829-9120","openDate":"1996-08-10","longitude":127.0420658,"latitude":37.7289866},{"id":"JDQ4MTYyMiM1MSMkMSMkMCMkMDMkMzgxOTYxIzMxIyQxIyQ3IyQ3MiQzNjE0ODEjNDEjJDEjJDgjJDgz","name":"건인약국","category":"약국","sido":"경기","sigungu":"안양동안구","address":"경기도 안양시 동안구 인덕원로24번길 56, (관양동)","phone":"031-423-1185","openDate":"1987-11-19","longitude":126.9752182,"latitude":37.3998949},{"id":"JDU4MTI3MSM1MSMkMSMkMCMkMDMkMzgxMzUxIzIxIyQxIyQxIyQ5OSQzNjEwMDIjNDEjJDEjJDQjJDgz","name":"건일약국","category":"약국","sido":"경기","sigungu":"동두천시","address":"경기도 동두천시 동광로 55, (생연동)","phone":"031-865-2568","openDate":"2019-01-02","longitude":127.0543923,"latitude":37.9087312},{"id":"JDU4MTI3MSM1MSMkMSMkMCMkMDMkNDgxMzUxIzQxIyQxIyQ3IyQxMyQzNjEyMjIjNTEjJDEjJDIjJDgz","name":"걸포솔약국","category":"약국","sido":"경기","sigungu":"김포시","address":"경기도 김포시 걸포2로 21, 110호 (걸포동)","phone":"031-988-7750","openDate":"2023-06-09","longitude":126.704889,"latitude":37.632495},{"id":"JDQ4MTYyMiM1MSMkMSMkMCMkMDMkNDgxMTkxIzExIyQxIyQ3IyQ3MiQzNjEwMDIjNjEjJDEjJDQjJDgz","name":"경기약국","category":"약국","sido":"경기","sigungu":"광주시","address":"경기도 광주시 고불로 58, (중대동)","phone":"","openDate":"1997-11-13","longitude":127.231545,"latitude":37.3931242},{"id":"JDQ4MTYyMiM1MSMkMSMkMCMkMDMkMzgxMTkxIzUxIyQyIyQxIyQwMCQzNjEyMjIjNDEjJDEjJDgjJDgz","name":"경기약국","category":"약국","sido":"경기","sigungu":"용인처인구","address":"경기도 용인시 처인구 금령로 3-1, 1층 (김량장동)","phone":"031-335-2724","openDate":"1985-09-30","longitude":127.1966747,"latitude":37.2349837},{"id":"JDQ4MTYyMiM1MSMkMSMkMCMkMDMkMzgxMTkxIzExIyQxIyQzIyQ3MiQzNjE0ODEjODEjJDEjJDYjJDgz","name":"경기약국","category":"약국","sido":"경기","sigungu":"평택시","address":"경기도 평택시 중앙시장로19번길 17, (신장동)","phone":"031-666-8549","openDate":"1983-01-27","longitude":127.0520577,"latitude":37.0808866},{"id":"JDQ4MTYyMiM1MSMkMSMkMCMkMDMkMzgxMTkxIzExIyQxIyQ3IyQ4OSQzNjEwMDIjNjEjJDEjJDAjJDgz","name":"경기약국","category":"약국","sido":"경기","sigungu":"오산시","address":"경기도 오산시 오산로 302, (오산동)","phone":"031-375-6165","openDate":"2006-08-30","longitude":127.0688177,"latitude":37.1539633},{"id":"JDQ4MTYyMiM1MSMkMSMkMCMkMDMkMzgxMTkxIzIxIyQxIyQxIyQ3OSQyNjEyMjIjODEjJDEjJDYjJDgz","name":"경기약국","category":"약국","sido":"경기","sigungu":"평택시","address":"경기도 평택시 중앙로 21-1, (통복동)","phone":"031-655-5466","openDate":"1986-10-27","longitude":127.0857519,"latitude":36.9952561},{"id":"JDQ4MTYyMiM1MSMkMSMkMCMkMDMkNTgxMzUxIzQxIyQxIyQ3IyQxMyQzNjE0ODEjNjEjJDEjJDQjJDgz","name":"경기약국","category":"약국","sido":"경기","sigungu":"이천시","address":"경기도 이천시 영창로 189, 1층 104호 (창전동)","phone":"031-637-0095","openDate":"2015-10-19","longitude":127.443673,"latitude":37.2815032},{"id":"JDQ4MTYyMiM1MSMkMSMkMCMkMDMkMzgxNzAyIzIxIyQyIyQ1IyQwMCQ0NjE0ODEjNDEjJDEjJDgjJDgz","name":"경기약국","category":"약국","sido":"경기","sigungu":"화성시","address":"경기도 화성시 남양읍 남양시장로 81, (남양읍)","phone":"031-356-6152","openDate":"1991-12-21","longitude":126.818119,"latitude":37.2098934},{"id":"JDU4MTI3MSM1MSMkMSMkMCMkMDMkMzgxNzAyIzExIyQxIyQ3IyQ5MiQ0NjEwMDIjODEjJDEjJDYjJDgz","name":"경기약국","category":"약국","sido":"경기","sigungu":"수원권선구","address":"경기도 수원시 권선구 정조로526번길 7, 101호 (세류동)","phone":"031-232-2077","openDate":"2015-03-12","longitude":127.0118082,"latitude":37.2561726},{"id":"JDU4MTI3MSM1MSMkMSMkMCMkMDMkNDgxOTYxIzMxIyQxIyQ3IyQ4MiQ0NjEwMDIjNjEjJDEjJDAjJDgz","name":"경기프라자약국","category":"약국","sido":"경기","sigungu":"부천원미구","address":"경기도 부천시 원미구 길주로 86, 101,102호 (상동, 해피플러스)","phone":"032-327-9075","openDate":"2006-12-04","longitude":126.7519392,"latitude":37.5052331},{"id":"JDU4MTI3MSM1MSMkMSMkMCMkMDMkNDgxMTkxIzMxIyQxIyQzIyQxMyQyNjE0ODEjNDEjJDEjJDgjJDgz","name":"경동메디칼약국","category":"약국","sido":"경기","sigungu":"안산상록구","address":"경기도 안산시 상록구 예술광장1로 126, 208호 (성포동, 경동프라자)","phone":"031-487-1688","openDate":"2006-04-25","longitude":126.8441549,"latitude":37.3269339},{"id":"JDU4MTI3MSM1MSMkMSMkMCMkMDMkNDgxNzAyIzExIyQxIyQ3IyQ2MiQyNjEwMDIjNTEjJDEjJDYjJDgz","name":"경민약국","category":"약국","sido":"경기","sigungu":"성남분당구","address":"경기도 성남시 분당구 돌마로 52, MD프라자 1층 106호 (구미동)","phone":"031-717-1090","openDate":"2021-01-28","longitude":127.1077571,"latitude":37.3496883},{"id":"JDU4MTI3MSM1MSMkMSMkMCMkMDMkMzgxMTkxIzExIyQyIyQ3IyQwMCQzNjE0ODEjNTEjJDEjJDYjJDgz","name":"경민약국","category":"약국","sido":"경기","sigungu":"수원팔달구","address":"경기도 수원시 팔달구 효원로 278, 305호 (인계동)","phone":"031-222-0919","openDate":"2024-08-22","longitude":127.0324397,"latitude":37.2611088},{"id":"JDQ4MTYyMiM1MSMkMSMkMCMkMDMkNTgxMzUxIzIxIyQxIyQ1IyQ3MiQzNjEwMDIjODEjJDEjJDYjJDgz","name":"경서프라자약국","category":"약국","sido":"경기","sigungu":"김포시","address":"경기도 김포시 김포한강9로76번길 37, 경서프라자 (구래동)","phone":"070-4227-0669","openDate":"2019-03-21","longitude":126.627325,"latitude":37.6441978},{"id":"JDQ4MTYyMiM1MSMkMSMkMCMkMDMkMzgxNzAyIzMxIyQyIyQzIyQwMCQyNjEwMDIjNzEjJDEjJDgjJDgz","name":"경성약국","category":"약국","sido":"경기","sigungu":"성남수정구","address":"경기도 성남시 수정구 시민로 230, (태평동)","phone":"031-756-7373","openDate":"1991-09-11","longitude":127.1407153,"latitude":37.448236},{"id":"JDU4MTI3MSM1MSMkMSMkMCMkMDMkNDgxMTkxIzIxIyQxIyQ5IyQ5OSQ0NjE0ODEjNDEjJDEjJDQjJDgz","name":"경안365약국","category":"약국","sido":"경기","sigungu":"광주시","address":"경기도 광주시 광주대로 31, 광주지에이타워 107호 (경안동)","phone":"031-765-9875","openDate":"2024-02-01","longitude":127.2602612,"latitude":37.4093844},{"id":"JDQ4MTYyMiM1MSMkMSMkMCMkMDMkMzgxMTkxIzMxIyQyIyQ3IyQwMCQyNjE0ODEjNDEjJDEjJDQjJDgz","name":"경안약국","category":"약국","sido":"경기","sigungu":"광주시","address":"경기도 광주시 중앙로 156, 1층 (경안동)","phone":"031-761-4144","openDate":"1981-02-24","longitude":127.2572152,"latitude":37.4134535},{"id":"JDU4MTI3MSM1MSMkMSMkMCMkMDMkMzgxMzUxIzMxIyQxIyQzIyQ4MiQzNjEwMDIjODEjJDEjJDIjJDgz","name":"경원약국","category":"약국","sido":"경기","sigungu":"고양일산동구","address":"경기도 고양시 일산동구 동국로 26, 1층 (식사동)","phone":"031-969-2900","openDate":"2011-12-20","longitude":126.807598,"latitude":37.6764614},{"id":"JDQ4MTYyMiM1MSMkMSMkMCMkMDMkMzgxOTYxIzExIyQxIyQ3IyQ3OSQzNjE0ODEjNTEjJDEjJDYjJDgz","name":"경인약국","category":"약국","sido":"경기","sigungu":"부천소사구","address":"경기도 부천시 소사구 자유로 35, (심곡본동)","phone":"032-613-0005","openDate":"1997-05-13","longitude":126.7799296,"latitude":37.4838192},{"id":"JDU4MTI3MSM1MSMkMSMkMCMkMDMkMzgxMzUxIzQxIyQxIyQ3IyQxMyQyNjEwMDIjNDEjJDEjJDQjJDgz","name":"경인종로약국","category":"약국","sido":"경기","sigungu":"부천오정구","address":"경기도 부천시 오정구 오정로 242, 1층 (오정동, 낙원빌딩)","phone":"032-672-7155","openDate":"2008-07-11","longitude":126.7859431,"latitude":37.5291509},{"id":"JDU4MTI3MSM1MSMkMSMkMCMkMDMkMzgxMzUxIzIxIyQxIyQ1IyQ5MiQzNjE4MzIjODEjJDEjJDYjJDgz","name":"경희 함약국","category":"약국","sido":"경기","sigungu":"구리시","address":"경기도 구리시 동구릉로6번길 13-1, 대원빌딩 (교문동)","phone":"031-565-1452","openDate":"2019-07-17","longitude":127.1318482,"latitude":37.6017143},{"id":"JDU4MTI3MSM1MSMkMSMkMCMkMDMkMzgxNzAyIzIxIyQxIyQxIyQ4MiQyNjEwMDIjNTEjJDEjJDIjJDgz","name":"경희당한약국","category":"약국","sido":"경기","sigungu":"부천오정구","address":"경기도 부천시 오정구 고강로92번길 49, (고강동)","phone":"032-683-8892","openDate":"2007-03-07","longitude":126.8144565,"latitude":37.528049},{"id":"JDU4MTI3MSM1MSMkMSMkMCMkMDMkMzgxNzAyIzExIyQxIyQ3IyQxMyQyNjE0ODEjNDEjJDEjJDQjJDgz","name":"경희대한약국","category":"약국","sido":"경기","sigungu":"광명시","address":"경기도 광명시 새터로 51, 1층 (광명동)","phone":"02-2685-0855","openDate":"2015-10-06","longitude":126.854067,"latitude":37.4727891},{"id":"JDU4MTI3MSM1MSMkMSMkMCMkMDMkNDgxOTYxIzUxIyQxIyQxIyQxMyQyNjE0ODEjNjEjJDEjJDQjJDgz","name":"경희서울한약국","category":"약국","sido":"경기","sigungu":"고양일산동구","address":"경기도 고양시 일산동구 동국로 20, 2층 일부호 (식사동)","phone":"031-964-8388","openDate":"2022-03-04","longitude":126.8075711,"latitude":37.6759486},{"id":"JDU4MTI3MSM1MSMkMSMkMCMkMDMkNDgxMzUxIzIxIyQxIyQxIyQwMyQzNjEyMjIjNTEjJDEjJDYjJDgz","name":"경희선제당한약국","category":"약국","sido":"경기","sigungu":"화성시","address":"경기도 화성시 남양읍 남양시장로 85, 1층","phone":"031-357-8824","openDate":"2018-05-08","longitude":126.8184583,"latitude":37.2100312},{"id":"JDU4MTI3MSM1MSMkMSMkMCMkMDMkNDgxOTYxIzIxIyQxIyQ1IyQwMyQyNjE0ODEjNjEjJDEjJDgjJDgz","name":"경희성수한약국","category":"약국","sido":"경기","sigungu":"수원팔달구","address":"경기도 수원시 팔달구 고화로72번길 1, (고등동)","phone":"031-245-0017","openDate":"2021-01-22","longitude":127.0065003,"latitude":37.2757926},{"id":"JDU4MTI3MSM1MSMkMSMkMCMkMDMkNDgxMzUxIzIxIyQxIyQxIyQ4MiQzNjEwMDIjNDEjJDEjJDgjJDgz","name":"경희수 한방약국","category":"약국","sido":"경기","sigungu":"용인수지구","address":"경기도 용인시 수지구 풍덕천로96번길 3-14, 1층 (풍덕천동)","phone":"031-8019-7509","openDate":"2022-03-15","longitude":127.0938013,"latitude":37.3211042},{"id":"JDU4MTI3MSM1MSMkMSMkMCMkMDMkMzgxNzAyIzUxIyQxIyQ1IyQ4OSQ0NjEwMDIjNjEjJDEjJDgjJDgz","name":"경희양춘당한약국","category":"약국","sido":"경기","sigungu":"안양만안구","address":"경기도 안양시 만안구 석천로 172, 성우빌딩 1층 (석수동)","phone":"031-441-6762","openDate":"2017-05-23","longitude":126.908284,"latitude":37.4120119},{"id":"JDU4MTI3MSM1MSMkMSMkMCMkMDMkNDgxMTkxIzExIyQxIyQ3IyQ5OSQzNjE4MzIjNTEjJDEjJDIjJDgz","name":"경희온누리약국","category":"약국","sido":"경기","sigungu":"안성시","address":"경기도 안성시 대덕면 서동대로 4723, (대덕면)","phone":"031-672-1649","openDate":"2017-08-11","longitude":127.2255919,"latitude":37.0131929},{"id":"JDU4MTI3MSM1MSMkMSMkMCMkMDMkMzgxNzAyIzIxIyQxIyQ1IyQ2MiQzNjEyMjIjNjEjJDEjJDQjJDgz","name":"경희유원한약국","category":"약국","sido":"경기","sigungu":"고양덕양구","address":"경기도 고양시 덕양구 토당로 52, 102호 (토당동, 능곡프라자)","phone":"031-979-6160","openDate":"2014-04-25","longitude":126.8206131,"latitude":37.6205032},{"id":"JDU4MTI3MSM1MSMkMSMkMCMkMDMkMzgxOTYxIzUxIyQxIyQ1IyQ3OSQyNjE0ODEjNjEjJDEjJDAjJDgz","name":"경희진한약국","category":"약국","sido":"경기","sigungu":"군포시","address":"경기도 군포시 고산로264번길 13, 103호 (당동, 그린프라자)","phone":"031-396-8136","openDate":"2011-12-01","longitude":126.9439123,"latitude":37.3479215},{"id":"JDU4MTI3MSM1MSMkMSMkMCMkMDMkMzgxMTkxIzIxIyQxIyQ5IyQ2MiQzNjEwMDIjODEjJDEjJDIjJDgz","name":"경희착한맘한약국","category":"약국","sido":"경기","sigungu":"성남수정구","address":"경기도 성남시 수정구 위례광장로 300, 중앙타워 2층 228호 (창곡동)","phone":"02-449-1613","openDate":"2024-10-22","longitude":127.1427026,"latitude":37.4734648},{"id":"JDU4MTI3MSM1MSMkMSMkMCMkMDMkMzgxNzAyIzIxIyQxIyQxIyQ5MiQyNjE4MzIjNjEjJDEjJDgjJDgz","name":"경희참한약국","category":"약국","sido":"경기","sigungu":"고양일산동구","address":"경기도 고양시 일산동구 일산로463번길 77-1, 1층 (정발산동)","phone":"031-911-7306","openDate":"2008-05-02","longitude":126.7737016,"latitude":37.671171},{"id":"JDU4MTI3MSM1MSMkMSMkMCMkMDMkNDgxOTYxIzMxIyQxIyQ3IyQ2MiQzNjEwMDIjNzEjJDEjJDgjJDgz","name":"경희참한약국","category":"약국","sido":"경기","sigungu":"안산상록구","address":"경기도 안산시 상록구 석호로 197, (사동)","phone":"031-415-0012","openDate":"2010-07-27","longitude":126.8532129,"latitude":37.2955042},{"id":"JDQ4MTYyMiM1MSMkMSMkMCMkMDMkNDgxOTYxIzIxIyQxIyQ5IyQ5MiQzNjE4MzIjNDEjJDEjJDQjJDgz","name":"경희프라자약국","category":"약국","sido":"경기","sigungu":"하남시","address":"경기도 하남시 신장로 159, (덕풍동)","phone":"031-795-3452","openDate":"1996-09-24","longitude":127.2013706,"latitude":37.5399453},{"id":"JDU4MTI3MSM1MSMkMSMkMCMkMDMkMzgxNzAyIzIxIyQxIyQxIyQwMyQyNjE0ODEjODEjJDEjJDYjJDgz","name":"경희한약국","category":"약국","sido":"경기","sigungu":"성남수정구","address":"경기도 성남시 수정구 모란로 89, (태평동)","phone":"031-756-7725","openDate":"2008-10-24","longitude":127.1257892,"latitude":37.4409781},{"id":"JDU4MTI3MSM1MSMkMSMkMCMkMDMkMzgxNzAyIzIxIyQxIyQ1IyQ2MiQyNjE4MzIjNDEjJDEjJDgjJDgz","name":"경희한약국 순수","category":"약국","sido":"경기","sigungu":"고양일산서구","address":"경기도 고양시 일산서구 중앙로 1581, 하이투모로 오피스텔  1층 119B호 (대화동)","phone":"031-916-1113","openDate":"2020-06-25","longitude":126.7461249,"latitude":37.6761683},{"id":"JDU4MTI3MSM1MSMkMSMkMCMkMDMkNDgxMzUxIzMxIyQxIyQ3IyQ5OSQyNjEwMDIjNjEjJDEjJDAjJDgz","name":"경희행복한약국","category":"약국","sido":"경기","sigungu":"고양덕양구","address":"경기도 고양시 덕양구 중앙로 559, 그랑프리빌딩 105호 (행신동)","phone":"031-971-7767","openDate":"2019-03-21","longitude":126.8347923,"latitude":37.6235504},{"id":"JDQ4MTYyMiM1MSMkMSMkMCMkMDMkMzgxOTYxIzIxIyQyIyQ1IyQwMCQyNjEwMDIjNTEjJDEjJDYjJDgz","name":"계림약국","category":"약국","sido":"경기","sigungu":"안산단원구","address":"경기도 안산시 단원구 원곡로 38, (원곡동)","phone":"031-491-1727","openDate":"1996-07-26","longitude":126.7931924,"latitude":37.3305028},{"id":"JDU4MTI3MSM1MSMkMSMkMCMkMDMkMzgxOTYxIzIxIyQxIyQxIyQ3OSQyNjEwMDIjODEjJDEjJDIjJDgz","name":"계림약국","category":"약국","sido":"경기","sigungu":"화성시","address":"경기도 화성시 동탄솔빛로 68, 105호 (반송동, 계림빌딩)","phone":"031-613-2461","openDate":"2009-11-06","longitude":127.0748602,"latitude":37.1944452},{"id":"JDQ4MTYyMiM1MSMkMSMkMCMkMDMkNTgxOTYxIzIxIyQxIyQ1IyQ2MiQyNjE4MzIjNDEjJDEjJDgjJDgz","name":"고강녹십자약국","category":"약국","sido":"경기","sigungu":"부천오정구","address":"경기도 부천시 오정구 역곡로 480, (고강동)","phone":"032-681-9222","openDate":"2015-11-02","longitude":126.8163427,"latitude":37.5273616},{"id":"JDU4MTI3MSM1MSMkMSMkMCMkMDMkMzgxMTkxIzMxIyQxIyQ3IyQ4OSQzNjE4MzIjNjEjJDEjJDQjJDgz","name":"고구려약국","category":"약국","sido":"경기","sigungu":"성남수정구","address":"경기도 성남시 수정구 수정로 130, 창도빌딩 1층 (수진동)","phone":"031-722-0584","openDate":"2014-01-02","longitude":127.1347935,"latitude":37.4414953},{"id":"JDU4MTI3MSM1MSMkMSMkMCMkMDMkNDgxNzAyIzIxIyQxIyQ5IyQ4MiQ0NjEwMDIjNTEjJDEjJDIjJDgz","name":"고덕365약국","category":"약국","sido":"경기","sigungu":"평택시","address":"경기도 평택시 고덕로3길 22, 104호 (고덕동)","phone":"","openDate":"2025-01-17","longitude":127.0265678,"latitude":37.0371155},{"id":"JDQ4MTYyMiM1MSMkMSMkMCMkMDMkMzgxMTkxIzIxIyQxIyQxIyQ3OSQ0NjEwMDIjNjEjJDEjJDgjJDgz","name":"고덕드림약국","category":"약국","sido":"경기","sigungu":"평택시","address":"경기도 평택시 고덕여염9길 38, 105,106호 (고덕동)","phone":"031-611-6789","openDate":"2022-03-21","longitude":127.0509675,"latitude":37.0401502},{"id":"JDQ4MTYyMiM1MSMkMSMkMCMkMDMkMzgxNzAyIzUxIyQxIyQxIyQxMyQyNjEyMjIjODEjJDEjJDIjJDgz","name":"고덕메디칼약국","category":"약국","sido":"경기","sigungu":"평택시","address":"경기도 평택시 고덕면 동청1길 35, 102호","phone":"031-611-0137","openDate":"2012-02-01","longitude":127.006249,"latitude":37.0550184},{"id":"JDU4MTI3MSM1MSMkMSMkMCMkMDMkNDgxNzAyIzIxIyQxIyQxIyQ5MiQyNjE4MzIjODEjJDEjJDIjJDgz","name":"고덕미소약국","category":"약국","sido":"경기","sigungu":"평택시","address":"경기도 평택시 고덕로 246, 102호 (고덕동)","phone":"","openDate":"2024-08-30","longitude":127.0278885,"latitude":37.0359967},