{"pharmacies":[{"id":"JDQ4MTYyMiM3MSMkMSMkMCMkMDMkMzgxMzUxIzUxIyQxIyQ1IyQ5OSQ0NjE0ODEjNjEjJDEjJDAjJDgz","name":"21세기약국","category":"약국","sido":"전남","sigungu":"순천시","address":"전라남도 순천시 팔마로 22, (장천동)","phone":"061-743-0307","openDate":"1998-04-14","longitude":127.4906501,"latitude":34.9463371},{"id":"JDQ4MTYyMiM3MSMkMSMkMCMkMDMkMzgxNzAyIzIxIyQxIyQ5IyQ3MiQ0NjEwMDIjODEjJDEjJDYjJDgz","name":"365 우리약국","category":"약국","sido":"전남","sigungu":"나주시","address":"전라남도 나주시 전력로 2, 114호 (빛가람동, 이화프라자)","phone":"061-333-8228","openDate":"2017-09-04","longitude":126.785331,"latitude":35.0215717},{"id":"JDQ4MTYyMiM3MSMkMSMkMCMkMDMkMzgxNzAyIzMxIyQxIyQ3IyQ2MiQyNjE0ODEjNDEjJDEjJDgjJDgz","name":"365 종로약국","category":"약국","sido":"전남","sigungu":"나주시","address":"전라남도 나주시 대호길 85-1, 1층 (대호동)","phone":"","openDate":"2020-10-05","longitude":126.7171204,"latitude":35.0427314},{"id":"JDQ4MTYyMiM3MSMkMSMkMCMkMDMkMzgxNzAyIzMxIyQxIyQzIyQ2MiQyNjEyMjIjNDEjJDEjJDgjJDgz","name":"365보배약국","category":"약국","sido":"전남","sigungu":"순천시","address":"전라남도 순천시 봉화2길 99, 2층 (조례동)","phone":"061-722-1172","openDate":"2019-03-04","longitude":127.5178406,"latitude":34.9617115},{"id":"JDQ4MTYyMiM3MSMkMSMkMCMkMDMkMzgxMTkxIzIxIyQxIyQxIyQ3MiQzNjE0ODEjNDEjJDEjJDQjJDgz","name":"365웃장대형약국","category":"약국","sido":"전남","sigungu":"순천시","address":"전라남도 순천시 중앙로 136, 1층 (매곡동)","phone":"061-753-5522","openDate":"2014-12-18","longitude":127.4844433,"latitude":34.9577919},{"id":"JDQ4MTYyMiM3MSMkMSMkMCMkMDMkMzgxMTkxIzMxIyQxIyQzIyQ4MiQzNjEwMDIjNjEjJDEjJDAjJDgz","name":"365일 정성약국","category":"약국","sido":"전남","sigungu":"여수시","address":"전라남도 여수시 장성3길 52, (안산동)","phone":"061-685-1055","openDate":"2017-12-01","longitude":127.6540322,"latitude":34.7543181},{"id":"JDQ4MTYyMiM3MSMkMSMkMCMkMDMkMzgxMTkxIzExIyQxIyQ3IyQ2MiQzNjEwMDIjNjEjJDEjJDAjJDgz","name":"365일연향대형약국","category":"약국","sido":"전남","sigungu":"순천시","address":"전라남도 순천시 연향3로 11, 1층 1A 4호~6호 (연향동)","phone":"061-746-3651","openDate":"2013-12-06","longitude":127.5168796,"latitude":34.950915},{"id":"JDQ4MTYyMiM3MSMkMSMkMCMkMDMkMzgxNzAyIzExIyQxIyQ3IyQ5OSQzNjEwMDIjNjEjJDEjJDQjJDgz","name":"w-store광양서울약국","category":"약국","sido":"전남","sigungu":"광양시","address":"전라남도 광양시 진등6길 51, (마동)","phone":"061-795-4892","openDate":"2012-11-20","longitude":127.6923548,"latitude":34.9563144},{"id":"JDQ4MTYyMiM3MSMkMSMkMCMkMDMkMzgxNzAyIzQxIyQxIyQ3IyQ3OSQyNjEwMDIjNjEjJDEjJDgjJDgz","name":"가곡우리약국","category":"약국","sido":"전남","sigungu":"순천시","address":"전라남도 순천시 고지1길 4, (가곡동)","phone":"061-754-0070","openDate":"2021-10-21","longitude":127.4845828,"latitude":34.9800789},{"id":"JDQ4MTYyMiM3MSMkMSMkMCMkMDMkMzgxNzAyIzMxIyQxIyQzIyQ2MiQyNjE0ODEjNjEjJDEjJDAjJDgz","name":"가까운평화약국","category":"약국","sido":"전남","sigungu":"순천시","address":"전라남도 순천시 해룡면 순광로 234-9, 가동 1층 101호","phone":"061-721-7500","openDate":"2018-12-17","longitude":127.5452672,"latitude":34.9635348},{"id":"JDQ4MTYyMiM3MSMkMSMkMCMkMDMkMzgxMzUxIzQxIyQxIyQ3IyQ2MiQzNjE0ODEjNTEjJDEjJDYjJDgz","name":"가나약국","category":"약국","sido":"전남","sigungu":"목포시","address":"전라남도 목포시 영산로 343, 1층 (용당동)","phone":"061-279-6500","openDate":"2019-05-13","longitude":126.4028925,"latitude":34.8062438},{"id":"JDQ4MTYyMiM3MSMkMSMkMCMkMDMkMzgxNzAyIzMxIyQxIyQ3IyQxMyQzNjEwMDIjODEjJDEjJDIjJDgz","name":"가든약국","category":"약국","sido":"전남","sigungu":"순천시","address":"전라남도 순천시 장명로 47, (장천동)","phone":"061-743-7665","openDate":"2000-10-19","longitude":127.4892267,"latitude":34.9511501},{"id":"JDQ4MTYyMiM3MSMkMSMkMCMkMDMkMzgxMzUxIzUxIyQxIyQ1IyQ5OSQzNjEwMDIjNDEjJDEjJDQjJDgz","name":"가야산약국","category":"약국","sido":"전남","sigungu":"광양시","address":"전라남도 광양시 진등길 19, (중동)","phone":"061-795-2341","openDate":"2012-02-10","longitude":127.6902347,"latitude":34.9502636},{"id":"JDQ4MTYyMiM3MSMkMSMkMCMkMDMkMzgxOTYxIzUxIyQxIyQ1IyQxMyQzNjE4MzIjNTEjJDEjJDIjJDgz","name":"가은약국","category":"약국","sido":"전남","sigungu":"보성군","address":"전라남도 보성군 조성면 조성로 104, (조성면)","phone":"061-858-4339","openDate":"2008-10-15","longitude":127.2460908,"latitude":34.8073268},{"id":"JDQ4MTYyMiM3MSMkMSMkMCMkMDMkMzgxMTkxIzUxIyQxIyQxIyQ5MiQyNjE0ODEjNDEjJDEjJDQjJDgz","name":"가정약국","category":"약국","sido":"전남","sigungu":"장성군","address":"전라남도 장성군 장성읍 영천로 208-1, (장성읍)","phone":"061-393-7576","openDate":"2015-05-26","longitude":126.7856067,"latitude":35.3028917},{"id":"JDQ4MTYyMiM3MSMkMSMkMCMkMDMkMzgxOTYxIzExIyQxIyQ3IyQ5MiQzNjE0ODEjNTEjJDEjJDIjJDgz","name":"감초약국","category":"약국","sido":"전남","sigungu":"장흥군","address":"전라남도 장흥군 장흥읍 중앙로1길 8, (장흥읍)","phone":"061-863-9217","openDate":"1979-09-06","longitude":126.9095877,"latitude":34.6772627},{"id":"JDQ4MTYyMiM3MSMkMSMkMCMkMDMkMzgxNzAyIzQxIyQxIyQ3IyQ3MiQ0NjEwMDIjODEjJDEjJDIjJDgz","name":"강변약국","category":"약국","sido":"전남","sigungu":"나주시","address":"전라남도 나주시 남평읍 강변2길 5-11, 102호","phone":"","openDate":"2021-03-02","longitude":126.8501656,"latitude":35.0405902},{"id":"JDQ4MTYyMiM3MSMkMSMkMCMkMDMkMzgxOTYxIzMxIyQyIyQzIyQwMCQzNjEyMjIjNjEjJDEjJDQjJDgz","name":"강약국","category":"약국","sido":"전남","sigungu":"고흥군","address":"전라남도 고흥군 도화면 중심길 27, (도화면)","phone":"061-833-8942","openDate":"1992-09-03","longitude":127.3190204,"latitude":34.5100087},{"id":"JDQ4MTYyMiM3MSMkMSMkMCMkMDMkMzgxNzAyIzMxIyQxIyQzIyQ3MiQyNjE0ODEjNDEjJDEjJDgjJDgz","name":"강약국","category":"약국","sido":"전남","sigungu":"영광군","address":"전라남도 영광군 영광읍 옥당로 134, (영광읍)","phone":"","openDate":"2019-02-07","longitude":126.5021607,"latitude":35.274216},{"id":"JDQ4MTYyMiM3MSMkMSMkMCMkMDMkMzgxOTYxIzQxIyQxIyQ3IyQwMyQzNjE4MzIjNTEjJDEjJDIjJDgz","name":"강진백제약국","category":"약국","sido":"전남","sigungu":"강진군","address":"전라남도 강진군 강진읍 영랑로 38, (강진읍)","phone":"061-434-2229","openDate":"2001-01-18","longitude":126.7682699,"latitude":34.6389338},{"id":"JDQ4MTYyMiM3MSMkMSMkMCMkMDMkMzgxMTkxIzUxIyQxIyQxIyQ4OSQzNjEyMjIjNjEjJDEjJDQjJDgz","name":"강진약국","category":"약국","sido":"전남","sigungu":"강진군","address":"전라남도 강진군 강진읍 보은로1길 28, (강진읍)","phone":"061-433-4141","openDate":"2017-07-18","longitude":126.7693688,"latitude":34.638629},{"id":"JDQ4MTYyMiM3MSMkMSMkMCMkMDMkMzgxMTkxIzQxIyQxIyQ3IyQ4MiQyNjE4MzIjNDEjJDEjJDgjJDgz","name":"강진종로약국","category":"약국","sido":"전남","sigungu":"강진군","address":"전라남도 강진군 강진읍 영랑로 25, (강진읍)","phone":"061-432-9202","openDate":"2010-03-02","longitude":126.7686432,"latitude":34.6379353},{"id":"JDQ4MTYyMiM3MSMkMSMkMCMkMDMkMzgxNzAyIzUxIyQxIyQxIyQ4OSQyNjEyMjIjODEjJDEjJDIjJDgz","name":"건강 100세 한약국","category":"약국","sido":"전남","sigungu":"여수시","address":"전라남도 여수시 문수북2길 17-1, (문수동)","phone":"","openDate":"2023-10-19","longitude":127.707827,"latitude":34.7594639},{"id":"JDQ4MTYyMiM3MSMkMSMkMCMkMDMkMzgxMTkxIzIxIyQxIyQxIyQ3MiQyNjE4MzIjNDEjJDEjJDgjJDgz","name":"건강드림약국","category":"약국","sido":"전남","sigungu":"순천시","address":"전라남도 순천시 순광로 14, (조례동)","phone":"061-727-7556","openDate":"2018-01-10","longitude":127.522948,"latitude":34.9545245},{"id":"JDQ4MTYyMiM3MSMkMSMkMCMkMDMkMzgxOTYxIzMxIyQxIyQzIyQ4MiQ0NjEwMDIjNDEjJDEjJDgjJDgz","name":"건강마트약국","category":"약국","sido":"전남","sigungu":"완도군","address":"전라남도 완도군 완도읍 장보고대로 264, (완도읍)","phone":"061-552-2460-1","openDate":"1999-03-09","longitude":126.7539499,"latitude":34.3154393},{"id":"JDQ4MTYyMiM3MSMkMSMkMCMkMDMkMzgxOTYxIzIxIyQyIyQxIyQwMCQ0NjEwMDIjNDEjJDEjJDgjJDgz","name":"건강마트약국","category":"약국","sido":"전남","sigungu":"해남군","address":"전라남도 해남군 해남읍 해남로 7, (해남읍)","phone":"061-533-8830","openDate":"1988-07-13","longitude":126.6079262,"latitude":34.5711159},{"id":"JDQ4MTYyMiM3MSMkMSMkMCMkMDMkMzgxNzAyIzUxIyQxIyQxIyQwMyQzNjEwMDIjNTEjJDEjJDYjJDgz","name":"건강샘온누리약국","category":"약국","sido":"전남","sigungu":"목포시","address":"전라남도 목포시 신흥로 44, (상동)","phone":"061-281-0344","openDate":"2018-08-31","longitude":126.4256574,"latitude":34.8030362},{"id":"JDQ4MTYyMiM3MSMkMSMkMCMkMDMkMzgxNzAyIzQxIyQxIyQ3IyQwMyQzNjE4MzIjNTEjJDEjJDYjJDgz","name":"건강약국","category":"약국","sido":"전남","sigungu":"담양군","address":"전라남도 담양군 담양읍 중앙로 34, (담양읍)","phone":"061-938-9942","openDate":"2023-04-27","longitude":126.983481,"latitude":35.3163198},{"id":"JDQ4MTYyMiM3MSMkMSMkMCMkMDMkMzgxMTkxIzQxIyQxIyQ3IyQ3OSQ0NjE0ODEjODEjJDEjJDIjJDgz","name":"건강약국","category":"약국","sido":"전남","sigungu":"여수시","address":"전라남도 여수시 무선중앙로 56-1, (선원동)","phone":"061-641-2121","openDate":"2010-03-16","longitude":127.6501414,"latitude":34.7726618},{"id":"JDQ4MTYyMiM3MSMkMSMkMCMkMDMkMzgxNzAyIzIxIyQxIyQxIyQ5MiQyNjEyMjIjNTEjJDEjJDYjJDgz","name":"건강약국","category":"약국","sido":"전남","sigungu":"보성군","address":"전라남도 보성군 벌교읍 채동선로 145, (벌교읍)","phone":"061-857-4400","openDate":"2014-02-03","longitude":127.3422598,"latitude":34.8368717},{"id":"JDQ4MTYyMiM3MSMkMSMkMCMkMDMkMzgxNzAyIzQxIyQxIyQ3IyQxMyQzNjEwMDIjNjEjJDEjJDAjJDgz","name":"건강약국","category":"약국","sido":"전남","sigungu":"완도군","address":"전라남도 완도군 신지면 신지로 558-1, (신지면)","phone":"061-552-1471","openDate":"2023-06-12","longitude":126.8274918,"latitude":34.333625},{"id":"JDQ4MTYyMiM3MSMkMSMkMCMkMDMkMzgxNzAyIzExIyQxIyQ3IyQ5MiQyNjE0ODEjNDEjJDEjJDgjJDgz","name":"건강약국","category":"약국","sido":"전남","sigungu":"함평군","address":"전라남도 함평군 학교면 사거리길 11, (학교면)","phone":"061-322-3113","openDate":"2013-09-04","longitude":126.5338693,"latitude":35.0216501},{"id":"JDQ4MTYyMiM3MSMkMSMkMCMkMDMkMzgxMTkxIzIxIyQxIyQ1IyQ5OSQ0NjE0ODEjNzEjJDEjJDgjJDgz","name":"건강약국","category":"약국","sido":"전남","sigungu":"광양시","address":"전라남도 광양시 금영로 153, 1층 (광영동)","phone":"061-792-8575","openDate":"2001-10-06","longitude":127.7194402,"latitude":34.9643628},{"id":"JDQ4MTYyMiM3MSMkMSMkMCMkMDMkMzgxOTYxIzIxIyQxIyQ5IyQ3MiQyNjEyMjIjNDEjJDEjJDgjJDgz","name":"건강약국","category":"약국","sido":"전남","sigungu":"장성군","address":"전라남도 장성군 삼계면 사창로 40, (삼계면)","phone":"061-394-1032","openDate":"2002-05-02","longitude":126.6672674,"latitude":35.2581512},{"id":"JDQ4MTYyMiM3MSMkMSMkMCMkMDMkMzgxOTYxIzMxIyQxIyQ3IyQ4MiQyNjE4MzIjODEjJDEjJDYjJDgz","name":"건강약국","category":"약국","sido":"전남","sigungu":"목포시","address":"전라남도 목포시 중화길 16, (상동)","phone":"061-272-7453","openDate":"2005-02-14","longitude":126.4160133,"latitude":34.8092781},{"id":"JDQ4MTYyMiM3MSMkMSMkMCMkMDMkMzgxMzUxIzIxIyQxIyQxIyQ4MiQyNjE0ODEjNTEjJDEjJDYjJDgz","name":"건강약국","category":"약국","sido":"전남","sigungu":"영암군","address":"전라남도 영암군 영암읍 동문로 5, (영암읍)","phone":"061-471-9975","openDate":"2010-10-29","longitude":126.702425,"latitude":34.7962335},{"id":"JDQ4MTYyMiM3MSMkMSMkMCMkMDMkMzgxMTkxIzIxIyQxIyQ1IyQ3OSQyNjEwMDIjNjEjJDEjJDQjJDgz","name":"건강약국","category":"약국","sido":"전남","sigungu":"나주시","address":"전라남도 나주시 남평읍 남평2로 14, (남평읍)","phone":"061-333-5210","openDate":"2002-11-01","longitude":126.8431506,"latitude":35.0434034},{"id":"JDQ4MTYyMiM3MSMkMSMkMCMkMDMkMzgxMzUxIzUxIyQxIyQ1IyQ5MiQyNjE0ODEjNjEjJDEjJDQjJDgz","name":"건강약국","category":"약국","sido":"전남","sigungu":"강진군","address":"전라남도 강진군 강진읍 영랑로3길 29-1, (강진읍)","phone":"061-434-3309","openDate":"1978-04-04","longitude":126.771169,"latitude":34.6396354},{"id":"JDQ4MTYyMiM3MSMkMSMkMCMkMDMkMzgxOTYxIzExIyQxIyQ3IyQ4OSQzNjE4MzIjNTEjJDEjJDYjJDgz","name":"건강약국","category":"약국","sido":"전남","sigungu":"영광군","address":"전라남도 영광군 법성면 진굴비길 59, (법성면)","phone":"061-356-2305","openDate":"1980-10-15","longitude":126.4463867,"latitude":35.3611154},{"id":"JDQ4MTYyMiM3MSMkMSMkMCMkMDMkMzgxOTYxIzUxIyQxIyQ1IyQ3OSQyNjEwMDIjODEjJDEjJDIjJDgz","name":"건강약국","category":"약국","sido":"전남","sigungu":"고흥군","address":"전라남도 고흥군 봉래면 축정1길 10-8, 10","phone":"061-832-1991","openDate":"1997-04-03","longitude":127.4593896,"latitude":34.4643884},{"id":"JDQ4MTYyMiM3MSMkMSMkMCMkMDMkMzgxOTYxIzMxIyQxIyQ3IyQ3MiQzNjE4MzIjNjEjJDEjJDAjJDgz","name":"건강약국","category":"약국","sido":"전남","sigungu":"무안군","address":"전라남도 무안군 해제면 현해로 1687, (해제면)","phone":"061-453-2467","openDate":"2000-11-11","longitude":126.2948249,"latitude":35.1106444},{"id":"JDQ4MTYyMiM3MSMkMSMkMCMkMDMkMzgxOTYxIzIxIyQxIyQ5IyQ4MiQyNjEyMjIjODEjJDEjJDIjJDgz","name":"건강한약국","category":"약국","sido":"전남","sigungu":"나주시","address":"전라남도 나주시 다시면 다시로 182, (다시면)","phone":"061-335-7559","openDate":"2003-03-28","longitude":126.6372781,"latitude":35.0171916},{"id":"JDQ4MTYyMiM3MSMkMSMkMCMkMDMkMzgxMzUxIzQxIyQxIyQ3IyQ3OSQyNjEwMDIjNDEjJDEjJDQjJDgz","name":"건승약국","category":"약국","sido":"전남","sigungu":"목포시","address":"전라남도 목포시 서산로 7, (금화동)","phone":"061-243-2811","openDate":"1966-01-31","longitude":126.3789903,"latitude":34.7815619},{"id":"JDQ4MTYyMiM3MSMkMSMkMCMkMDMkMzgxMTkxIzMxIyQyIyQ3IyQwMCQyNjEwMDIjNjEjJDEjJDgjJDgz","name":"고금약국","category":"약국","sido":"전남","sigungu":"완도군","address":"전라남도 완도군 고금면 고금동로 13, (고금면)","phone":"061-553-5959","openDate":"2025-05-26","longitude":126.8013663,"latitude":34.3964117},{"id":"JDQ4MTYyMiM3MSMkMSMkMCMkMDMkMzgxNzAyIzExIyQxIyQzIyQwMyQ0NjE0ODEjNzEjJDEjJDgjJDgz","name":"고서약국","category":"약국","sido":"전남","sigungu":"담양군","address":"전라남도 담양군 고서면 가사문학로 329, (고서면)","phone":"061-381-3338","openDate":"2014-10-18","longitude":126.9737538,"latitude":35.2233747},{"id":"JDQ4MTYyMiM3MSMkMSMkMCMkMDMkMzgxNzAyIzQxIyQyIyQ3IyQwMCQyNjE0ODEjNDEjJDEjJDQjJDgz","name":"고흥사랑약국","category":"약국","sido":"전남","sigungu":"고흥군","address":"전라남도 고흥군 고흥읍 터미널길 14, 1층 101호","phone":"061-835-3888","openDate":"2022-04-06","longitude":127.2815083,"latitude":34.6064288},{"id":"JDQ4MTYyMiM3MSMkMSMkMCMkMDMkMzgxMzUxIzIxIyQxIyQ5IyQ3OSQzNjEwMDIjNTEjJDEjJDYjJDgz","name":"고흥약국","category":"약국","sido":"전남","sigungu":"보성군","address":"전라남도 보성군 득량면 예당길 168-2, (득량면)","phone":"061-853-5510","openDate":"2000-09-01","longitude":127.1999737,"latitude":34.7793636},{"id":"JDQ4MTYyMiM3MSMkMSMkMCMkMDMkMzgxMTkxIzExIyQxIyQzIyQ4OSQzNjEyMjIjNjEjJDEjJDAjJDgz","name":"곡성건강약국","category":"약국","sido":"전남","sigungu":"곡성군","address":"전라남도 곡성군 곡성읍 곡성로 761, 761","phone":"061-363-5115","openDate":"2011-04-16","longitude":127.2879457,"latitude":35.276282},{"id":"JDQ4MTYyMiM3MSMkMSMkMCMkMDMkMzgxNzAyIzMxIyQxIyQzIyQ4MiQyNjE4MzIjNTEjJDEjJDYjJDgz","name":"곡성종로약국","category":"약국","sido":"전남","sigungu":"곡성군","address":"전라남도 곡성군 곡성읍 중앙로 105, (곡성읍)","phone":"061-363-7118","openDate":"2019-05-01","longitude":127.2942396,"latitude":35.2808361},{"id":"JDQ4MTYyMiM3MSMkMSMkMCMkMDMkMzgxNzAyIzMxIyQxIyQ3IyQwMyQyNjE4MzIjNjEjJDEjJDAjJDgz","name":"공약국","category":"약국","sido":"전남","sigungu":"광양시","address":"전라남도 광양시 중마중앙로 81, 1층 (중동)","phone":"061-794-0911","openDate":"2021-07-05","longitude":127.697747,"latitude":34.9374388},{"id":"JDQ4MTYyMiM3MSMkMSMkMCMkMDMkMzgxNzAyIzUxIyQxIyQxIyQ4MiQzNjEyMjIjNzEjJDEjJDgjJDgz","name":"공원약국","category":"약국","sido":"전남","sigungu":"여수시","address":"전라남도 여수시 무선중앙로 23, (화장동)","phone":"061-691-5800","openDate":"2024-12-03","longitude":127.6480201,"latitude":34.7750695},{"id":"JDQ4MTYyMiM3MSMkMSMkMCMkMDMkMzgxNzAyIzQxIyQxIyQ3IyQwMyQyNjEwMDIjNjEjJDEjJDAjJDgz","name":"관산 오약국","category":"약국","sido":"전남","sigungu":"장흥군","address":"전라남도 장흥군 관산읍 관산로 82, (관산읍)","phone":"061-867-3555","openDate":"2023-03-10","longitude":126.938886,"latitude":34.5626422},{"id":"JDQ4MTYyMiM3MSMkMSMkMCMkMDMkMzgxNzAyIzMxIyQyIyQ3IyQwMCQzNjEyMjIjNTEjJDEjJDIjJDgz","name":"광양나라약국","category":"약국","sido":"전남","sigungu":"광양시","address":"전라남도 광양시 광양읍 숲샘길 88, 1층","phone":"","openDate":"2020-09-18","longitude":127.5866495,"latitude":34.9705942},{"id":"JDQ4MTYyMiM3MSMkMSMkMCMkMDMkMzgxNzAyIzQxIyQxIyQ3IyQwMyQ0NjEwMDIjNDEjJDEjJDQjJDgz","name":"광양밝은약국","category":"약국","sido":"전남","sigungu":"광양시","address":"전라남도 광양시 광양읍 숲샘길 129, 1층","phone":"061-761-1889","openDate":"2023-05-01","longitude":127.5888955,"latitude":34.9710099},{"id":"JDQ4MTYyMiM3MSMkMSMkMCMkMDMkMzgxNzAyIzIxIyQxIyQxIyQ4MiQzNjE0ODEjNTEjJDEjJDIjJDgz","name":"광영승주약국","category":"약국","sido":"전남","sigungu":"광양시","address":"전라남도 광양시 광영로 75, (광영동)","phone":"061-793-4445","openDate":"2015-10-02","longitude":127.7206287,"latitude":34.9618622},{"id":"JDQ4MTYyMiM3MSMkMSMkMCMkMDMkMzgxMzUxIzUxIyQxIyQ1IyQ5MiQzNjE4MzIjNTEjJDEjJDIjJDgz","name":"광제당약국","category":"약국","sido":"전남","sigungu":"해남군","address":"전라남도 해남군 현산면 현산북평로 106, (광제당약국)","phone":"061-533-8875","openDate":"2016-05-03","longitude":126.5533752,"latitude":34.4581653},{"id":"JDQ4MTYyMiM3MSMkMSMkMCMkMDMkMzgxNzAyIzUxIyQxIyQxIyQ5MiQ0NjE0ODEjNDEjJDEjJDgjJDgz","name":"광주약국","category":"약국","sido":"전남","sigungu":"화순군","address":"전라남도 화순군 화순읍 자치샘로 19, (화순읍)","phone":"061-374-2650","openDate":"2011-04-14","longitude":126.9834496,"latitude":35.0625999},{"id":"JDQ4MTYyMiM3MSMkMSMkMCMkMDMkMzgxMzUxIzMxIyQxIyQ3IyQ4OSQzNjEwMDIjNTEjJDEjJDYjJDgz","name":"광주약국","category":"약국","sido":"전남","sigungu":"곡성군","address":"전라남도 곡성군 석곡면 석곡로 56, (석곡면)","phone":"061-362-3036","openDate":"1995-10-02","longitude":127.2537053,"latitude":35.1319156},{"id":"JDQ4MTYyMiM3MSMkMSMkMCMkMDMkMzgxMzUxIzExIyQxIyQ3IyQxMyQzNjE0ODEjNDEjJDEjJDgjJDgz","name":"광주약국","category":"약국","sido":"전남","sigungu":"함평군","address":"전라남도 함평군 월야면 밀재로 1511, (월야면)","phone":"061-323-3377-8","openDate":"1990-07-04","longitude":126.6271346,"latitude":35.1799378},{"id":"JDQ4MTYyMiM3MSMkMSMkMCMkMDMkMzgxMzUxIzIxIyQxIyQxIyQ3OSQzNjE0ODEjNTEjJDEjJDIjJDgz","name":"광주약국","category":"약국","sido":"전남","sigungu":"고흥군","address":"전라남도 고흥군 고흥읍 여산당촌길 13-1, (고흥읍)","phone":"061-834-3543","openDate":"2017-01-02","longitude":127.281581,"latitude":34.6074399},{"id":"JDQ4MTYyMiM3MSMkMSMkMCMkMDMkMzgxOTYxIzUxIyQyIyQ1IyQwMCQyNjEyMjIjODEjJDEjJDIjJDgz","name":"광주약국","category":"약국","sido":"전남","sigungu":"구례군","address":"전라남도 구례군 구례읍 중앙로 36, 36","phone":"061-782-6965","openDate":"1997-08-25","longitude":127.4678056,"latitude":35.2088236},{"id":"JDQ4MTYyMiM3MSMkMSMkMCMkMDMkMzgxOTYxIzIxIyQxIyQxIyQ5OSQzNjE0ODEjNTEjJDEjJDIjJDgz","name":"광주약국","category":"약국","sido":"전남","sigungu":"해남군","address":"전라남도 해남군 황산면 시등로 118, 광주약국 1층","phone":"061-532-2515","openDate":"1975-06-09","longitude":126.4314146,"latitude":34.5757574},{"id":"JDQ4MTYyMiM3MSMkMSMkMCMkMDMkMzgxOTYxIzExIyQxIyQ3IyQxMyQyNjEwMDIjNTEjJDEjJDIjJDgz","name":"광주약국","category":"약국","sido":"전남","sigungu":"진도군","address":"전라남도 진도군 진도읍 남문길 44, (진도읍)","phone":"061-544-2145","openDate":"1985-12-20","longitude":126.2639904,"latitude":34.4821182},{"id":"JDQ4MTYyMiM3MSMkMSMkMCMkMDMkMzgxNzAyIzIxIyQxIyQxIyQ3OSQyNjEwMDIjNjEjJDEjJDAjJDgz","name":"교동큰약국","category":"약국","sido":"전남","sigungu":"여수시","address":"전라남도 여수시 중앙로 30, 1층 (교동)","phone":"061-920-7100","openDate":"2021-02-05","longitude":127.7310295,"latitude":34.7400417},{"id":"JDQ4MTYyMiM3MSMkMSMkMCMkMDMkMzgxNzAyIzExIyQxIyQ3IyQ5MiQzNjEyMjIjNDEjJDEjJDQjJDgz","name":"구례약국","category":"약국","sido":"전남","sigungu":"구례군","address":"전라남도 구례군 구례읍 동편제길 4, (구례요양병원)","phone":"783-0783","openDate":"2017-04-03","longitude":127.4639375,"latitude":35.2159096},{"id":"JDQ4MTYyMiM3MSMkMSMkMCMkMDMkMzgxMzUxIzQxIyQxIyQ3IyQ3MiQzNjE4MzIjNjEjJDEjJDQjJDgz","name":"구세약국","category":"약국","sido":"전남","sigungu":"목포시","address":"전라남도 목포시 영산로 485, (상동)","phone":"061-273-0051","openDate":"1987-12-04","longitude":126.4166463,"latitude":34.8093958},{"id":"JDQ4MTYyMiM3MSMkMSMkMCMkMDMkMzgxMTkxIzExIyQxIyQzIyQ3MiQzNjEyMjIjNTEjJDEjJDYjJDgz","name":"구세약국","category":"약국","sido":"전남","sigungu":"보성군","address":"전라남도 보성군 벌교읍 채동선로 224-1, (벌교읍)","phone":"061-858-0403","openDate":"2005-01-31","longitude":127.3444493,"latitude":34.8422838},{"id":"JDQ4MTYyMiM3MSMkMSMkMCMkMDMkMzgxMzUxIzQxIyQxIyQ3IyQ3MiQyNjEyMjIjNjEjJDEjJDAjJDgz","name":"구영약국","category":"약국","sido":"전남","sigungu":"신안군","address":"전라남도 신안군 암태면 중부로 1820-4, 1820","phone":"061-271-4287","openDate":"2006-02-23","longitude":126.1145745,"latitude":34.8289262},{"id":"JDQ4MTYyMiM3MSMkMSMkMCMkMDMkMzgxNzAyIzMxIyQxIyQ3IyQxMyQyNjE4MzIjNDEjJDEjJDgjJDgz","name":"국도약국","category":"약국","sido":"전남","sigungu":"고흥군","address":"전라남도 고흥군 고흥읍 고흥로 1943, (고흥읍)","phone":"061-832-3070","openDate":"2016-01-02","longitude":127.2947349,"latitude":34.6218687},{"id":"JDQ4MTYyMiM3MSMkMSMkMCMkMDMkMzgxMzUxIzQxIyQxIyQ3IyQxMyQzNjE0ODEjNDEjJDEjJDQjJDgz","name":"국제약국","category":"약국","sido":"전남","sigungu":"강진군","address":"전라남도 강진군 강진읍 영랑로3길 5-1, (강진읍)","phone":"061-434-3448","openDate":"2012-01-31","longitude":126.769122,"latitude":34.6384287},{"id":"JDQ4MTYyMiM3MSMkMSMkMCMkMDMkMzgxNzAyIzExIyQxIyQ3IyQ3OSQzNjE4MzIjNzEjJDEjJDgjJDgz","name":"국제약국","category":"약국","sido":"전남","sigungu":"순천시","address":"전라남도 순천시 중앙1길 4, 국제약국 1층 (장천동)","phone":"061-745-5544","openDate":"2018-02-01","longitude":127.4877248,"latitude":34.9478093},{"id":"JDQ4MTYyMiM3MSMkMSMkMCMkMDMkMzgxMTkxIzIxIyQxIyQ1IyQ5OSQyNjE4MzIjNjEjJDEjJDgjJDgz","name":"국제온누리약국","category":"약국","sido":"전남","sigungu":"광양시","address":"전라남도 광양시 광양읍 백운로 1, 1층","phone":"061-763-0102","openDate":"2001-09-17","longitude":127.5897923,"latitude":34.9712693},{"id":"JDQ4MTYyMiM3MSMkMSMkMCMkMDMkMzgxOTYxIzMxIyQxIyQ3IyQ2MiQyNjEwMDIjODEjJDEjJDIjJDgz","name":"군내약국","category":"약국","sido":"전남","sigungu":"여수시","address":"전라남도 여수시 돌산읍 돌산로 1189, (돌산읍)","phone":"061-644-7575","openDate":"2018-01-30","longitude":127.7286955,"latitude":34.6166306},{"id":"JDQ4MTYyMiM3MSMkMSMkMCMkMDMkMzgxMTkxIzIxIyQxIyQxIyQ5MiQ0NjE0ODEjNzEjJDEjJDgjJDgz","name":"굿모닝약국","category":"약국","sido":"전남","sigungu":"목포시","address":"전라남도 목포시 영산로 250-1, (용당동)","phone":"061-278-4828","openDate":"2001-04-16","longitude":126.3939121,"latitude":34.8029329},{"id":"JDQ4MTYyMiM3MSMkMSMkMCMkMDMkMzgxOTYxIzIxIyQxIyQ5IyQ4MiQzNjEwMDIjNTEjJDEjJDIjJDgz","name":"굿모닝약국","category":"약국","sido":"전남","sigungu":"여수시","address":"전라남도 여수시 신월로 807, (서교동)","phone":"061-642-8522","openDate":"2004-03-16","longitude":127.7268015,"latitude":34.740228},{"id":"JDQ4MTYyMiM3MSMkMSMkMCMkMDMkMzgxNzAyIzIxIyQxIyQ5IyQ2MiQyNjEwMDIjNjEjJDEjJDgjJDgz","name":"굿모닝약국","category":"약국","sido":"전남","sigungu":"나주시","address":"전라남도 나주시 빛가람로 677, 104~105호 (빛가람동)","phone":"061-333-7990","openDate":"2017-03-28","longitude":126.7858398,"latitude":35.0215108},{"id":"JDQ4MTYyMiM3MSMkMSMkMCMkMDMkMzgxOTYxIzMxIyQxIyQ3IyQxMyQzNjE4MzIjNTEjJDEjJDYjJDgz","name":"그랜드약국","category":"약국","sido":"전남","sigungu":"화순군","address":"전라남도 화순군 화순읍 서양로 340, (화순읍)","phone":"061-371-8275","openDate":"2010-07-01","longitude":127.0006342,"latitude":35.0620094},{"id":"JDQ4MTYyMiM3MSMkMSMkMCMkMDMkMzgxMTkxIzIxIyQxIyQ1IyQ5OSQzNjEwMDIjNTEjJDEjJDIjJDgz","name":"그랜드약국","category":"약국","sido":"전남","sigungu":"장흥군","address":"전라남도 장흥군 장흥읍 부동로 3, (장흥읍)","phone":"061-864-3100","openDate":"2008-03-03","longitude":126.9108589,"latitude":34.6780865},{"id":"JDQ4MTYyMiM3MSMkMSMkMCMkMDMkMzgxNzAyIzExIyQxIyQ3IyQxMyQzNjE0ODEjODEjJDEjJDIjJDgz","name":"그린약국","category":"약국","sido":"전남","sigungu":"광양시","address":"전라남도 광양시 광양읍 인덕로 996, (광양읍)","phone":"061-762-3577","openDate":"2016-02-22","longitude":127.5819786,"latitude":34.9713818},{"id":"JDQ4MTYyMiM3MSMkMSMkMCMkMDMkMzgxNzAyIzIxIyQyIyQ1IyQwMCQyNjEwMDIjNTEjJDEjJDIjJDgz","name":"금강당한약국","category":"약국","sido":"전남","sigungu":"여수시","address":"전라남도 여수시 문수로 152, (문수동)","phone":"652-1687","openDate":"2004-12-17","longitude":127.709948,"latitude":34.7574495},{"id":"JDQ4MTYyMiM3MSMkMSMkMCMkMDMkMzgxMzUxIzUxIyQyIyQ1IyQwMCQ0NjEwMDIjNDEjJDEjJDQjJDgz","name":"금강약국","category":"약국","sido":"전남","sigungu":"해남군","address":"전라남도 해남군 해남읍 해남로 45-1, (해남읍)","phone":"061-535-4129","openDate":"2015-04-27","longitude":126.6121486,"latitude":34.5714118},{"id":"JDQ4MTYyMiM3MSMkMSMkMCMkMDMkMzgxNzAyIzExIyQxIyQ3IyQ3MiQ0NjE0ODEjNDEjJDEjJDgjJDgz","name":"금당약국","category":"약국","sido":"전남","sigungu":"순천시","address":"전라남도 순천시 해룡면 장선배기길 284, (해룡면)","phone":"061-726-2262","openDate":"2013-08-16","longitude":127.5298828,"latitude":34.945357},{"id":"JDQ4MTYyMiM3MSMkMSMkMCMkMDMkMzgxOTYxIzUxIyQyIyQ1IyQwMCQzNjE0ODEjNjEjJDEjJDAjJDgz","name":"금성약국","category":"약국","sido":"전남","sigungu":"장성군","address":"전라남도 장성군 장성읍 영천로 123, (장성읍)","phone":"061-393-3904","openDate":"2016-04-04","longitude":126.7808333,"latitude":35.2967243},{"id":"JDQ4MTYyMiM3MSMkMSMkMCMkMDMkMzgxOTYxIzQxIyQxIyQ3IyQ5OSQyNjE4MzIjNjEjJDEjJDgjJDgz","name":"금일건강약국","category":"약국","sido":"전남","sigungu":"완도군","address":"전라남도 완도군 금일읍 금일로 400, (금일읍)","phone":"061-552-1940","openDate":"2011-08-29","longitude":127.0299737,"latitude":34.349104},{"id":"JDQ4MTYyMiM3MSMkMSMkMCMkMDMkMzgxMzUxIzMxIyQxIyQ3IyQ4OSQyNjE4MzIjNzEjJDEjJDgjJDgz","name":"금일조하약국","category":"약국","sido":"전남","sigungu":"완도군","address":"전라남도 완도군 금일읍 금일로 391, (금일읍)","phone":"061-555-0983","openDate":"2022-07-22","longitude":127.0292667,"latitude":34.3493135},{"id":"JDQ4MTYyMiM3MSMkMSMkMCMkMDMkMzgxOTYxIzUxIyQxIyQ1IyQ4OSQzNjEyMjIjNjEjJDEjJDgjJDgz","name":"금정약국","category":"약국","sido":"전남","sigungu":"영암군","address":"전라남도 영암군 금정면 용두로 11-1, (금정면)","phone":"061-471-5687","openDate":"2004-03-31","longitude":126.7489027,"latitude":34.8624965},{"id":"JDQ4MTYyMiM3MSMkMSMkMCMkMDMkMzgxMTkxIzMxIyQxIyQ3IyQwMyQyNjEwMDIjNTEjJDEjJDIjJDgz","name":"금호약국","category":"약국","sido":"전남","sigungu":"여수시","address":"전라남도 여수시 신월로 553, (신월동)","phone":"061-642-6660","openDate":"2005-09-14","longitude":127.7078779,"latitude":34.723934},{"id":"JDQ4MTYyMiM3MSMkMSMkMCMkMDMkMzgxNzAyIzIxIyQyIyQ5IyQwMCQyNjEyMjIjNzEjJDEjJDgjJDgz","name":"금호약국(역전)","category":"약국","sido":"전남","sigungu":"목포시","address":"전라남도 목포시 영산로 89, (명륜동)","phone":"061-242-1015","openDate":"2005-02-18","longitude":126.3854891,"latitude":34.790639},{"id":"JDQ4MTYyMiM3MSMkMSMkMCMkMDMkMzgxMTkxIzMxIyQxIyQ3IyQ5OSQyNjE0ODEjNDEjJDEjJDgjJDgz","name":"금호온누리약국","category":"약국","sido":"전남","sigungu":"목포시","address":"전라남도 목포시 영산로 519, (상동)","phone":"061-279-2914","openDate":"2006-07-03","longitude":126.4178779,"latitude":34.8120346},{"id":"JDQ4MTYyMiM3MSMkMSMkMCMkMDMkMzgxOTYxIzExIyQxIyQzIyQ3OSQzNjEyMjIjNDEjJDEjJDgjJDgz","name":"길약국","category":"약국","sido":"전남","sigungu":"고흥군","address":"전라남도 고흥군 고흥읍 터미널길 3, (고흥읍)","phone":"061-834-1994","openDate":"2019-11-12","longitude":127.2811394,"latitude":34.6054348},{"id":"JDQ4MTYyMiM3MSMkMSMkMCMkMDMkMzgxNzAyIzMxIyQyIyQzIyQwMCQzNjE0ODEjNDEjJDEjJDQjJDgz","name":"길약국","category":"약국","sido":"전남","sigungu":"광양시","address":"전라남도 광양시 중마중앙로 71-1, 1층 북동쪽 일부호 (중동)","phone":"061-794-7292","openDate":"2018-11-16","longitude":127.6977296,"latitude":34.9366625},{"id":"JDQ4MTYyMiM3MSMkMSMkMCMkMDMkMzgxNzAyIzUxIyQxIyQxIyQxMyQzNjE0ODEjNTEjJDEjJDIjJDgz","name":"김약국","category":"약국","sido":"전남","sigungu":"함평군","address":"전라남도 함평군 함평읍 서부길 94-6, (함평읍)","phone":"061-322-8277","openDate":"2022-09-26","longitude":126.5206391,"latitude":35.0624387},{"id":"JDQ4MTYyMiM3MSMkMSMkMCMkMDMkMzgxNzAyIzQxIyQxIyQ3IyQ3OSQ0NjE0ODEjNTEjJDEjJDYjJDgz","name":"김약국","category":"약국","sido":"전남","sigungu":"담양군","address":"전라남도 담양군 담양읍 천변7길 26, (담양읍)","phone":"061-383-8222","openDate":"2021-12-30","longitude":126.9831916,"latitude":35.3149838},{"id":"JDQ4MTYyMiM3MSMkMSMkMCMkMDMkMzgxNzAyIzIxIyQxIyQ1IyQ3OSQyNjE4MzIjNzEjJDEjJDgjJDgz","name":"나눔약국","category":"약국","sido":"전남","sigungu":"여수시","address":"전라남도 여수시 무선로 32, (학동)","phone":"061-684-4988","openDate":"2019-03-01","longitude":127.6563476,"latitude":34.7637551},{"id":"JDQ4MTYyMiM3MSMkMSMkMCMkMDMkMzgxMTkxIzQxIyQyIyQ3IyQwMCQ0NjE0ODEjNDEjJDEjJDQjJDgz","name":"나래약국","category":"약국","sido":"전남","sigungu":"화순군","address":"전라남도 화순군 화순읍 중앙로 95, (화순읍)","phone":"061-375-0622","openDate":"2007-02-01","longitude":126.991919,"latitude":35.060644},{"id":"JDQ4MTYyMiM3MSMkMSMkMCMkMDMkMzgxOTYxIzIxIyQxIyQ1IyQ5MiQ0NjE0ODEjODEjJDEjJDIjJDgz","name":"나래약국","category":"약국","sido":"전남","sigungu":"광양시","address":"전라남도 광양시 광양읍 용강1길 12, 103~104호 (창덕에버빌상가 )","phone":"061-763-5015","openDate":"2003-04-22","longitude":127.6100039,"latitude":34.9731093},{"id":"JDQ4MTYyMiM3MSMkMSMkMCMkMDMkMzgxNzAyIzExIyQxIyQzIyQxMyQyNjEyMjIjNjEjJDEjJDQjJDgz","name":"나래약국","category":"약국","sido":"전남","sigungu":"무안군","address":"전라남도 무안군 무안읍 면성1길 111, (무안읍)","phone":"061-453-7009","openDate":"2012-04-10","longitude":126.4742231,"latitude":34.9881639},{"id":"JDQ4MTYyMiM3MSMkMSMkMCMkMDMkMzgxNzAyIzExIyQxIyQzIyQxMyQzNjEyMjIjODEjJDEjJDIjJDgz","name":"나비약국","category":"약국","sido":"전남","sigungu":"화순군","address":"전라남도 화순군 화순읍 칠충로 45, (화순읍)","phone":"061-375-3328","openDate":"2012-05-16","longitude":126.9768526,"latitude":35.0547442},{"id":"JDQ4MTYyMiM3MSMkMSMkMCMkMDMkMzgxOTYxIzUxIyQxIyQxIyQ5MiQ0NjE0ODEjNDEjJDEjJDQjJDgz","name":"나약국","category":"약국","sido":"전남","sigungu":"장성군","address":"전라남도 장성군 장성읍 영천로 200-2, (장성읍)","phone":"061-392-7178","openDate":"2002-06-01","longitude":126.7849883,"latitude":35.3023063},{"id":"JDQ4MTYyMiM3MSMkMSMkMCMkMDMkMzgxNzAyIzMxIyQxIyQzIyQ5OSQyNjEwMDIjODEjJDEjJDIjJDgz","name":"나주온누리약국","category":"약국","sido":"전남","sigungu":"나주시","address":"전라남도 나주시 영산로 5422, (성북동)","phone":"061-334-2398","openDate":"2018-09-03","longitude":126.7214065,"latitude":35.0355566},{"id":"JDQ4MTYyMiM3MSMkMSMkMCMkMDMkMzgxNzAyIzExIyQxIyQ3IyQ3OSQ0NjE0ODEjNjEjJDEjJDQjJDgz","name":"나주제일약국","category":"약국","sido":"전남","sigungu":"나주시","address":"전라남도 나주시 나주로 210, (성북동)","phone":"061-333-2411","openDate":"2015-01-26","longitude":126.7219149,"latitude":35.0352076},{"id":"JDQ4MTYyMiM3MSMkMSMkMCMkMDMkMzgxNzAyIzIxIyQxIyQ5IyQ4MiQzNjEwMDIjNTEjJDEjJDYjJDgz","name":"나주종로약국","category":"약국","sido":"전남","sigungu":"나주시","address":"전라남도 나주시 나주로 195, (중앙동)","phone":"061-333-8275","openDate":"2009-12-31","longitude":126.7214831,"latitude":35.0340713},{"id":"JDQ4MTYyMiM3MSMkMSMkMCMkMDMkMzgxNzAyIzMxIyQxIyQ3IyQ2MiQ0NjEwMDIjNjEjJDEjJDAjJDgz","name":"나주친절약국","category":"약국","sido":"전남","sigungu":"나주시","address":"전라남도 나주시 영산로 5426, 1층 102호 (성북동)","phone":"061-334-3323","openDate":"2020-12-07","longitude":126.7220212,"latitude":35.0355449},{"id":"JDQ4MTYyMiM3MSMkMSMkMCMkMDMkMzgxNzAyIzIxIyQxIyQ1IyQ4OSQyNjE4MzIjNjEjJDEjJDAjJDgz","name":"나주태평양약국","category":"약국","sido":"전남","sigungu":"나주시","address":"전라남도 나주시 나주로 197, 1층 (중앙동)","phone":"061-332-7577","openDate":"2021-03-02","longitude":126.7214644,"latitude":35.0342586},{"id":"JDQ4MTYyMiM3MSMkMSMkMCMkMDMkMzgxMTkxIzUxIyQxIyQxIyQxMyQzNjEwMDIjNjEjJDEjJDQjJDgz","name":"나주하나약국","category":"약국","sido":"전남","sigungu":"나주시","address":"전라남도 나주시 정보화길 50, 103호 (빛가람동)","phone":"061-820-7702","openDate":"2020-03-04","longitude":126.7994583,"latitude":35.0237898},{"id":"JDQ4MTYyMiM3MSMkMSMkMCMkMDMkMzgxMTkxIzExIyQxIyQ3IyQxMyQyNjE4MzIjNjEjJDEjJDAjJDgz","name":"남도약국","category":"약국","sido":"전남","sigungu":"해남군","address":"전라남도 해남군 해남읍 해남로 8, (해남읍)","phone":"061-533-2525","openDate":"2000-08-14","longitude":126.6079625,"latitude":34.5706417},{"id":"JDQ4MTYyMiM3MSMkMSMkMCMkMDMkMzgxOTYxIzMxIyQxIyQzIyQ5MiQyNjE0ODEjNjEjJDEjJDQjJDgz","name":"남도온누리약국","category":"약국","sido":"전남","sigungu":"목포시","address":"전라남도 목포시 정의로 4-10, (옥암동)","phone":"061-284-1293","openDate":"1998-11-04","longitude":126.4443522,"latitude":34.8115843},{"id":"JDQ4MTYyMiM3MSMkMSMkMCMkMDMkMzgxNzAyIzExIyQxIyQzIyQ5MiQyNjE4MzIjODEjJDEjJDYjJDgz","name":"남부종합약국","category":"약국","sido":"전남","sigungu":"순천시","address":"전라남도 순천시 중앙초등아랫길 80, (풍덕동)","phone":"061-741-0061","openDate":"2012-01-13","longitude":127.5034709,"latitude":34.9421701},{"id":"JDQ4MTYyMiM3MSMkMSMkMCMkMDMkMzgxMzUxIzUxIyQxIyQxIyQ2MiQyNjEwMDIjNjEjJDEjJDQjJDgz","name":"남산약국","category":"약국","sido":"전남","sigungu":"여수시","address":"전라남도 여수시 신월로 712-1, (봉산동)","phone":"061-642-0532","openDate":"2016-04-18","longitude":127.7199183,"latitude":34.7340012},{"id":"JDQ4MTYyMiM3MSMkMSMkMCMkMDMkMzgxNzAyIzIxIyQxIyQ5IyQwMyQzNjE4MzIjNjEjJDEjJDAjJDgz","name":"남악다나약국","category":"약국","sido":"전남","sigungu":"무안군","address":"전라남도 무안군 삼향읍 후광대로 242, 전남개발공사 지하1층 102호","phone":"061-284-1221","openDate":"2018-03-05","longitude":126.4581263,"latitude":34.813971},{"id":"JDQ4MTYyMiM3MSMkMSMkMCMkMDMkMzgxMTkxIzExIyQxIyQzIyQ5OSQzNjEwMDIjNTEjJDEjJDYjJDgz","name":"남악약국","category":"약국","sido":"전남","sigungu":"무안군","address":"전라남도 무안군 삼향읍 남악4로 86, 한양에드가 오피스텔 1차 1층 106,113호","phone":"061-285-3993","openDate":"2018-08-31","longitude":126.4664143,"latitude":34.8131458},{"id":"JDQ4MTYyMiM3MSMkMSMkMCMkMDMkMzgxNzAyIzExIyQxIyQ3IyQ4OSQ0NjEwMDIjNDEjJDEjJDgjJDgz","name":"남일약국","category":"약국","sido":"전남","sigungu":"완도군","address":"전라남도 완도군 완도읍 개포로130번길 17, (완도읍)","phone":"061-554-2279","openDate":"1973-03-05","longitude":126.7446544,"latitude":34.3188908},{"id":"JDQ4MTYyMiM3MSMkMSMkMCMkMDMkMzgxNzAyIzMxIyQxIyQzIyQ4OSQzNjEwMDIjNTEjJDEjJDYjJDgz","name":"남평약국","category":"약국","sido":"전남","sigungu":"나주시","address":"전라남도 나주시 남평읍 남평1로 22, 1층","phone":"061-334-2261","openDate":"2018-07-31","longitude":126.8400175,"latitude":35.046639},{"id":"JDQ4MTYyMiM3MSMkMSMkMCMkMDMkMzgxMzUxIzUxIyQxIyQxIyQ5MiQzNjEwMDIjNDEjJDEjJDQjJDgz","name":"남해약국","category":"약국","sido":"전남","sigungu":"여수시","address":"전라남도 여수시 쌍봉로 27-1, (학동)","phone":"061-681-4055","openDate":"1985-02-07","longitude":127.6590936,"latitude":34.7667931},{"id":"JDQ4MTYyMiM3MSMkMSMkMCMkMDMkMzgxMTkxIzQxIyQyIyQ3IyQwMCQzNjEyMjIjNTEjJDEjJDYjJDgz","name":"노화약국","category":"약국","sido":"전남","sigungu":"완도군","address":"전라남도 완도군 노화읍 노화로 843-4, 이목복지회관","phone":"061-554-9980","openDate":"2015-03-30","longitude":126.5726207,"latitude":34.1772666},{"id":"JDQ4MTYyMiM3MSMkMSMkMCMkMDMkMzgxNzAyIzQxIyQxIyQ3IyQ3OSQyNjE0ODEjODEjJDEjJDIjJDgz","name":"녹십자약국","category":"약국","sido":"전남","sigungu":"광양시","address":"전라남도 광양시 광양읍 대림오성로 100, 1층","phone":"061-763-6800","openDate":"2021-10-26","longitude":127.5726802,"latitude":34.9650699},{"id":"JDQ4MTYyMiM3MSMkMSMkMCMkMDMkMzgxMzUxIzUxIyQxIyQxIyQ5MiQyNjE4MzIjNTEjJDEjJDYjJDgz","name":"녹십자약국","category":"약국","sido":"전남","sigungu":"신안군","address":"전라남도 신안군 흑산면 예리1길 68-4, (흑산면)","phone":"061-275-8600","openDate":"1992-03-04","longitude":125.4443382,"latitude":34.6845328},{"id":"JDQ4MTYyMiM3MSMkMSMkMCMkMDMkMzgxMTkxIzExIyQxIyQ3IyQwMyQ0NjE0ODEjODEjJDEjJDIjJDgz","name":"녹십자약국","category":"약국","sido":"전남","sigungu":"영광군","address":"전라남도 영광군 영광읍 신남로 260, 1층","phone":"061-352-1178","openDate":"2001-09-20","longitude":126.5102169,"latitude":35.2751069},{"id":"JDQ4MTYyMiM3MSMkMSMkMCMkMDMkMzgxOTYxIzIxIyQyIyQ1IyQwMCQyNjE0ODEjNTEjJDEjJDYjJDgz","name":"농민약국","category":"약국","sido":"전남","sigungu":"나주시","address":"전라남도 나주시 예향로 3813, (이창동)","phone":"061-332-0445","openDate":"1990-04-26","longitude":126.7137433,"latitude":34.9949384},{"id":"JDQ4MTYyMiM3MSMkMSMkMCMkMDMkMzgxOTYxIzQxIyQyIyQ3IyQwMCQ0NjE0ODEjNjEjJDEjJDAjJDgz","name":"농민약국","category":"약국","sido":"전남","sigungu":"해남군","address":"전라남도 해남군 해남읍 중앙2로 51, (해남읍)","phone":"061-536-3136","openDate":"1995-02-13","longitude":126.5979811,"latitude":34.5696498},{"id":"JDQ4MTYyMiM3MSMkMSMkMCMkMDMkMzgxOTYxIzMxIyQxIyQ3IyQxMyQzNjE0ODEjODEjJDEjJDYjJDgz","name":"농협마트약국","category":"약국","sido":"전남","sigungu":"광양시","address":"전라남도 광양시 공영로 25, 1층 (중동, 동광양하나트마트내)","phone":"061-792-4111","openDate":"2015-05-11","longitude":127.69159,"latitude":34.936474},{"id":"JDQ4MTYyMiM3MSMkMSMkMCMkMDMkMzgxMTkxIzUxIyQxIyQ1IyQ4MiQyNjE0ODEjODEjJDEjJDYjJDgz","name":"누엘약국","category":"약국","sido":"전남","sigungu":"순천시","address":"전라남도 순천시 조례1길 10-26, (조례동)","phone":"061-723-2843","openDate":"2011-05-31","longitude":127.5222126,"latitude":34.9599395},{"id":"JDQ4MTYyMiM3MSMkMSMkMCMkMDMkMzgxNzAyIzUxIyQxIyQxIyQ2MiQzNjEwMDIjNjEjJDEjJDAjJDgz","name":"뉴세브란스약국","category":"약국","sido":"전남","sigungu":"목포시","address":"전라남도 목포시 수문로 8, (대안동)","phone":"061-242-3709","openDate":"1984-07-10","longitude":126.3852213,"latitude":34.7916198},{"id":"JDQ4MTYyMiM3MSMkMSMkMCMkMDMkMzgxNzAyIzIxIyQxIyQxIyQ3OSQzNjE4MzIjNTEjJDEjJDYjJDgz","name":"뉴욕약국","category":"약국","sido":"전남","sigungu":"나주시","address":"전라남도 나주시 나주로 199, (중앙동)","phone":"061-333-7887","openDate":"2014-02-25","longitude":126.7214391,"latitude":35.0343653},{"id":"JDQ4MTYyMiM3MSMkMSMkMCMkMDMkMzgxMTkxIzUxIyQxIyQxIyQwMyQyNjEyMjIjNTEjJDEjJDYjJDgz","name":"뉴욕약국","category":"약국","sido":"전남","sigungu":"화순군","address":"전라남도 화순군 화순읍 서양로 327, (화순읍)","phone":"061-373-8000","openDate":"2009-09-01","longitude":127.0002762,"latitude":35.0608491},{"id":"JDQ4MTYyMiM3MSMkMSMkMCMkMDMkMzgxNzAyIzMxIyQxIyQzIyQ4MiQzNjE0ODEjNDEjJDEjJDgjJDgz","name":"느티나무약국","category":"약국","sido":"전남","sigungu":"곡성군","address":"전라남도 곡성군 곡성읍 읍내14길 8, (곡성읍)","phone":"061-363-9660","openDate":"2019-05-13","longitude":127.2960196,"latitude":35.2808566},{"id":"JDQ4MTYyMiM3MSMkMSMkMCMkMDMkMzgxNzAyIzExIyQxIyQzIyQ3OSQyNjEyMjIjNDEjJDEjJDQjJDgz","name":"늘평화로운약국","category":"약국","sido":"전남","sigungu":"순천시","address":"전라남도 순천시 양율길 176, (대룡동)","phone":"061-746-3377","openDate":"2012-03-02","longitude":127.4836732,"latitude":34.9078076},{"id":"JDQ4MTYyMiM3MSMkMSMkMCMkMDMkMzgxMTkxIzIxIyQxIyQ1IyQxMyQyNjE0ODEjNTEjJDEjJDIjJDgz","name":"늘푸른약국","category":"약국","sido":"전남","sigungu":"나주시","address":"전라남도 나주시 예향로 3815, 1층 (이창동)","phone":"061-331-5225","openDate":"2009-12-30","longitude":126.7137163,"latitude":34.9950806},{"id":"JDQ4MTYyMiM3MSMkMSMkMCMkMDMkMzgxOTYxIzQxIyQxIyQ3IyQ5MiQzNjE0ODEjNDEjJDEjJDgjJDgz","name":"늘푸른약국","category":"약국","sido":"전남","sigungu":"목포시","address":"전라남도 목포시 용해지구로 85, (연산동)","phone":"061-274-7535","openDate":"1994-11-28","longitude":126.3913775,"latitude":34.8200444},{"id":"JDQ4MTYyMiM3MSMkMSMkMCMkMDMkMzgxMTkxIzIxIyQxIyQxIyQxMyQyNjEwMDIjNjEjJDEjJDAjJDgz","name":"다나약국","category":"약국","sido":"전남","sigungu":"영광군","address":"전라남도 영광군 영광읍 신남로 177, 1층","phone":"061-351-8575","openDate":"2025-02-11","longitude":126.5016249,"latitude":35.2764759},{"id":"JDQ4MTYyMiM3MSMkMSMkMCMkMDMkMzgxMzUxIzMxIyQxIyQzIyQ5OSQ0NjE0ODEjODEjJDEjJDYjJDgz","name":"다나약국","category":"약국","sido":"전남","sigungu":"화순군","address":"전라남도 화순군 화순읍 중앙로 19, (화순읍)","phone":"061-371-1413","openDate":"1992-08-13","longitude":126.983617,"latitude":35.0605801},{"id":"JDQ4MTYyMiM3MSMkMSMkMCMkMDMkMzgxMTkxIzIxIyQxIyQ5IyQ5MiQyNjEyMjIjNDEjJDEjJDgjJDgz","name":"다나약국","category":"약국","sido":"전남","sigungu":"여수시","address":"전라남도 여수시 시청로 19, (학동, 우리은행)","phone":"061-682-0234","openDate":"2012-09-26","longitude":127.6625782,"latitude":34.7634401},{"id":"JDQ4MTYyMiM3MSMkMSMkMCMkMDMkMzgxNzAyIzIxIyQxIyQ5IyQ2MiQzNjEwMDIjODEjJDEjJDYjJDgz","name":"다나약국","category":"약국","sido":"전남","sigungu":"목포시","address":"전라남도 목포시 용당로 322-3, (용해동)","phone":"061-276-1133","openDate":"2017-04-25","longitude":126.4008183,"latitude":34.8160153},{"id":"JDQ4MTYyMiM3MSMkMSMkMCMkMDMkMzgxMzUxIzIxIyQxIyQxIyQ3MiQzNjEyMjIjNjEjJDEjJDQjJDgz","name":"다나은약국","category":"약국","sido":"전남","sigungu":"곡성군","address":"전라남도 곡성군 곡성읍 곡성로 852, (곡성읍)","phone":"061-363-3696","openDate":"2018-08-27","longitude":127.2970254,"latitude":35.2794219},{"id":"JDQ4MTYyMiM3MSMkMSMkMCMkMDMkMzgxNzAyIzExIyQxIyQzIyQ3OSQzNjEwMDIjNjEjJDEjJDAjJDgz","name":"다나은약국","category":"약국","sido":"전남","sigungu":"목포시","address":"전라남도 목포시 이로로9번길 6, (용해동, 바른학원)","phone":"061-277-5200","openDate":"2011-01-31","longitude":126.4059495,"latitude":34.8042982},{"id":"JDQ4MTYyMiM3MSMkMSMkMCMkMDMkMzgxNzAyIzIxIyQxIyQ1IyQ3MiQzNjEyMjIjODEjJDEjJDIjJDgz","name":"다복한약국","category":"약국","sido":"전남","sigungu":"순천시","address":"전라남도 순천시 하풍동길 74, 1층 (풍덕동)","phone":"061-743-7238","openDate":"2012-02-21","longitude":127.5023233,"latitude":34.9396403},{"id":"JDQ4MTYyMiM3MSMkMSMkMCMkMDMkMzgxMzUxIzUxIyQyIyQxIyQwMCQzNjE0ODEjNTEjJDEjJDIjJDgz","name":"다산약국","category":"약국","sido":"전남","sigungu":"여수시","address":"전라남도 여수시 시청로 52, (학동)","phone":"061-681-5832","openDate":"1986-12-16","longitude":127.6631117,"latitude":34.7661041},{"id":"JDQ4MTYyMiM3MSMkMSMkMCMkMDMkMzgxNzAyIzExIyQxIyQ3IyQ4OSQzNjE4MzIjNjEjJDEjJDAjJDgz","name":"다소니약국","category":"약국","sido":"전남","sigungu":"여수시","address":"전라남도 여수시 여천체육공원길 10, (신기동)","phone":"061-686-7787","openDate":"2012-11-01","longitude":127.6749639,"latitude":34.7612841},{"id":"JDQ4MTYyMiM3MSMkMSMkMCMkMDMkMzgxNzAyIzMxIyQxIyQ3IyQ5OSQyNjE0ODEjNjEjJDEjJDgjJDgz","name":"다솜약국","category":"약국","sido":"전남","sigungu":"순천시","address":"전라남도 순천시 신월큰길 7, 나동 1층 (조례동)","phone":"061-727-7505","openDate":"2014-11-03","longitude":127.520347,"latitude":34.960469},{"id":"JDQ4MTYyMiM3MSMkMSMkMCMkMDMkMzgxMTkxIzIxIyQxIyQxIyQ4MiQ0NjEwMDIjODEjJDEjJDIjJDgz","name":"다시약국","category":"약국","sido":"전남","sigungu":"나주시","address":"전라남도 나주시 다시면 다시로 169, (다시면)","phone":"061-336-8638","openDate":"2001-03-23","longitude":126.6358925,"latitude":35.0175134},{"id":"JDQ4MTYyMiM3MSMkMSMkMCMkMDMkMzgxNzAyIzMxIyQxIyQzIyQwMyQzNjE4MzIjNDEjJDEjJDgjJDgz","name":"다온약국","category":"약국","sido":"전남","sigungu":"화순군","address":"전라남도 화순군 화순읍 중앙로 69, 103호","phone":"061-375-0503","openDate":"2022-08-17","longitude":126.9888898,"latitude":35.0606453},{"id":"JDQ4MTYyMiM3MSMkMSMkMCMkMDMkMzgxOTYxIzQxIyQxIyQ3IyQ3MiQyNjEwMDIjNDEjJDEjJDgjJDgz","name":"다온약국","category":"약국","sido":"전남","sigungu":"목포시","address":"전라남도 목포시 용당로 211, 1층 (용당동)","phone":"061-276-1999","openDate":"2023-02-11","longitude":126.3979131,"latitude":34.8058741},{"id":"JDQ4MTYyMiM3MSMkMSMkMCMkMDMkMzgxNzAyIzUxIyQxIyQxIyQ4OSQyNjE0ODEjNDEjJDEjJDgjJDgz","name":"다정약국","category":"약국","sido":"전남","sigungu":"순천시","address":"전라남도 순천시 장선배기1길 6-10, (조례동)","phone":"723-5275","openDate":"2010-12-24","longitude":127.5231173,"latitude":34.9531857},{"id":"JDQ4MTYyMiM3MSMkMSMkMCMkMDMkMzgxNzAyIzMxIyQxIyQ3IyQ5MiQzNjE4MzIjNDEjJDEjJDQjJDgz","name":"닥터스팜한약국","category":"약국","sido":"전남","sigungu":"여수시","address":"전라남도 여수시 흙산로 15, 2층 (공화동)","phone":"061-663-2111","openDate":"2021-06-15","longitude":127.7433009,"latitude":34.7443575},{"id":"JDQ4MTYyMiM3MSMkMSMkMCMkMDMkMzgxNzAyIzIxIyQxIyQ1IyQxMyQyNjEyMjIjNjEjJDEjJDAjJDgz","name":"달달약국","category":"약국","sido":"전남","sigungu":"순천시","address":"전라남도 순천시 용당삼산로 17, 1층 103호 (용당동)","phone":"061-727-3737","openDate":"2020-12-30","longitude":127.4896805,"latitude":34.9733127},{"id":"JDQ4MTYyMiM3MSMkMSMkMCMkMDMkMzgxNzAyIzMxIyQxIyQ3IyQ3OSQ0NjE0ODEjNzEjJDEjJDgjJDgz","name":"담양약국","category":"약국","sido":"전남","sigungu":"담양군","address":"전라남도 담양군 담양읍 중앙로 29-7, (담양읍)","phone":"061-801-6004","openDate":"2020-03-23","longitude":126.9827905,"latitude":35.315531},{"id":"JDQ4MTYyMiM3MSMkMSMkMCMkMDMkMzgxNzAyIzExIyQxIyQ3IyQ3MiQyNjEwMDIjNjEjJDEjJDAjJDgz","name":"담양유명약국","category":"약국","sido":"전남","sigungu":"담양군","address":"전라남도 담양군 수북면 추성1로 734, (수북면)","phone":"061-381-6275","openDate":"2017-02-13","longitude":126.9318063,"latitude":35.3018024},{"id":"JDQ4MTYyMiM3MSMkMSMkMCMkMDMkMzgxMTkxIzExIyQyIyQzIyQwMCQyNjE0ODEjNDEjJDEjJDQjJDgz","name":"담양종로약국","category":"약국","sido":"전남","sigungu":"담양군","address":"전라남도 담양군 담양읍 중앙로 30-1, 30","phone":"061-381-0501","openDate":"2010-03-19","longitude":126.9835749,"latitude":35.3159217},{"id":"JDQ4MTYyMiM3MSMkMSMkMCMkMDMkMzgxMzUxIzQxIyQxIyQ3IyQ4MiQzNjE0ODEjODEjJDEjJDIjJDgz","name":"담양좋은약국","category":"약국","sido":"전남","sigungu":"담양군","address":"전라남도 담양군 담양읍 천변7길 23, (담양읍)","phone":"061-381-4010","openDate":"2013-03-04","longitude":126.9829553,"latitude":35.3152028},{"id":"JDQ4MTYyMiM3MSMkMSMkMCMkMDMkMzgxMzUxIzQxIyQxIyQ3IyQ4OSQzNjEyMjIjODEjJDEjJDIjJDgz","name":"대동약국","category":"약국","sido":"전남","sigungu":"목포시","address":"전라남도 목포시 노적봉길 18, (죽동)","phone":"061-244-4745","openDate":"1968-07-16","longitude":126.3836388,"latitude":34.7900348},{"id":"JDQ4MTYyMiM3MSMkMSMkMCMkMDMkMzgxNzAyIzExIyQxIyQ3IyQ5OSQyNjE0ODEjNjEjJDEjJDAjJDgz","name":"대동약국","category":"약국","sido":"전남","sigungu":"함평군","address":"전라남도 함평군 함평읍 중앙길 136, (함평읍)","phone":"061-324-7667","openDate":"2015-05-18","longitude":126.5202708,"latitude":35.0650701},{"id":"JDQ4MTYyMiM3MSMkMSMkMCMkMDMkMzgxOTYxIzIxIyQxIyQxIyQ4OSQ0NjE0ODEjODEjJDEjJDIjJDgz","name":"대동약국","category":"약국","sido":"전남","sigungu":"해남군","address":"전라남도 해남군 북평면 볼무당길 35, (북평면)","phone":"061-533-1012","openDate":"1967-09-15","longitude":126.62992,"latitude":34.4079532},{"id":"JDQ4MTYyMiM3MSMkMSMkMCMkMDMkMzgxNzAyIzExIyQxIyQzIyQ3MiQ0NjEwMDIjNTEjJDEjJDYjJDgz","name":"대림약국","category":"약국","sido":"전남","sigungu":"목포시","address":"전라남도 목포시 산대로2번길 2, 1층 (산정동)","phone":"061-273-3002","openDate":"2021-06-29","longitude":126.3921793,"latitude":34.8023999},{"id":"JDQ4MTYyMiM3MSMkMSMkMCMkMDMkMzgxMTkxIzUxIyQxIyQxIyQ4OSQzNjE0ODEjODEjJDEjJDYjJDgz","name":"대명약국","category":"약국","sido":"전남","sigungu":"나주시","address":"전라남도 나주시 공산면 공산로 104, (공산면)","phone":"061-336-7300","openDate":"2008-01-23","longitude":126.6102333,"latitude":34.9415586},{"id":"JDQ4MTYyMiM3MSMkMSMkMCMkMDMkMzgxMTkxIzMxIyQxIyQ3IyQ2MiQzNjE0ODEjODEjJDEjJDIjJDgz","name":"대민약국","category":"약국","sido":"전남","sigungu":"여수시","address":"전라남도 여수시 도원로 279, (학동)","phone":"061-683-0057","openDate":"2005-10-20","longitude":127.6618234,"latitude":34.761536},{"id":"JDQ4MTYyMiM3MSMkMSMkMCMkMDMkMzgxMTkxIzExIyQxIyQzIyQ4OSQzNjE0ODEjODEjJDEjJDIjJDgz","name":"대불약국","category":"약국","sido":"전남","sigungu":"영암군","address":"전라남도 영암군 삼호읍 삼호중앙로 167, 167","phone":"061-462-0080","openDate":"1998-10-27","longitude":126.4691796,"latitude":34.7455316},{"id":"JDQ4MTYyMiM3MSMkMSMkMCMkMDMkMzgxNzAyIzExIyQxIyQzIyQ2MiQzNjE0ODEjNjEjJDEjJDQjJDgz","name":"대성약국","category":"약국","sido":"전남","sigungu":"강진군","address":"전라남도 강진군 강진읍 탐진로 6, (강진읍)","phone":"061-432-3000","openDate":"2011-08-16","longitude":126.7584209,"latitude":34.6358733},{"id":"JDQ4MTYyMiM3MSMkMSMkMCMkMDMkMzgxOTYxIzIxIyQyIyQ1IyQwMCQ0NjEwMDIjNzEjJDEjJDgjJDgz","name":"대영약국","category":"약국","sido":"전남","sigungu":"여수시","address":"전라남도 여수시 만성로 63, (미평동)","phone":"061-652-4985","openDate":"1990-06-19","longitude":127.702736,"latitude":34.7704479},{"id":"JDQ4MTYyMiM3MSMkMSMkMCMkMDMkMzgxOTYxIzUxIyQxIyQ1IyQ5OSQyNjE0ODEjNjEjJDEjJDAjJDgz","name":"대웅약국","category":"약국","sido":"전남","sigungu":"여수시","address":"전라남도 여수시 중앙로 3, (서교동)","phone":"061-641-0678","openDate":"1997-07-03","longitude":127.7282541,"latitude":34.7406378},{"id":"JDQ4MTYyMiM3MSMkMSMkMCMkMDMkMzgxMzUxIzQxIyQxIyQ3IyQwMyQzNjEyMjIjODEjJDEjJDYjJDgz","name":"대웅약국","category":"약국","sido":"전남","sigungu":"목포시","address":"전라남도 목포시 옥암로 106-1, (옥암동)","phone":"061-283-7001","openDate":"1987-10-23","longitude":126.4261277,"latitude":34.8086129},{"id":"JDQ4MTYyMiM3MSMkMSMkMCMkMDMkMzgxNzAyIzIxIyQyIyQxIyQwMCQyNjEwMDIjNjEjJDEjJDgjJDgz","name":"대웅약국","category":"약국","sido":"전남","sigungu":"광양시","address":"전라남도 광양시 공영로 66, 1층 (중동)","phone":"061-793-7575","openDate":"2014-10-01","longitude":127.6962522,"latitude":34.9357037},{"id":"JDQ4MTYyMiM3MSMkMSMkMCMkMDMkMzgxMTkxIzIxIyQxIyQ1IyQ5OSQzNjE0ODEjNjEjJDEjJDAjJDgz","name":"대원약국","category":"약국","sido":"전남","sigungu":"보성군","address":"전라남도 보성군 벌교읍 채동선로 215, (벌교읍)","phone":"061-857-3127","openDate":"2001-09-12","longitude":127.3433802,"latitude":34.8423506},{"id":"JDQ4MTYyMiM3MSMkMSMkMCMkMDMkMzgxMzUxIzQxIyQxIyQ3IyQ5OSQzNjEwMDIjNzEjJDEjJDgjJDgz","name":"대인약국","category":"약국","sido":"전남","sigungu":"목포시","address":"전라남도 목포시 원산중앙로 96, (연산동)","phone":"061-278-4008","openDate":"2017-02-07","longitude":126.3812968,"latitude":34.8119173},{"id":"JDQ4MTYyMiM3MSMkMSMkMCMkMDMkMzgxMzUxIzIxIyQxIyQxIyQ5OSQzNjEyMjIjNTEjJDEjJDYjJDgz","name":"대일약국","category":"약국","sido":"전남","sigungu":"신안군","address":"전라남도 신안군 지도읍 봉리길 9, (지도읍)","phone":"061-275-1365","openDate":"1995-09-30","longitude":126.2107422,"latitude":35.0599992},{"id":"JDQ4MTYyMiM3MSMkMSMkMCMkMDMkMzgxNzAyIzQxIyQxIyQ3IyQ3MiQyNjEyMjIjNDEjJDEjJDgjJDgz","name":"대진약국","category":"약국","sido":"전남","sigungu":"목포시","address":"전라남도 목포시 용당로 281, 종원빌딩 (용해동)","phone":"061-273-1717","openDate":"2022-09-01","longitude":126.3990788,"latitude":34.8123212},{"id":"JDQ4MTYyMiM3MSMkMSMkMCMkMDMkMzgxOTYxIzIxIyQxIyQxIyQ5OSQyNjE4MzIjNjEjJDEjJDAjJDgz","name":"대창약국","category":"약국","sido":"전남","sigungu":"해남군","address":"전라남도 해남군 해남읍 중앙2로 124, (해남읍)","phone":"061-536-2400","openDate":"1981-10-10","longitude":126.5953372,"latitude":34.5672293},{"id":"JDQ4MTYyMiM3MSMkMSMkMCMkMDMkMzgxOTYxIzIxIyQxIyQ5IyQ5MiQzNjE4MzIjNjEjJDEjJDgjJDgz","name":"대창약국","category":"약국","sido":"전남","sigungu":"신안군","address":"전라남도 신안군 안좌면 중부로 852, (안좌면)","phone":"061-262-1118","openDate":"2008-04-29","longitude":126.1253444,"latitude":34.7544792},{"id":"JDQ4MTYyMiM3MSMkMSMkMCMkMDMkMzgxOTYxIzIxIyQxIyQxIyQ5MiQzNjE4MzIjNTEjJDEjJDYjJDgz","name":"대학약국","category":"약국","sido":"전남","sigungu":"화순군","address":"전라남도 화순군 화순읍 서양로 309, (화순읍)","phone":"061-870-7799","openDate":"2022-06-29","longitude":127.0004945,"latitude":35.0596622},{"id":"JDQ4MTYyMiM3MSMkMSMkMCMkMDMkMzgxNzAyIzIxIyQxIyQxIyQxMyQ0NjE0ODEjNzEjJDEjJDgjJDgz","name":"대학약국","category":"약국","sido":"전남","sigungu":"목포시","address":"전라남도 목포시 영산로 627, 2동 (석현동)","phone":"061-281-8772","openDate":"2015-08-27","longitude":126.4217811,"latitude":34.8212565},{"id":"JDQ4MTYyMiM3MSMkMSMkMCMkMDMkMzgxNzAyIzMxIyQxIyQ3IyQ5OSQzNjEyMjIjNjEjJDEjJDQjJDgz","name":"대학약국","category":"약국","sido":"전남","sigungu":"순천시","address":"전라남도 순천시 중앙로 314, 1층 (가곡동)","phone":"061-753-8250","openDate":"2020-06-24","longitude":127.4828206,"latitude":34.9735975},{"id":"JDQ4MTYyMiM3MSMkMSMkMCMkMDMkMzgxOTYxIzIxIyQxIyQ1IyQ5OSQyNjEyMjIjNTEjJDEjJDIjJDgz","name":"대형드림온누리약국","category":"약국","sido":"전남","sigungu":"순천시","address":"전라남도 순천시 팔마로 205, LG전자 101호,107호 (덕암동)","phone":"","openDate":"2015-09-15","longitude":127.5093028,"latitude":34.9414039},{"id":"JDQ4MTYyMiM3MSMkMSMkMCMkMDMkMzgxNzAyIzUxIyQxIyQxIyQ5MiQzNjEyMjIjNjEjJDEjJDAjJDgz","name":"대형약국","category":"약국","sido":"전남","sigungu":"나주시","address":"전라남도 나주시 도민길 24-3, 에스엠주차타워 104,105호 (빛가람동)","phone":"061-332-8555","openDate":"2022-10-24","longitude":126.7989921,"latitude":35.0235751},{"id":"JDQ4MTYyMiM3MSMkMSMkMCMkMDMkMzgxOTYxIzIxIyQxIyQxIyQ4OSQzNjE0ODEjNjEjJDEjJDQjJDgz","name":"대흥약국","category":"약국","sido":"전남","sigungu":"해남군","address":"전라남도 해남군 북일면 만월길 24, (북일면)","phone":"061-533-0020","openDate":"2002-04-30","longitude":126.6727485,"latitude":34.4639532},{"id":"JDQ4MTYyMiM3MSMkMSMkMCMkMDMkMzgxNzAyIzIxIyQxIyQ1IyQwMyQyNjE4MzIjNjEjJDEjJDQjJDgz","name":"대흥약국","category":"약국","sido":"전남","sigungu":"여수시","address":"전라남도 여수시 신월로 692, (국동, 대흥약국빌딩)","phone":"061-643-0011","openDate":"2016-04-11","longitude":127.7188806,"latitude":34.732521},{"id":"JDQ4MTYyMiM3MSMkMSMkMCMkMDMkMzgxNzAyIzUxIyQxIyQxIyQwMyQzNjE4MzIjNDEjJDEjJDQjJDgz","name":"더드림약국","category":"약국","sido":"전남","sigungu":"순천시","address":"전라남도 순천시 신월큰길 9, (조례동)","phone":"722-2888","openDate":"2014-01-29","longitude":127.5201739,"latitude":34.9603919},{"id":"JDQ4MTYyMiM3MSMkMSMkMCMkMDMkMzgxMzUxIzUxIyQyIyQ1IyQwMCQyNjEyMjIjNTEjJDEjJDIjJDgz","name":"더좋은약국","category":"약국","sido":"전남","sigungu":"광양시","address":"전라남도 광양시 중마중앙로 13, 1층 (중동)","phone":"061-795-6222","openDate":"2023-12-21","longitude":127.6977003,"latitude":34.9313909},{"id":"JDQ4MTYyMiM3MSMkMSMkMCMkMDMkMzgxNzAyIzQxIyQxIyQ3IyQ4MiQyNjEyMjIjODEjJDEjJDIjJDgz","name":"데일리약국","category":"약국","sido":"전남","sigungu":"여수시","address":"전라남도 여수시 시청로 15, 1층 (학동)","phone":"061-685-3557","openDate":"2022-11-14","longitude":127.6624931,"latitude":34.7631666},{"id":"JDQ4MTYyMiM3MSMkMSMkMCMkMDMkMzgxMTkxIzExIyQxIyQ3IyQ3MiQ0NjE0ODEjNjEjJDEjJDgjJDgz","name":"도곡제일약국","category":"약국","sido":"전남","sigungu":"화순군","address":"전라남도 화순군 도곡면 효자1길 14-3, 14","phone":"061-374-0344","openDate":"2011-06-27","longitude":126.9173204,"latitude":34.9966283},{"id":"JDQ4MTYyMiM3MSMkMSMkMCMkMDMkMzgxMTkxIzUxIyQxIyQ1IyQ5OSQ0NjEwMDIjNTEjJDEjJDYjJDgz","name":"도담약국","category":"약국","sido":"전남","sigungu":"순천시","address":"전라남도 순천시 장선배기1길 9, 1층 (조례동)","phone":"061-727-2130","openDate":"2020-12-04","longitude":127.5221661,"latitude":34.9533656},{"id":"JDQ4MTYyMiM3MSMkMSMkMCMkMDMkMzgxMTkxIzMxIyQxIyQ3IyQ3OSQyNjEyMjIjNTEjJDEjJDIjJDgz","name":"도미약국","category":"약국","sido":"전남","sigungu":"완도군","address":"전라남도 완도군 완도읍 장보고대로 282, (완도읍)","phone":"061-554-1615","openDate":"2005-04-12","longitude":126.7553632,"latitude":34.3146239},{"id":"JDQ4MTYyMiM3MSMkMSMkMCMkMDMkMzgxMTkxIzUxIyQxIyQxIyQ5OSQzNjE4MzIjNDEjJDEjJDgjJDgz","name":"도양약국","category":"약국","sido":"전남","sigungu":"고흥군","address":"전라남도 고흥군 도양읍 녹동남촌1길 12, (도양읍)","phone":"061-843-3832","openDate":"2009-05-01","longitude":127.1381077,"latitude":34.5288797},{"id":"JDQ4MTYyMiM3MSMkMSMkMCMkMDMkMzgxMTkxIzIxIyQxIyQ5IyQ3OSQzNjE0ODEjNjEjJDEjJDgjJDgz","name":"도원약국","category":"약국","sido":"전남","sigungu":"여수시","address":"전라남도 여수시 도원로 164-1, (안산동)","phone":"061-692-1520","openDate":"2018-07-02","longitude":127.6493055,"latitude":34.7606281},{"id":"JDQ4MTYyMiM3MSMkMSMkMCMkMDMkMzgxMTkxIzMxIyQxIyQzIyQ4OSQ0NjE0ODEjNTEjJDEjJDIjJDgz","name":"도원약국","category":"약국","sido":"전남","sigungu":"목포시","address":"전라남도 목포시 호남로64번길 27, (대안동)","phone":"061-242-6566","openDate":"2004-03-03","longitude":126.3849013,"latitude":34.7918671},{"id":"JDQ4MTYyMiM3MSMkMSMkMCMkMDMkMzgxMTkxIzMxIyQxIyQzIyQ5OSQyNjEwMDIjNTEjJDEjJDIjJDgz","name":"독일약국","category":"약국","sido":"전남","sigungu":"목포시","address":"전라남도 목포시 산정로 145, (산정동)","phone":"061-277-2655","openDate":"2009-07-29","longitude":126.3926643,"latitude":34.8016192},{"id":"JDQ4MTYyMiM3MSMkMSMkMCMkMDMkMzgxOTYxIzExIyQyIyQ3IyQwMCQzNjE0ODEjNTEjJDEjJDYjJDgz","name":"독일약국","category":"약국","sido":"전남","sigungu":"영암군","address":"전라남도 영암군 학산면 독천로 187, 187","phone":"061-472-4100","openDate":"1971-07-07","longitude":126.5695469,"latitude":34.7257991},{"id":"JDQ4MTYyMiM3MSMkMSMkMCMkMDMkMzgxNzAyIzExIyQxIyQzIyQ2MiQyNjEyMjIjODEjJDEjJDYjJDgz","name":"동강제일약국","category":"약국","sido":"전남","sigungu":"나주시","address":"전라남도 나주시 동강면 동강로 590, 동강제일약국","phone":"061-336-2025","openDate":"2018-10-15","longitude":126.5648101,"latitude":34.9367622},{"id":"JDQ4MTYyMiM3MSMkMSMkMCMkMDMkMzgxMzUxIzUxIyQxIyQ1IyQ3OSQyNjEyMjIjNDEjJDEjJDgjJDgz","name":"동방약국","category":"약국","sido":"전남","sigungu":"순천시","address":"전라남도 순천시 중앙로 152, (매곡동)","phone":"061-752-3263","openDate":"1986-12-30","longitude":127.484563,"latitude":34.9591371},{"id":"JDQ4MTYyMiM3MSMkMSMkMCMkMDMkMzgxOTYxIzExIyQxIyQ3IyQ5OSQyNjEyMjIjNDEjJDEjJDQjJDgz","name":"동아약국","category":"약국","sido":"전남","sigungu":"영광군","address":"전라남도 영광군 영광읍 신남로 178, (영광읍)","phone":"061-351-4312","openDate":"1983-05-28","longitude":126.5014363,"latitude":35.275885},{"id":"JDQ4MTYyMiM3MSMkMSMkMCMkMDMkMzgxMzUxIzUxIyQxIyQxIyQxMyQyNjE4MzIjODEjJDEjJDIjJDgz","name":"동아약국","category":"약국","sido":"전남","sigungu":"순천시","address":"전라남도 순천시 팔마로 15-4, 동아약국 (장천동)","phone":"061-744-2230","openDate":"2001-11-21","longitude":127.4902347,"latitude":34.9468315},{"id":"JDQ4MTYyMiM3MSMkMSMkMCMkMDMkMzgxNzAyIzIxIyQxIyQ1IyQ5OSQzNjE0ODEjNDEjJDEjJDQjJDgz","name":"동양당한약국","category":"약국","sido":"전남","sigungu":"순천시","address":"전라남도 순천시 해룡면 조례못등길 80, (해룡면)","phone":"061-725-5426","openDate":"2002-07-26","longitude":127.5281609,"latitude":34.9503467},{"id":"JDQ4MTYyMiM3MSMkMSMkMCMkMDMkMzgxNzAyIzIxIyQxIyQ1IyQ5OSQyNjEwMDIjNjEjJDEjJDQjJDgz","name":"동인당한약국","category":"약국","sido":"전남","sigungu":"여수시","address":"전라남도 여수시 미평로 10-1, (미평동)","phone":"061-654-5236","openDate":"2001-08-06","longitude":127.7071604,"latitude":34.7640562},{"id":"JDQ4MTYyMiM3MSMkMSMkMCMkMDMkMzgxNzAyIzExIyQxIyQzIyQ3MiQzNjEwMDIjNDEjJDEjJDgjJDgz","name":"동인당한약국","category":"약국","sido":"전남","sigungu":"순천시","address":"전라남도 순천시 해룡면 신대로 43, (해룡면)","phone":"061-724-3836","openDate":"2002-11-15","longitude":127.5484849,"latitude":34.9278432},{"id":"JDQ4MTYyMiM3MSMkMSMkMCMkMDMkMzgxOTYxIzQxIyQxIyQ3IyQxMyQyNjEyMjIjODEjJDEjJDYjJDgz","name":"동인약국","category":"약국","sido":"전남","sigungu":"여수시","address":"전라남도 여수시 동문로 114, (공화동)","phone":"061-662-9021","openDate":"2010-02-22","longitude":127.7436128,"latitude":34.7464536},{"id":"JDQ4MTYyMiM3MSMkMSMkMCMkMDMkMzgxNzAyIzIxIyQxIyQ1IyQ5MiQ0NjE0ODEjODEjJDEjJDYjJDgz","name":"드림약국","category":"약국","sido":"전남","sigungu":"여수시","address":"전라남도 여수시 망마로 25, (학동)","phone":"061-641-6333","openDate":"2016-03-18","longitude":127.6659267,"latitude":34.7602938},{"id":"JDQ4MTYyMiM3MSMkMSMkMCMkMDMkMzgxMTkxIzIxIyQxIyQ1IyQ3OSQyNjEyMjIjNTEjJDEjJDYjJDgz","name":"드림약국","category":"약국","sido":"전남","sigungu":"목포시","address":"전라남도 목포시 영산로 623, (석현동)","phone":"061-284-4777","openDate":"2008-07-28","longitude":126.421025,"latitude":34.8213917},{"id":"JDQ4MTYyMiM3MSMkMSMkMCMkMDMkMzgxMTkxIzUxIyQxIyQ1IyQ2MiQzNjE0ODEjNzEjJDEjJDgjJDgz","name":"드림약국","category":"약국","sido":"전남","sigungu":"나주시","address":"전라남도 나주시 다시면 대용길 31, (다시면)","phone":"061-335-7566","openDate":"2015-05-22","longitude":126.6384481,"latitude":35.017726},{"id":"JDQ4MTYyMiM3MSMkMSMkMCMkMDMkMzgxNzAyIzExIyQxIyQ3IyQxMyQzNjEyMjIjNjEjJDEjJDAjJDgz","name":"든든약국","category":"약국","sido":"전남","sigungu":"목포시","address":"전라남도 목포시 죽산로40번길 7, 1층 (산정동)","phone":"061-279-8965","openDate":"2019-02-21","longitude":126.3761408,"latitude":34.810574},{"id":"JDQ4MTYyMiM3MSMkMSMkMCMkMDMkMzgxMTkxIzUxIyQyIyQ1IyQwMCQyNjEyMjIjNTEjJDEjJDYjJDgz","name":"로뎀온누리약국","category":"약국","sido":"전남","sigungu":"목포시","address":"전라남도 목포시 청호로 154, (산정동)","phone":"061-278-6705","openDate":"2010-01-22","longitude":126.3751761,"latitude":34.8049523},{"id":"JDQ4MTYyMiM3MSMkMSMkMCMkMDMkMzgxMzUxIzUxIyQyIyQxIyQwMCQyNjEwMDIjODEjJDEjJDIjJDgz","name":"로타리약국","category":"약국","sido":"전남","sigungu":"여수시","address":"전라남도 여수시 여서로 164-1, (여서동)","phone":"061-652-0131","openDate":"2007-02-01","longitude":127.7000508,"latitude":34.7480041},{"id":"JDQ4MTYyMiM3MSMkMSMkMCMkMDMkMzgxMTkxIzIxIyQxIyQ5IyQ4MiQyNjEwMDIjNjEjJDEjJDQjJDgz","name":"로타리큰약국","category":"약국","sido":"전남","sigungu":"광양시","address":"전라남도 광양시 광양읍 남문2길 30-39, 1층","phone":"061-761-6789","openDate":"2008-08-01","longitude":127.5892036,"latitude":34.9712856},{"id":"JDQ4MTYyMiM3MSMkMSMkMCMkMDMkMzgxNzAyIzMxIyQxIyQzIyQ5MiQzNjE0ODEjODEjJDEjJDYjJDgz","name":"마음편한약국","category":"약국","sido":"전남","sigungu":"무안군","address":"전라남도 무안군 삼향읍 남악4로34번길 6, 132호 (에드가채움 주상복합 아파트)","phone":"061-285-0507","openDate":"2019-08-19","longitude":126.4663898,"latitude":34.8078875},{"id":"JDQ4MTYyMiM3MSMkMSMkMCMkMDMkMzgxNzAyIzIxIyQxIyQ5IyQxMyQzNjE4MzIjNDEjJDEjJDgjJDgz","name":"만광약국","category":"약국","sido":"전남","sigungu":"여수시","address":"전라남도 여수시 여서로 156-1, (여서동)","phone":"061-810-6184","openDate":"2018-04-26","longitude":127.6989867,"latitude":34.7479758},{"id":"JDQ4MTYyMiM3MSMkMSMkMCMkMDMkMzgxMTkxIzIxIyQxIyQ1IyQ2MiQ0NjE0ODEjNDEjJDEjJDgjJDgz","name":"맑은샘약국","category":"약국","sido":"전남","sigungu":"광양시","address":"전라남도 광양시 광장로 142, (중동)","phone":"061-795-7582","openDate":"2011-08-01","longitude":127.695303,"latitude":34.9366756},{"id":"JDQ4MTYyMiM3MSMkMSMkMCMkMDMkMzgxMTkxIzIxIyQxIyQ5IyQ4OSQyNjE4MzIjNjEjJDEjJDQjJDgz","name":"맑은약국","category":"약국","sido":"전남","sigungu":"완도군","address":"전라남도 완도군 완도읍 개포로130번길 15, (완도읍)","phone":"","openDate":"2022-03-15","longitude":126.7445269,"latitude":34.3188619},{"id":"JDQ4MTYyMiM3MSMkMSMkMCMkMDMkMzgxNzAyIzIxIyQxIyQ1IyQ5MiQzNjE0ODEjNjEjJDEjJDgjJDgz","name":"맑은약국","category":"약국","sido":"전남","sigungu":"순천시","address":"전라남도 순천시 팔마로 212, 1층 (풍덕동, 이타워빌딩)","phone":"061-744-4700","openDate":"2016-01-15","longitude":127.5090508,"latitude":34.9405169},{"id":"JDQ4MTYyMiM3MSMkMSMkMCMkMDMkMzgxMTkxIzUxIyQxIyQ1IyQ3MiQzNjEwMDIjNTEjJDEjJDIjJDgz","name":"매일약국","category":"약국","sido":"전남","sigungu":"해남군","address":"전라남도 해남군 해남읍 중앙2로 150, (홍한의원 김정형외과 매일약국)","phone":"537-1642","openDate":"2017-02-07","longitude":126.59449,"latitude":34.5663095},{"id":"JDQ4MTYyMiM3MSMkMSMkMCMkMDMkMzgxOTYxIzExIyQxIyQ3IyQwMyQyNjE4MzIjNDEjJDEjJDgjJDgz","name":"매정약국","category":"약국","sido":"전남","sigungu":"진도군","address":"전라남도 진도군 임회면 십일시길 47-1, (임회면)","phone":"061-543-3037","openDate":"1965-11-19","longitude":126.1930204,"latitude":34.4092464},{"id":"JDQ4MTYyMiM3MSMkMSMkMCMkMDMkMzgxNzAyIzIxIyQxIyQ5IyQwMyQzNjEyMjIjNjEjJDEjJDgjJDgz","name":"메디컬여문약국","category":"약국","sido":"전남","sigungu":"여수시","address":"전라남도 여수시 여서1로 7, (여서동)","phone":"061-661-0634","openDate":"2018-02-14","longitude":127.7002057,"latitude":34.7494424},{"id":"JDQ4MTYyMiM3MSMkMSMkMCMkMDMkMzgxMTkxIzIxIyQxIyQ1IyQ4OSQyNjE0ODEjNjEjJDEjJDAjJDgz","name":"메디타운정겨운약국","category":"약국","sido":"전남","sigungu":"순천시","address":"전라남도 순천시 신월큰길 13, (조례동)","phone":"061-804-5188","openDate":"2008-10-08","longitude":127.5198452,"latitude":34.9604482},{"id":"JDQ4MTYyMiM3MSMkMSMkMCMkMDMkMzgxMTkxIzUxIyQyIyQ1IyQwMCQyNjE0ODEjNzEjJDEjJDgjJDgz","name":"메디팜동아약국","category":"약국","sido":"전남","sigungu":"고흥군","address":"전라남도 고흥군 도양읍 비봉로 148-1, (도양읍)","phone":"061-842-2114","openDate":"2015-06-15","longitude":127.1354654,"latitude":34.5278636},{"id":"JDQ4MTYyMiM3MSMkMSMkMCMkMDMkMzgxMzUxIzQxIyQxIyQ3IyQwMyQyNjE0ODEjNDEjJDEjJDQjJDgz","name":"메디팜명문약국","category":"약국","sido":"전남","sigungu":"목포시","address":"전라남도 목포시 이로로 14, (용해동)","phone":"061-274-1985","openDate":"1987-04-04","longitude":126.405621,"latitude":34.8043817},{"id":"JDQ4MTYyMiM3MSMkMSMkMCMkMDMkMzgxOTYxIzIxIyQxIyQ5IyQ5MiQyNjEyMjIjNjEjJDEjJDQjJDgz","name":"메디팜명재약국","category":"약국","sido":"전남","sigungu":"광양시","address":"전라남도 광양시 광양읍 순광로 697, (광양읍)","phone":"061-762-7349","openDate":"1994-06-09","longitude":127.5891303,"latitude":34.9704965},{"id":"JDQ4MTYyMiM3MSMkMSMkMCMkMDMkMzgxOTYxIzMxIyQxIyQzIyQ5OSQzNjEyMjIjODEjJDEjJDIjJDgz","name":"메디팜보령약국","category":"약국","sido":"전남","sigungu":"목포시","address":"전라남도 목포시 상리로1번길 23, (상동)","phone":"061-276-0208","openDate":"1993-04-30","longitude":126.4142997,"latitude":34.8130222},{"id":"JDQ4MTYyMiM3MSMkMSMkMCMkMDMkMzgxMzUxIzUxIyQyIyQ1IyQwMCQyNjE4MzIjNDEjJDEjJDgjJDgz","name":"메디팜영진약국","category":"약국","sido":"전남","sigungu":"순천시","address":"전라남도 순천시 삼산로 102, 1층 (용당동)","phone":"061-752-2330","openDate":"1987-07-01","longitude":127.4944788,"latitude":34.9731935},{"id":"JDQ4MTYyMiM3MSMkMSMkMCMkMDMkMzgxMzUxIzUxIyQxIyQ1IyQ4MiQyNjE0ODEjODEjJDEjJDIjJDgz","name":"메디팜영진약국","category":"약국","sido":"전남","sigungu":"진도군","address":"전라남도 진도군 진도읍 남문길 12-13, (진도읍)","phone":"061-544-7501","openDate":"2009-01-07","longitude":126.2652584,"latitude":34.4789579},{"id":"JDQ4MTYyMiM3MSMkMSMkMCMkMDMkMzgxOTYxIzIxIyQxIyQ1IyQ4OSQ0NjEwMDIjNTEjJDEjJDIjJDgz","name":"메디팜우리약국","category":"약국","sido":"전남","sigungu":"완도군","address":"전라남도 완도군 노화읍 노화로 847, (노화읍)","phone":"061-554-5275","openDate":"2008-08-05","longitude":126.5722378,"latitude":34.1769765},{"id":"JDQ4MTYyMiM3MSMkMSMkMCMkMDMkMzgxOTYxIzMxIyQxIyQ3IyQ4OSQyNjEwMDIjNjEjJDEjJDgjJDgz","name":"메디팜우성약국","category":"약국","sido":"전남","sigungu":"목포시","address":"전라남도 목포시 백년대로297번길 7, (상동)","phone":"061-284-7001","openDate":"2013-01-02","longitude":126.4196354,"latitude":34.8044265},{"id":"JDQ4MTYyMiM3MSMkMSMkMCMkMDMkMzgxMzUxIzMxIyQyIyQ3IyQwMCQzNjEyMjIjNjEjJDEjJDgjJDgz","name":"메디팜유진약국","category":"약국","sido":"전남","sigungu":"광양시","address":"전라남도 광양시 중마로 172, 1층 (중동)","phone":"061-792-1581","openDate":"1992-02-15","longitude":127.6893593,"latitude":34.9400711},{"id":"JDQ4MTYyMiM3MSMkMSMkMCMkMDMkMzgxOTYxIzIxIyQxIyQ5IyQ2MiQzNjE0ODEjNDEjJDEjJDQjJDgz","name":"메디팜정원약국","category":"약국","sido":"전남","sigungu":"목포시","address":"전라남도 목포시 산정로 275-1, (연산동)","phone":"061-277-0720","openDate":"1991-12-09","longitude":126.3859546,"latitude":34.8116066},{"id":"JDQ4MTYyMiM3MSMkMSMkMCMkMDMkMzgxOTYxIzUxIyQxIyQxIyQxMyQyNjE0ODEjODEjJDEjJDYjJDgz","name":"메디팜태평양약국","category":"약국","sido":"전남","sigungu":"목포시","address":"전라남도 목포시 영산로 320, (용당동)","phone":"061-272-3850","openDate":"2000-09-06","longitude":126.4004855,"latitude":34.8054087},{"id":"JDQ4MTYyMiM3MSMkMSMkMCMkMDMkMzgxMzUxIzUxIyQxIyQ1IyQ4OSQ0NjE0ODEjNzEjJDEjJDgjJDgz","name":"메디팜프라자약국","category":"약국","sido":"전남","sigungu":"순천시","address":"전라남도 순천시 연향중앙상가길 27, (연향동)","phone":"061-721-1818","openDate":"2005-08-05","longitude":127.5201042,"latitude":34.9512233},{"id":"JDQ4MTYyMiM3MSMkMSMkMCMkMDMkMzgxOTYxIzMxIyQxIyQ3IyQ4OSQ0NjE0ODEjNTEjJDEjJDYjJDgz","name":"메디팜현대약국","category":"약국","sido":"전남","sigungu":"목포시","address":"전라남도 목포시 부흥로 86, 102호 (옥암동, 부영2차아파트 상가)","phone":"061-283-0008","openDate":"1996-12-17","longitude":126.4306256,"latitude":34.8032947},{"id":"JDQ4MTYyMiM3MSMkMSMkMCMkMDMkMzgxOTYxIzExIyQxIyQ3IyQxMyQyNjEyMjIjNDEjJDEjJDgjJDgz","name":"명문약국","category":"약국","sido":"전남","sigungu":"진도군","address":"전라남도 진도군 진도읍 남문길 13, (진도읍)","phone":"061-544-2093","openDate":"1997-12-23","longitude":126.2634294,"latitude":34.4794003},{"id":"JDQ4MTYyMiM3MSMkMSMkMCMkMDMkMzgxOTYxIzUxIyQxIyQxIyQ4MiQ0NjEwMDIjNDEjJDEjJDgjJDgz","name":"명성온누리약국","category":"약국","sido":"전남","sigungu":"순천시","address":"전라남도 순천시 봉화3길 14, (조례동)","phone":"723-6669","openDate":"1996-12-24","longitude":127.5199811,"latitude":34.9632557},{"id":"JDQ4MTYyMiM3MSMkMSMkMCMkMDMkMzgxNzAyIzMxIyQxIyQzIyQ5OSQzNjEwMDIjNDEjJDEjJDgjJDgz","name":"명지약국","category":"약국","sido":"전남","sigungu":"해남군","address":"전라남도 해남군 해남읍 남부순환로 159, 청치과의원","phone":"061-537-5370","openDate":"2018-09-28","longitude":126.5943034,"latitude":34.5654404},{"id":"JDQ4MTYyMiM3MSMkMSMkMCMkMDMkMzgxNzAyIzIxIyQxIyQ5IyQ3MiQ0NjE0ODEjNDEjJDEjJDgjJDgz","name":"모범약국","category":"약국","sido":"전남","sigungu":"순천시","address":"전라남도 순천시 삼산로 103-11, 1층 (용당동)","phone":"061-752-2267","openDate":"2017-08-16","longitude":127.4937375,"latitude":34.9739596},{"id":"JDQ4MTYyMiM3MSMkMSMkMCMkMDMkMzgxNzAyIzMxIyQxIyQ3IyQ4MiQyNjEwMDIjNTEjJDEjJDYjJDgz","name":"모아약국","category":"약국","sido":"전남","sigungu":"순천시","address":"전라남도 순천시 해룡면 순광로 224, (해룡면)","phone":"061-727-0045","openDate":"2021-02-16","longitude":127.5430533,"latitude":34.9631508},{"id":"JDQ4MTYyMiM3MSMkMSMkMCMkMDMkMzgxOTYxIzExIyQxIyQ3IyQ3MiQzNjEyMjIjNjEjJDEjJDAjJDgz","name":"목사골한국약국","category":"약국","sido":"전남","sigungu":"나주시","address":"전라남도 나주시 나주로 204, (성북동)","phone":"061-337-9449","openDate":"2003-12-19","longitude":126.7219074,"latitude":35.0346383},{"id":"JDQ4MTYyMiM3MSMkMSMkMCMkMDMkMzgxMzUxIzQxIyQxIyQ3IyQ4OSQzNjEwMDIjNDEjJDEjJDQjJDgz","name":"목포광주약국","category":"약국","sido":"전남","sigungu":"목포시","address":"전라남도 목포시 해안로229번길 2-1, (영해동1가)","phone":"061-243-1101","openDate":"1986-01-29","longitude":126.3867961,"latitude":34.7857882},{"id":"JDQ4MTYyMiM3MSMkMSMkMCMkMDMkMzgxNzAyIzUxIyQxIyQxIyQ4OSQyNjEwMDIjNDEjJDEjJDQjJDgz","name":"목포산정약국","category":"약국","sido":"전남","sigungu":"목포시","address":"전라남도 목포시 양을로 151, 1층 (산정동)","phone":"061-277-1396","openDate":"2023-10-01","longitude":126.3868856,"latitude":34.8100121},{"id":"JDQ4MTYyMiM3MSMkMSMkMCMkMDMkMzgxOTYxIzIxIyQxIyQ1IyQ3OSQzNjE0ODEjNjEjJDEjJDAjJDgz","name":"목포약국","category":"약국","sido":"전남","sigungu":"해남군","address":"전라남도 해남군 화원면 금평길 3, 목포약국","phone":"","openDate":"2019-01-07","longitude":126.3285399,"latitude":34.6684697},{"id":"JDQ4MTYyMiM3MSMkMSMkMCMkMDMkMzgxNzAyIzIxIyQxIyQ5IyQ4MiQ0NjE0ODEjODEjJDEjJDIjJDgz","name":"목포하나로약국","category":"약국","sido":"전남","sigungu":"목포시","address":"전라남도 목포시 선곡로 33, (석현동)","phone":"061-281-1895","openDate":"2017-11-20","longitude":126.4285427,"latitude":34.8190883},{"id":"JDQ4MTYyMiM3MSMkMSMkMCMkMDMkMzgxMTkxIzUxIyQxIyQ1IyQ5OSQyNjE0ODEjNDEjJDEjJDQjJDgz","name":"목포하당종로약국","category":"약국","sido":"전남","sigungu":"목포시","address":"전라남도 목포시 신흥로 8, (상동)","phone":"061-283-8275","openDate":"2011-11-28","longitude":126.4221466,"latitude":34.8013326},{"id":"JDQ4MTYyMiM3MSMkMSMkMCMkMDMkMzgxMTkxIzIxIyQxIyQ1IyQ5MiQzNjE0ODEjNDEjJDEjJDgjJDgz","name":"무등약국","category":"약국","sido":"전남","sigungu":"무안군","address":"전라남도 무안군 무안읍 무안중앙로 4, (무안읍)","phone":"061-453-0520","openDate":"2004-09-02","longitude":126.4784759,"latitude":34.9884735},{"id":"JDQ4MTYyMiM3MSMkMSMkMCMkMDMkMzgxMTkxIzExIyQxIyQzIyQ5OSQ0NjEwMDIjNjEjJDEjJDgjJDgz","name":"무등온누리약국","category":"약국","sido":"전남","sigungu":"광양시","address":"전라남도 광양시 백운로 1109, (중동)","phone":"061-791-3143","openDate":"2001-08-14","longitude":127.6893983,"latitude":34.9399778},{"id":"JDQ4MTYyMiM3MSMkMSMkMCMkMDMkMzgxNzAyIzMxIyQxIyQzIyQ2MiQ0NjEwMDIjODEjJDEjJDIjJDgz","name":"문수약국","category":"약국","sido":"전남","sigungu":"여수시","address":"전라남도 여수시 문수로 160, 1층 (문수동)","phone":"061-653-3010","openDate":"2019-02-01","longitude":127.7105609,"latitude":34.7580162},{"id":"JDQ4MTYyMiM3MSMkMSMkMCMkMDMkMzgxMTkxIzUxIyQxIyQxIyQ4OSQ0NjEwMDIjNDEjJDEjJDQjJDgz","name":"미래 온누리 약국","category":"약국","sido":"전남","sigungu":"담양군","address":"전라남도 담양군 담양읍 지침3길 5, (담양읍)","phone":"061-381-7075","openDate":"2008-02-29","longitude":126.9840251,"latitude":35.3158362},{"id":"JDQ4MTYyMiM3MSMkMSMkMCMkMDMkMzgxNzAyIzIxIyQxIyQ5IyQwMyQyNjEwMDIjNjEjJDEjJDQjJDgz","name":"미래약국","category":"약국","sido":"전남","sigungu":"여수시","address":"전라남도 여수시 무선중앙로 62, (선원동)","phone":"061-685-7274","openDate":"2018-01-18","longitude":127.6507277,"latitude":34.7724691},{"id":"JDQ4MTYyMiM3MSMkMSMkMCMkMDMkMzgxNzAyIzExIyQxIyQzIyQ5MiQyNjE0ODEjNjEjJDEjJDAjJDgz","name":"미래약국","category":"약국","sido":"전남","sigungu":"완도군","address":"전라남도 완도군 완도읍 장보고대로 174, 1층","phone":"061-555-2050","openDate":"2022-02-10","longitude":126.7460005,"latitude":34.3194862},{"id":"JDQ4MTYyMiM3MSMkMSMkMCMkMDMkMzgxNzAyIzExIyQxIyQ3IyQ2MiQzNjE4MzIjNjEjJDEjJDgjJDgz","name":"미래약국","category":"약국","sido":"전남","sigungu":"화순군","address":"전라남도 화순군 화순읍 자치샘로 48, (미래타워)","phone":"061-373-7200","openDate":"2016-05-16","longitude":126.9860371,"latitude":35.0609453},{"id":"JDQ4MTYyMiM3MSMkMSMkMCMkMDMkMzgxMTkxIzMxIyQyIyQ3IyQwMCQyNjE4MzIjNTEjJDEjJDIjJDgz","name":"미래약국","category":"약국","sido":"전남","sigungu":"함평군","address":"전라남도 함평군 해보면 밀재로 1293, (해보면)","phone":"061-322-8760","openDate":"2013-06-01","longitude":126.6048645,"latitude":35.1810447},{"id":"JDQ4MTYyMiM3MSMkMSMkMCMkMDMkMzgxMTkxIzMxIyQxIyQ3IyQ5OSQzNjE0ODEjNTEjJDEjJDYjJDgz","name":"미래약국","category":"약국","sido":"전남","sigungu":"목포시","address":"전라남도 목포시 상리로1번길 13, (상동)","phone":"061-276-7008","openDate":"2008-04-03","longitude":126.4149912,"latitude":34.812398},{"id":"JDQ4MTYyMiM3MSMkMSMkMCMkMDMkMzgxMzUxIzMxIyQxIyQ3IyQwMyQ0NjEwMDIjNzEjJDEjJDgjJDgz","name":"미보약국","category":"약국","sido":"전남","sigungu":"목포시","address":"전라남도 목포시 동명주택길 1, (산정동)","phone":"061-244-5010","openDate":"1974-11-08","longitude":126.397238,"latitude":34.7903312},{"id":"JDQ4MTYyMiM3MSMkMSMkMCMkMDMkMzgxNzAyIzIxIyQxIyQ5IyQxMyQyNjE4MzIjODEjJDEjJDYjJDgz","name":"미소약국","category":"약국","sido":"전남","sigungu":"목포시","address":"전라남도 목포시 이로로 12, (용해동)","phone":"061-272-0272","openDate":"2018-09-13","longitude":126.4056489,"latitude":34.8046029},{"id":"JDQ4MTYyMiM3MSMkMSMkMCMkMDMkMzgxNzAyIzIxIyQxIyQ1IyQ3OSQyNjEyMjIjODEjJDEjJDYjJDgz","name":"미소약국","category":"약국","sido":"전남","sigungu":"순천시","address":"전라남도 순천시 해룡면 향매로 67, 1층","phone":"061-725-7717","openDate":"2015-10-06","longitude":127.5461981,"latitude":34.9344733},{"id":"JDQ4MTYyMiM3MSMkMSMkMCMkMDMkMzgxMzUxIzUxIyQxIyQxIyQ2MiQzNjE4MzIjNjEjJDEjJDAjJDgz","name":"미소약국","category":"약국","sido":"전남","sigungu":"여수시","address":"전라남도 여수시 문수로 16-1, (문수동)","phone":"654-7070","openDate":"2009-12-14","longitude":127.6996055,"latitude":34.7498616},{"id":"JDQ4MTYyMiM3MSMkMSMkMCMkMDMkMzgxNzAyIzIxIyQxIyQ1IyQ4OSQyNjEyMjIjNjEjJDEjJDgjJDgz","name":"미소온누리약국","category":"약국","sido":"전남","sigungu":"순천시","address":"전라남도 순천시 중앙로 4, 1층 (장천동, 순천장례식장)","phone":"061-746-7901","openDate":"2015-12-03","longitude":127.4879535,"latitude":34.947317},{"id":"JDQ4MTYyMiM3MSMkMSMkMCMkMDMkMzgxNzAyIzQxIyQxIyQ3IyQ3MiQzNjEwMDIjNjEjJDEjJDQjJDgz","name":"미소큰약국","category":"약국","sido":"전남","sigungu":"순천시","address":"전라남도 순천시 조례1길 10-21, (조례동)","phone":"061-725-7151","openDate":"2022-09-19","longitude":127.5223892,"latitude":34.9596105},{"id":"JDQ4MTYyMiM3MSMkMSMkMCMkMDMkMzgxMzUxIzUxIyQxIyQxIyQ5MiQzNjEyMjIjODEjJDEjJDIjJDgz","name":"미안약국","category":"약국","sido":"전남","sigungu":"여수시","address":"전라남도 여수시 선소로 72-13, (신기동)","phone":"061-684-1513","openDate":"1985-05-30","longitude":127.6683493,"latitude":34.7575584},{"id":"JDQ4MTYyMiM3MSMkMSMkMCMkMDMkMzgxMTkxIzIxIyQxIyQxIyQ3OSQ0NjE0ODEjNjEjJDEjJDgjJDgz","name":"미평햇살약국","category":"약국","sido":"전남","sigungu":"여수시","address":"전라남도 여수시 미평로 58, (미평동)","phone":"061-655-2232","openDate":"2023-05-30","longitude":127.708678,"latitude":34.768086},{"id":"JDQ4MTYyMiM3MSMkMSMkMCMkMDMkMzgxNzAyIzIxIyQxIyQ5IyQxMyQyNjE0ODEjNjEjJDEjJDAjJDgz","name":"민약국","category":"약국","sido":"전남","sigungu":"장성군","address":"전라남도 장성군 북이면 백양로 8, (북이면)","phone":"061-392-9039","openDate":"2018-03-14","longitude":126.8094154,"latitude":35.4302953},{"id":"JDQ4MTYyMiM3MSMkMSMkMCMkMDMkMzgxMzUxIzQxIyQyIyQ3IyQwMCQyNjE4MzIjODEjJDEjJDIjJDgz","name":"민중약국","category":"약국","sido":"전남","sigungu":"목포시","address":"전라남도 목포시 만호로 40, (항동)","phone":"061-244-1804","openDate":"1979-08-21","longitude":126.3847562,"latitude":34.7840016},{"id":"JDQ4MTYyMiM3MSMkMSMkMCMkMDMkMzgxMTkxIzMxIyQxIyQ3IyQ4OSQzNjE0ODEjNjEjJDEjJDgjJDgz","name":"믿음약국","category":"약국","sido":"전남","sigungu":"영광군","address":"전라남도 영광군 홍농읍 홍농로 460, (홍농읍)","phone":"061-356-3211","openDate":"2010-10-01","longitude":126.446862,"latitude":35.3953829},{"id":"JDQ4MTYyMiM3MSMkMSMkMCMkMDMkMzgxMzUxIzUxIyQxIyQxIyQ5MiQyNjEwMDIjNzEjJDEjJDgjJDgz","name":"바다약국","category":"약국","sido":"전남","sigungu":"목포시","address":"전라남도 목포시 백년대로 291, (상동)","phone":"061-280-2888","openDate":"1995-01-18","longitude":126.419575,"latitude":34.803998},{"id":"JDQ4MTYyMiM3MSMkMSMkMCMkMDMkMzgxNzAyIzQxIyQxIyQ3IyQ5MiQyNjEwMDIjNzEjJDEjJDgjJDgz","name":"바디엔약국","category":"약국","sido":"전남","sigungu":"무안군","address":"전라남도 무안군 삼향읍 남악3로 56, 연세메디타워 104호","phone":"061-285-0610","openDate":"2023-01-20","longitude":126.4606986,"latitude":34.810509},{"id":"JDQ4MTYyMiM3MSMkMSMkMCMkMDMkMzgxMTkxIzIxIyQxIyQ1IyQ3MiQyNjEyMjIjNDEjJDEjJDQjJDgz","name":"바로나온누리약국","category":"약국","sido":"전남","sigungu":"보성군","address":"전라남도 보성군 보성읍 현충로 26, (보성읍)","phone":"061-853-8203","openDate":"2016-04-29","longitude":127.0759966,"latitude":34.764744},{"id":"JDQ4MTYyMiM3MSMkMSMkMCMkMDMkMzgxNzAyIzIxIyQxIyQ1IyQxMyQzNjEyMjIjNzEjJDEjJDgjJDgz","name":"바른약국","category":"약국","sido":"전남","sigungu":"여수시","address":"전라남도 여수시 시청로 19, 우리은행 3층 (학동)","phone":"061-807-2050","openDate":"2019-02-22","longitude":127.6625782,"latitude":34.7634401},{"id":"JDQ4MTYyMiM3MSMkMSMkMCMkMDMkMzgxNzAyIzMxIyQxIyQzIyQ3OSQzNjEwMDIjNjEjJDEjJDgjJDgz","name":"바른약국","category":"약국","sido":"전남","sigungu":"광양시","address":"전라남도 광양시 사동로 187, (마동)","phone":"061-795-1058","openDate":"2018-06-07","longitude":127.6906481,"latitude":34.9548952},{"id":"JDQ4MTYyMiM3MSMkMSMkMCMkMDMkMzgxNzAyIzMxIyQxIyQzIyQwMyQyNjEwMDIjNDEjJDEjJDgjJDgz","name":"바른약국","category":"약국","sido":"전남","sigungu":"무안군","address":"전라남도 무안군 삼향읍 남악3로82번길 42, 가온빌딩 1층 101호","phone":"061-980-2511","openDate":"2019-10-31","longitude":126.4648817,"latitude":34.8127007},{"id":"JDQ4MTYyMiM3MSMkMSMkMCMkMDMkMzgxNzAyIzIxIyQxIyQ5IyQ5MiQ0NjEwMDIjNTEjJDEjJDYjJDgz","name":"바른약국","category":"약국","sido":"전남","sigungu":"순천시","address":"전라남도 순천시 조례못등길 16, 금당빌딩 1층 (조례동)","phone":"061-721-6868","openDate":"2018-01-10","longitude":127.5263787,"latitude":34.9542063},{"id":"JDQ4MTYyMiM3MSMkMSMkMCMkMDMkMzgxMzUxIzUxIyQxIyQxIyQ2MiQzNjEwMDIjODEjJDEjJDIjJDgz","name":"박약국","category":"약국","sido":"전남","sigungu":"순천시","address":"전라남도 순천시 환선로 128, (석현동)","phone":"061-752-0332","openDate":"2003-07-22","longitude":127.4875307,"latitude":34.9668423},{"id":"JDQ4MTYyMiM3MSMkMSMkMCMkMDMkMzgxNzAyIzQxIyQxIyQ3IyQwMyQ0NjE0ODEjNDEjJDEjJDgjJDgz","name":"밝은약국","category":"약국","sido":"전남","sigungu":"여수시","address":"전라남도 여수시 미평로 76, (미평동)","phone":"061-651-2277","openDate":"2023-04-27","longitude":127.7093183,"latitude":34.769703},{"id":"JDQ4MTYyMiM3MSMkMSMkMCMkMDMkMzgxMTkxIzIxIyQxIyQxIyQwMyQyNjE0ODEjODEjJDEjJDYjJDgz","name":"밝은약국","category":"약국","sido":"전남","sigungu":"순천시","address":"전라남도 순천시 이수로 317, (조례동)","phone":"061-721-5464","openDate":"2011-12-19","longitude":127.5183727,"latitude":34.9541238},{"id":"JDQ4MTYyMiM3MSMkMSMkMCMkMDMkMzgxMTkxIzMxIyQxIyQ3IyQxMyQ0NjEwMDIjNjEjJDEjJDQjJDgz","name":"밝은약국","category":"약국","sido":"전남","sigungu":"나주시","address":"전라남도 나주시 나주로 206, (성북동)","phone":"061-930-8275","openDate":"2014-06-02","longitude":126.7218832,"latitude":35.0347927},{"id":"JDQ4MTYyMiM3MSMkMSMkMCMkMDMkMzgxNzAyIzMxIyQxIyQ3IyQwMyQ0NjEwMDIjNTEjJDEjJDYjJDgz","name":"밝은약국","category":"약국","sido":"전남","sigungu":"고흥군","address":"전라남도 고흥군 고흥읍 터미널길 24, (고흥읍)","phone":"061-833-7733","openDate":"2016-08-01","longitude":127.281528,"latitude":34.6073425},{"id":"JDQ4MTYyMiM3MSMkMSMkMCMkMDMkMzgxMTkxIzIxIyQxIyQxIyQ3OSQyNjEwMDIjODEjJDEjJDYjJDgz","name":"밝은약국","category":"약국","sido":"전남","sigungu":"화순군","address":"전라남도 화순군 화순읍 자치샘로 38, (화순읍)","phone":"061-375-8281","openDate":"2011-08-10","longitude":126.9850275,"latitude":35.0615901},{"id":"JDQ4MTYyMiM3MSMkMSMkMCMkMDMkMzgxMTkxIzQxIyQxIyQ3IyQ4OSQ0NjE0ODEjNjEjJDEjJDQjJDgz","name":"배들약국","category":"약국","sido":"전남","sigungu":"순천시","address":"전라남도 순천시 서면 배들이길 17, 상가동 1층 101호 (선평배들마을아파트)","phone":"061-752-5450","openDate":"2006-10-30","longitude":127.4981214,"latitude":34.9887404},{"id":"JDQ4MTYyMiM3MSMkMSMkMCMkMDMkMzgxMTkxIzMxIyQxIyQ3IyQ3OSQ0NjE0ODEjNDEjJDEjJDgjJDgz","name":"백세가약국","category":"약국","sido":"전남","sigungu":"목포시","address":"전라남도 목포시 영산로 477, (상동)","phone":"061-279-8163","openDate":"2017-10-30","longitude":126.4163804,"latitude":34.8086365},{"id":"JDQ4MTYyMiM3MSMkMSMkMCMkMDMkMzgxMTkxIzExIyQxIyQzIyQxMyQzNjE0ODEjNjEjJDEjJDgjJDgz","name":"백세로약국","category":"약국","sido":"전남","sigungu":"함평군","address":"전라남도 함평군 함평읍 중앙길 70, (함평읍)","phone":"061-324-0330","openDate":"2011-02-01","longitude":126.5226548,"latitude":35.0630844},{"id":"JDQ4MTYyMiM3MSMkMSMkMCMkMDMkMzgxNzAyIzIxIyQxIyQ5IyQ3MiQzNjE4MzIjNTEjJDEjJDIjJDgz","name":"백세약국","category":"약국","sido":"전남","sigungu":"목포시","address":"전라남도 목포시 영산로 253, 1층 (용당동)","phone":"061-281-8274","openDate":"2017-07-10","longitude":126.3938532,"latitude":34.8034538},{"id":"JDQ4MTYyMiM3MSMkMSMkMCMkMDMkMzgxMzUxIzUxIyQxIyQxIyQ2MiQ0NjE0ODEjNTEjJDEjJDIjJDgz","name":"백수약국","category":"약국","sido":"전남","sigungu":"여수시","address":"전라남도 여수시 중앙로 9-1, (서교동)","phone":"061-641-3988","openDate":"1987-01-20","longitude":127.7287682,"latitude":34.7406351},{"id":"JDQ4MTYyMiM3MSMkMSMkMCMkMDMkMzgxNzAyIzMxIyQxIyQ3IyQ3MiQ0NjEwMDIjNDEjJDEjJDgjJDgz","name":"백약국","category":"약국","sido":"전남","sigungu":"여수시","address":"전라남도 여수시 좌수영로 25, (광무동)","phone":"061-642-2800","openDate":"2021-02-04","longitude":127.727768,"latitude":34.7427437},{"id":"JDQ4MTYyMiM3MSMkMSMkMCMkMDMkMzgxMTkxIzMxIyQxIyQzIyQ2MiQzNjE4MzIjNjEjJDEjJDgjJDgz","name":"백운약국","category":"약국","sido":"전남","sigungu":"여수시","address":"전라남도 여수시 여서1로 52, (여서동)","phone":"061-655-2999","openDate":"2004-07-07","longitude":127.7036214,"latitude":34.7521617},{"id":"JDQ4MTYyMiM3MSMkMSMkMCMkMDMkMzgxNzAyIzExIyQxIyQzIyQ4MiQzNjEyMjIjNjEjJDEjJDgjJDgz","name":"백제약국","category":"약국","sido":"전남","sigungu":"순천시","address":"전라남도 순천시 팔마로 103, (조곡동)","phone":"061-743-5999","openDate":"2012-02-14","longitude":127.4997994,"latitude":34.946037},{"id":"JDQ4MTYyMiM3MSMkMSMkMCMkMDMkMzgxOTYxIzExIyQxIyQzIyQ5OSQzNjEwMDIjODEjJDEjJDIjJDgz","name":"백제약국","category":"약국","sido":"전남","sigungu":"광양시","address":"전라남도 광양시 광양읍 순광로 689, (광양읍)","phone":"061-763-1356","openDate":"1988-12-20","longitude":127.5892636,"latitude":34.9700419},{"id":"JDQ4MTYyMiM3MSMkMSMkMCMkMDMkMzgxOTYxIzMxIyQxIyQ3IyQ3MiQ0NjEwMDIjNDEjJDEjJDgjJDgz","name":"백제약국","category":"약국","sido":"전남","sigungu":"구례군","address":"전라남도 구례군 구례읍 구례1길 48, 송원프라자상가아파트 1층 2호","phone":"061-782-5448","openDate":"2012-08-31","longitude":127.4663098,"latitude":35.2093676},{"id":"JDQ4MTYyMiM3MSMkMSMkMCMkMDMkMzgxOTYxIzQxIyQyIyQ3IyQwMCQyNjEwMDIjNzEjJDEjJDgjJDgz","name":"백제약국","category":"약국","sido":"전남","sigungu":"완도군","address":"전라남도 완도군 완도읍 개포로 154-7, (완도읍)","phone":"061-555-2460","openDate":"2009-05-19","longitude":126.7452064,"latitude":34.3191681},{"id":"JDQ4MTYyMiM3MSMkMSMkMCMkMDMkMzgxMTkxIzMxIyQxIyQ3IyQ3MiQ0NjEwMDIjNjEjJDEjJDgjJDgz","name":"백제온누리약국","category":"약국","sido":"전남","sigungu":"고흥군","address":"전라남도 고흥군 도양읍 녹동남문길 8-27, (도양읍)","phone":"061-843-0031","openDate":"2013-05-13","longitude":127.13516,"latitude":34.5277484},{"id":"JDQ4MTYyMiM3MSMkMSMkMCMkMDMkMzgxMzUxIzUxIyQxIyQ1IyQxMyQzNjEwMDIjNDEjJDEjJDgjJDgz","name":"백화당약국","category":"약국","sido":"전남","sigungu":"고흥군","address":"전라남도 고흥군 고흥읍 봉황길 29, (고흥읍)","phone":"061-832-0404","openDate":"1980-10-30","longitude":127.2849526,"latitude":34.6082748},{"id":"JDQ4MTYyMiM3MSMkMSMkMCMkMDMkMzgxNzAyIzIxIyQxIyQ5IyQ3OSQyNjE0ODEjODEjJDEjJDYjJDgz","name":"벌교365약국","category":"약국","sido":"전남","sigungu":"보성군","address":"전라남도 보성군 벌교읍 채동선로 222-1, (벌교읍)","phone":"061-858-0566","openDate":"2025-04-17","longitude":127.3442677,"latitude":34.8422693},{"id":"JDQ4MTYyMiM3MSMkMSMkMCMkMDMkMzgxNzAyIzMxIyQxIyQzIyQ4OSQyNjE4MzIjNzEjJDEjJDgjJDgz","name":"벌교역약국","category":"약국","sido":"전남","sigungu":"보성군","address":"전라남도 보성군 벌교읍 채동선로 225, (벌교읍)","phone":"061-857-8977","openDate":"2020-10-26","longitude":127.3445661,"latitude":34.8426375},{"id":"JDQ4MTYyMiM3MSMkMSMkMCMkMDMkMzgxNzAyIzUxIyQxIyQxIyQ5OSQyNjE4MzIjNTEjJDEjJDYjJDgz","name":"벌교우리약국","category":"약국","sido":"전남","sigungu":"보성군","address":"전라남도 보성군 벌교읍 남하로 8, (벌교읍)","phone":"061-858-5666","openDate":"2014-02-28","longitude":127.3446305,"latitude":34.8343547},{"id":"JDQ4MTYyMiM3MSMkMSMkMCMkMDMkMzgxMTkxIzMxIyQxIyQzIyQ5MiQzNjE0ODEjNTEjJDEjJDYjJDgz","name":"벌교희망약국","category":"약국","sido":"전남","sigungu":"보성군","address":"전라남도 보성군 벌교읍 채동선로 232, (벌교읍)","phone":"061-857-7532","openDate":"2013-07-29","longitude":127.3450849,"latitude":34.8427911},{"id":"JDQ4MTYyMiM3MSMkMSMkMCMkMDMkMzgxMTkxIzMxIyQxIyQzIyQ3MiQyNjEyMjIjNTEjJDEjJDIjJDgz","name":"별량우리들약국","category":"약국","sido":"전남","sigungu":"순천시","address":"전라남도 순천시 별량면 별량길 123, (별량면)","phone":"061-742-0970","openDate":"2004-08-13","longitude":127.451026,"latitude":34.8711925},{"id":"JDQ4MTYyMiM3MSMkMSMkMCMkMDMkMzgxNzAyIzUxIyQxIyQxIyQ3OSQzNjEwMDIjNjEjJDEjJDQjJDgz","name":"병영약국","category":"약국","sido":"전남","sigungu":"강진군","address":"전라남도 강진군 병영면 병영성로 117, (병영면)","phone":"","openDate":"2009-05-01","longitude":126.8156671,"latitude":34.7149029},{"id":"JDQ4MTYyMiM3MSMkMSMkMCMkMDMkMzgxMzUxIzMxIyQxIyQ3IyQ5MiQyNjE0ODEjNjEjJDEjJDgjJDgz","name":"보건당약국","category":"약국","sido":"전남","sigungu":"나주시","address":"전라남도 나주시 남교1길 1, (이창동, 보건당약국)","phone":"061-333-3350","openDate":"2013-04-30","longitude":126.7145457,"latitude":34.9959541},{"id":"JDQ4MTYyMiM3MSMkMSMkMCMkMDMkMzgxOTYxIzExIyQyIyQzIyQwMCQ0NjE0ODEjNDEjJDEjJDQjJDgz","name":"보건약국","category":"약국","sido":"전남","sigungu":"곡성군","address":"전라남도 곡성군 곡성읍 중앙로 89, (곡성읍)","phone":"061-363-2580","openDate":"2019-06-18","longitude":127.2926669,"latitude":35.2801822},{"id":"JDQ4MTYyMiM3MSMkMSMkMCMkMDMkMzgxMTkxIzUxIyQxIyQxIyQ5OSQyNjE4MzIjODEjJDEjJDIjJDgz","name":"보건약국","category":"약국","sido":"전남","sigungu":"해남군","address":"전라남도 해남군 해남읍 해남로 39, 고기나라","phone":"061-536-6055","openDate":"2020-07-30","longitude":126.6114624,"latitude":34.5712951},{"id":"JDQ4MTYyMiM3MSMkMSMkMCMkMDMkMzgxNzAyIzQxIyQxIyQ3IyQ5MiQyNjE4MzIjNTEjJDEjJDYjJDgz","name":"보라약국","category":"약국","sido":"전남","sigungu":"목포시","address":"전라남도 목포시 백년대로 258, 1층 (상동)","phone":"061-285-2637","openDate":"2023-02-01","longitude":126.4167393,"latitude":34.8016464},{"id":"JDQ4MTYyMiM3MSMkMSMkMCMkMDMkMzgxOTYxIzIxIyQxIyQ5IyQwMyQyNjEwMDIjNjEjJDEjJDAjJDgz","name":"보람약국","category":"약국","sido":"전남","sigungu":"영암군","address":"전라남도 영암군 삼호읍 대불주거로 98, (삼호읍)","phone":"061-244-0649","openDate":"2004-06-07","longitude":126.4621838,"latitude":34.7494148},{"id":"JDQ4MTYyMiM3MSMkMSMkMCMkMDMkMzgxNzAyIzQxIyQxIyQ3IyQwMyQzNjEwMDIjNzEjJDEjJDgjJDgz","name":"보리약국","category":"약국","sido":"전남","sigungu":"순천시","address":"전라남도 순천시 중앙5길 5, 보리약국 (장천동)","phone":"061-743-3005","openDate":"2023-04-25","longitude":127.4845414,"latitude":34.9520147},{"id":"JDQ4MTYyMiM3MSMkMSMkMCMkMDMkMzgxNzAyIzExIyQxIyQzIyQ2MiQzNjE4MzIjNDEjJDEjJDQjJDgz","name":"보림약국","category":"약국","sido":"전남","sigungu":"여수시","address":"전라남도 여수시 화양면 나진길 13-1, 1층","phone":"061-685-8508","openDate":"2011-09-06","longitude":127.6138826,"latitude":34.7076998},{"id":"JDQ4MTYyMiM3MSMkMSMkMCMkMDMkMzgxOTYxIzUxIyQyIyQxIyQwMCQyNjE0ODEjNjEjJDEjJDQjJDgz","name":"보문약국","category":"약국","sido":"전남","sigungu":"순천시","address":"전라남도 순천시 황전면 괴목길 87, (황전면)","phone":"061-754-9798","openDate":"1996-04-29","longitude":127.4296268,"latitude":35.103123},{"id":"JDQ4MTYyMiM3MSMkMSMkMCMkMDMkMzgxMTkxIzUxIyQxIyQ1IyQwMyQ0NjEwMDIjNzEjJDEjJDgjJDgz","name":"보배약국","category":"약국","sido":"전남","sigungu":"광양시","address":"전라남도 광양시 공영로 77, 1층 (중동)","phone":"061-795-0077","openDate":"2010-11-09","longitude":127.6977724,"latitude":34.9360143},{"id":"JDQ4MTYyMiM3MSMkMSMkMCMkMDMkMzgxMTkxIzIxIyQyIyQ5IyQwMCQ0NjE0ODEjNDEjJDEjJDgjJDgz","name":"보성약국","category":"약국","sido":"전남","sigungu":"보성군","address":"전라남도 보성군 보성읍 현충로 92, (보성읍)","phone":"061-852-3989","openDate":"2003-12-30","longitude":127.081907,"latitude":34.7675097},{"id":"JDQ4MTYyMiM3MSMkMSMkMCMkMDMkMzgxMTkxIzUxIyQxIyQ1IyQ2MiQzNjE4MzIjNDEjJDEjJDgjJDgz","name":"복음사랑약국","category":"약국","sido":"전남","sigungu":"목포시","address":"전라남도 목포시 백년대로297번길 8, (상동)","phone":"061-281-6900","openDate":"2016-07-13","longitude":126.4199034,"latitude":34.804531},{"id":"JDQ4MTYyMiM3MSMkMSMkMCMkMDMkMzgxNzAyIzQxIyQxIyQ3IyQxMyQyNjEyMjIjNDEjJDEjJDQjJDgz","name":"복음약국","category":"약국","sido":"전남","sigungu":"영광군","address":"전라남도 영광군 영광읍 신남로 270, 1층","phone":"061-353-9977","openDate":"2019-05-20","longitude":126.5110568,"latitude":35.2745427},{"id":"JDQ4MTYyMiM3MSMkMSMkMCMkMDMkMzgxNzAyIzIxIyQxIyQ5IyQ3OSQyNjEwMDIjNzEjJDEjJDgjJDgz","name":"봄봄약국","category":"약국","sido":"전남","sigungu":"순천시","address":"전라남도 순천시 봉화3길 14-28, 1층 105호 (조례동)","phone":"061-725-1006","openDate":"2020-05-29","longitude":127.5210363,"latitude":34.9637664},{"id":"JDQ4MTYyMiM3MSMkMSMkMCMkMDMkMzgxNzAyIzUxIyQxIyQxIyQ2MiQyNjE0ODEjNTEjJDEjJDYjJDgz","name":"봄빛한약국","category":"약국","sido":"전남","sigungu":"영광군","address":"전라남도 영광군 영광읍 중앙로 180, 2층","phone":"","openDate":"2024-06-27","longitude":126.5120146,"latitude":35.2749478},{"id":"JDQ4MTYyMiM3MSMkMSMkMCMkMDMkMzgxNzAyIzMxIyQyIyQzIyQwMCQyNjEwMDIjNjEjJDEjJDQjJDgz","name":"봉계약국","category":"약국","sido":"전남","sigungu":"여수시","address":"전라남도 여수시 좌수영로 676, (봉계동)","phone":"061-684-1616","openDate":"2018-10-30","longitude":127.6944057,"latitude":34.7837099},{"id":"JDQ4MTYyMiM3MSMkMSMkMCMkMDMkMzgxMTkxIzUxIyQyIyQxIyQwMCQyNjEwMDIjODEjJDEjJDYjJDgz","name":"봉황 종로 약국","category":"약국","sido":"전남","sigungu":"나주시","address":"전라남도 나주시 봉황면 봉황로 767, (봉황면)","phone":"061-335-5252","openDate":"2018-01-19","longitude":126.7855353,"latitude":34.9588331},{"id":"JDQ4MTYyMiM3MSMkMSMkMCMkMDMkMzgxOTYxIzMxIyQxIyQ3IyQ5OSQyNjEwMDIjNTEjJDEjJDYjJDgz","name":"부부약국","category":"약국","sido":"전남","sigungu":"구례군","address":"전라남도 구례군 구례읍 북문길 4, (구례읍)","phone":"061-782-2041","openDate":"2013-12-02","longitude":127.4650942,"latitude":35.2110222},{"id":"JDQ4MTYyMiM3MSMkMSMkMCMkMDMkMzgxMTkxIzQxIyQxIyQ3IyQ3MiQyNjE4MzIjNTEjJDEjJDYjJDgz","name":"부부약국","category":"약국","sido":"전남","sigungu":"고흥군","address":"전라남도 고흥군 고흥읍 고흥로 1754, (고흥읍)","phone":"061-835-7344","openDate":"2009-06-22","longitude":127.28595,"latitude":34.607384},{"id":"JDQ4MTYyMiM3MSMkMSMkMCMkMDMkMzgxOTYxIzMxIyQyIyQ3IyQwMCQzNjEyMjIjNDEjJDEjJDgjJDgz","name":"부부약국","category":"약국","sido":"전남","sigungu":"여수시","address":"전라남도 여수시 중앙로 61-1, (교동)","phone":"061-665-2468","openDate":"2001-02-10","longitude":127.7343953,"latitude":34.7403151},{"id":"JDQ4MTYyMiM3MSMkMSMkMCMkMDMkMzgxOTYxIzExIyQxIyQ3IyQwMyQ0NjEwMDIjNDEjJDEjJDgjJDgz","name":"부부약국","category":"약국","sido":"전남","sigungu":"진도군","address":"전라남도 진도군 고군면 지수길 51-5, (고군면)","phone":"061-543-1157","openDate":"1979-04-21","longitude":126.3441292,"latitude":34.4899547},{"id":"JDQ4MTYyMiM3MSMkMSMkMCMkMDMkMzgxNzAyIzMxIyQyIyQ3IyQwMCQyNjEyMjIjNDEjJDEjJDQjJDgz","name":"부부약국","category":"약국","sido":"전남","sigungu":"영암군","address":"전라남도 영암군 영암읍 오리정길 2, (영암읍)","phone":"061-472-5555","openDate":"2020-08-12","longitude":126.7010113,"latitude":34.7950494},{"id":"JDQ4MTYyMiM3MSMkMSMkMCMkMDMkMzgxNzAyIzIxIyQxIyQ1IyQwMyQyNjE0ODEjNDEjJDEjJDgjJDgz","name":"부주약국","category":"약국","sido":"전남","sigungu":"목포시","address":"전라남도 목포시 남악1로52번가길 3, (옥암동)","phone":"283-3021","openDate":"2017-04-26","longitude":126.4480847,"latitude":34.8104925},{"id":"JDQ4MTYyMiM3MSMkMSMkMCMkMDMkMzgxMTkxIzIxIyQxIyQ1IyQ3OSQyNjE0ODEjNzEjJDEjJDgjJDgz","name":"비전약국","category":"약국","sido":"전남","sigungu":"목포시","address":"전라남도 목포시 영산로 246, (산정동)","phone":"061-279-5633","openDate":"2000-06-12","longitude":126.3933044,"latitude":34.8026086},{"id":"JDQ4MTYyMiM3MSMkMSMkMCMkMDMkMzgxMzUxIzIxIyQxIyQ5IyQ4MiQzNjE4MzIjNTEjJDEjJDYjJDgz","name":"비타민약국","category":"약국","sido":"전남","sigungu":"순천시","address":"전라남도 순천시 백연길 98, (조례동)","phone":"061-721-6700","openDate":"2008-01-14","longitude":127.5324638,"latitude":34.9535678},{"id":"JDQ4MTYyMiM3MSMkMSMkMCMkMDMkMzgxNzAyIzExIyQxIyQ3IyQ4MiQ0NjE0ODEjODEjJDEjJDYjJDgz","name":"비타민약국","category":"약국","sido":"전남","sigungu":"목포시","address":"전라남도 목포시 하당로 278, (옥암동)","phone":"061-284-7571","openDate":"2014-10-22","longitude":126.426418,"latitude":34.8110715},{"id":"JDQ4MTYyMiM3MSMkMSMkMCMkMDMkMzgxNzAyIzIxIyQxIyQxIyQ4OSQzNjE0ODEjNjEjJDEjJDgjJDgz","name":"비타민약국","category":"약국","sido":"전남","sigungu":"여수시","address":"전라남도 여수시 신월로 655, 상가A동 103층 1호 (국동, 서희스타힐스)","phone":"061-642-7755","openDate":"2014-03-24","longitude":127.7159916,"latitude":34.7308082},{"id":"JDQ4MTYyMiM3MSMkMSMkMCMkMDMkMzgxNzAyIzIxIyQxIyQ1IyQ3OSQ0NjE0ODEjODEjJDEjJDIjJDgz","name":"빛가람약국","category":"약국","sido":"전남","sigungu":"나주시","address":"전라남도 나주시 빛가람로 685, 403호 (빛가람동)","phone":"061-331-2974","openDate":"2015-11-04","longitude":126.7866636,"latitude":35.0215185},{"id":"JDQ4MTYyMiM3MSMkMSMkMCMkMDMkMzgxNzAyIzIxIyQxIyQxIyQ3MiQyNjEwMDIjNDEjJDEjJDgjJDgz","name":"빛가람포도약국","category":"약국","sido":"전남","sigungu":"나주시","address":"전라남도 나주시 중야2길 29, 103,104,105호 (빛가람동)","phone":"061-820-8484","openDate":"2019-01-28","longitude":126.784645,"latitude":35.0171335},{"id":"JDQ4MTYyMiM3MSMkMSMkMCMkMDMkMzgxNzAyIzIxIyQyIyQ1IyQwMCQ0NjE0ODEjNDEjJDEjJDQjJDgz","name":"뿌리깊은한약국","category":"약국","sido":"전남","sigungu":"순천시","address":"전라남도 순천시 연동남길 21, (조례동)","phone":"061-723-4075","openDate":"2005-07-13","longitude":127.5339847,"latitude":34.9564601},{"id":"JDQ4MTYyMiM3MSMkMSMkMCMkMDMkMzgxNzAyIzQxIyQxIyQ3IyQ2MiQzNjEyMjIjNjEjJDEjJDgjJDgz","name":"사거리약국","category":"약국","sido":"전남","sigungu":"진도군","address":"전라남도 진도군 임회면 십일시길 39, 1호","phone":"061-542-3338","openDate":"2022-07-25","longitude":126.1922659,"latitude":34.4091998},{"id":"JDQ4MTYyMiM3MSMkMSMkMCMkMDMkMzgxNzAyIzIxIyQxIyQxIyQwMyQyNjEyMjIjNDEjJDEjJDgjJDgz","name":"사거리약국","category":"약국","sido":"전남","sigungu":"함평군","address":"전라남도 함평군 학교면 함영로 501-3, (학교면)","phone":"061-323-6018","openDate":"2001-03-10","longitude":126.5326038,"latitude":35.0219491},{"id":"JDQ4MTYyMiM3MSMkMSMkMCMkMDMkMzgxOTYxIzUxIyQxIyQ1IyQxMyQyNjE0ODEjNjEjJDEjJDQjJDgz","name":"사라약국","category":"약국","sido":"전남","sigungu":"나주시","address":"전라남도 나주시 빛가람로 740, 107호 (빛가람동)","phone":"061-337-3920","openDate":"2018-07-13","longitude":126.7927413,"latitude":35.0208476},{"id":"JDQ4MTYyMiM3MSMkMSMkMCMkMDMkMzgxNzAyIzQxIyQxIyQ3IyQwMyQyNjEyMjIjNTEjJDEjJDIjJDgz","name":"사랑약국","category":"약국","sido":"전남","sigungu":"순천시","address":"전라남도 순천시 해룡면 신대4길 4-25, 1층","phone":"061-752-8275","openDate":"2022-07-29","longitude":127.5520698,"latitude":34.9338217},{"id":"JDQ4MTYyMiM3MSMkMSMkMCMkMDMkMzgxOTYxIzUxIyQxIyQxIyQ5MiQzNjEyMjIjNTEjJDEjJDYjJDgz","name":"사랑약국","category":"약국","sido":"전남","sigungu":"목포시","address":"전라남도 목포시 고하대로 795-1, (연산동)","phone":"061-279-5883","openDate":"2018-03-02","longitude":126.3797236,"latitude":34.8170603},{"id":"JDQ4MTYyMiM3MSMkMSMkMCMkMDMkMzgxMTkxIzIxIyQxIyQxIyQ5OSQyNjE4MzIjNDEjJDEjJDQjJDgz","name":"사랑약국","category":"약국","sido":"전남","sigungu":"무안군","address":"전라남도 무안군 해제면 현해로 1712, (해제면)","phone":"061-453-1295","openDate":"2000-10-12","longitude":126.292374,"latitude":35.1107007},{"id":"JDQ4MTYyMiM3MSMkMSMkMCMkMDMkMzgxNzAyIzMxIyQxIyQzIyQxMyQyNjEwMDIjODEjJDEjJDYjJDgz","name":"사랑약국","category":"약국","sido":"전남","sigungu":"여수시","address":"전라남도 여수시 시청로 42, 진남빌딩 1층 (학동)","phone":"061-685-1000","openDate":"2019-12-20","longitude":127.6631719,"latitude":34.7654529},{"id":"JDQ4MTYyMiM3MSMkMSMkMCMkMDMkMzgxOTYxIzIxIyQxIyQxIyQ2MiQyNjE4MzIjODEjJDEjJDYjJDgz","name":"사평약국","category":"약국","sido":"전남","sigungu":"화순군","address":"전라남도 화순군 남면 사평길 19, (사평면)","phone":"061-372-6015","openDate":"1970-04-30","longitude":127.0980628,"latitude":35.0057029},{"id":"JDQ4MTYyMiM3MSMkMSMkMCMkMDMkMzgxMTkxIzIxIyQxIyQxIyQxMyQzNjEwMDIjNzEjJDEjJDgjJDgz","name":"산이약국","category":"약국","sido":"전남","sigungu":"해남군","address":"전라남도 해남군 산이면 비석길 93, 93","phone":"061-534-0042","openDate":"2001-06-12","longitude":126.4482879,"latitude":34.6439121},{"id":"JDQ4MTYyMiM3MSMkMSMkMCMkMDMkMzgxMTkxIzExIyQxIyQzIyQ2MiQzNjEyMjIjNjEjJDEjJDgjJDgz","name":"산정온누리약국","category":"약국","sido":"전남","sigungu":"해남군","address":"전라남도 해남군 송지면 산정1길 73, 산정온누리약국 1층","phone":"536-7582","openDate":"2022-07-07","longitude":126.5204842,"latitude":34.3701828},{"id":"JDQ4MTYyMiM3MSMkMSMkMCMkMDMkMzgxNzAyIzUxIyQxIyQxIyQ3MiQyNjE4MzIjNjEjJDEjJDQjJDgz","name":"삼성약국","category":"약국","sido":"전남","sigungu":"화순군","address":"전라남도 화순군 능주면 죽수길 94, (능주면)","phone":"061-372-8041","openDate":"2024-10-01","longitude":126.9583765,"latitude":34.991536},{"id":"JDQ4MTYyMiM3MSMkMSMkMCMkMDMkMzgxMzUxIzQxIyQxIyQ3IyQwMyQ0NjE0ODEjNjEjJDEjJDQjJDgz","name":"삼성약국","category":"약국","sido":"전남","sigungu":"목포시","address":"전라남도 목포시 자유로 41, (산정동)","phone":"061-276-3993","openDate":"1988-04-30","longitude":126.394209,"latitude":34.7937609},{"id":"JDQ4MTYyMiM3MSMkMSMkMCMkMDMkMzgxMTkxIzMxIyQxIyQ3IyQ4MiQyNjE0ODEjNDEjJDEjJDQjJDgz","name":"삼성약국","category":"약국","sido":"전남","sigungu":"보성군","address":"전라남도 보성군 벌교읍 홍암로 21, (벌교읍)","phone":"061-858-3080","openDate":"2006-01-02","longitude":127.3470683,"latitude":34.8434695},{"id":"JDQ4MTYyMiM3MSMkMSMkMCMkMDMkMzgxOTYxIzMxIyQxIyQ3IyQwMyQ0NjE0ODEjNjEjJDEjJDAjJDgz","name":"삼성약국","category":"약국","sido":"전남","sigungu":"여수시","address":"전라남도 여수시 신월로 758, (봉산동)","phone":"061-643-3200","openDate":"1994-09-23","longitude":127.7227343,"latitude":34.7373226},{"id":"JDQ4MTYyMiM3MSMkMSMkMCMkMDMkMzgxNzAyIzExIyQxIyQ3IyQ4OSQyNjE0ODEjNzEjJDEjJDgjJDgz","name":"삼일약국","category":"약국","sido":"전남","sigungu":"여수시","address":"전라남도 여수시 중앙로 27, 한화생명빌딩 (충무동)","phone":"061-663-3269","openDate":"2012-08-21","longitude":127.7306851,"latitude":34.7405193},{"id":"JDQ4MTYyMiM3MSMkMSMkMCMkMDMkMzgxMzUxIzIxIyQxIyQxIyQ3OSQ0NjE0ODEjNjEjJDEjJDQjJDgz","name":"삼일온누리약국","category":"약국","sido":"전남","sigungu":"목포시","address":"전라남도 목포시 삼학로 20, (호남동)","phone":"061-276-3131","openDate":"2016-07-11","longitude":126.3878538,"latitude":34.7900636},{"id":"JDQ4MTYyMiM3MSMkMSMkMCMkMDMkMzgxMzUxIzQxIyQxIyQ3IyQ5MiQyNjEwMDIjNDEjJDEjJDgjJDgz","name":"삼호약국","category":"약국","sido":"전남","sigungu":"영암군","address":"전라남도 영암군 삼호읍 삼호중앙로 164, (삼호읍)","phone":"061-464-3570","openDate":"2006-12-26","longitude":126.4687232,"latitude":34.7452899},{"id":"JDQ4MTYyMiM3MSMkMSMkMCMkMDMkMzgxNzAyIzIxIyQxIyQ1IyQxMyQzNjE4MzIjNjEjJDEjJDQjJDgz","name":"상아약국","category":"약국","sido":"전남","sigungu":"곡성군","address":"전라남도 곡성군 옥과면 대학로 136, (옥과면)","phone":"061-362-5056","openDate":"2016-06-21","longitude":127.1345604,"latitude":35.2756475},{"id":"JDQ4MTYyMiM3MSMkMSMkMCMkMDMkMzgxNzAyIzExIyQyIyQ3IyQwMCQ0NjE0ODEjNzEjJDEjJDgjJDgz","name":"새 세기 동창종로약국","category":"약국","sido":"전남","sigungu":"나주시","address":"전라남도 나주시 세지면 세남로 3, (동창종로약국)","phone":"061-334-1688","openDate":"2013-02-15","longitude":126.7481448,"latitude":34.9214301},{"id":"JDQ4MTYyMiM3MSMkMSMkMCMkMDMkMzgxNzAyIzExIyQxIyQ3IyQxMyQzNjEwMDIjNjEjJDEjJDgjJDgz","name":"새공산약국","category":"약국","sido":"전남","sigungu":"나주시","address":"전라남도 나주시 공산면 공산로 124-7, (공산면)","phone":"061-335-8494","openDate":"2011-05-30","longitude":126.6087158,"latitude":34.9428665},{"id":"JDQ4MTYyMiM3MSMkMSMkMCMkMDMkMzgxNzAyIzUxIyQxIyQxIyQ2MiQyNjEwMDIjNDEjJDEjJDgjJDgz","name":"새로운약국","category":"약국","sido":"전남","sigungu":"순천시","address":"전라남도 순천시 백강로 375-11, (조례동)","phone":"061-723-7572","openDate":"2014-10-17","longitude":127.5204823,"latitude":34.9665355},{"id":"JDQ4MTYyMiM3MSMkMSMkMCMkMDMkMzgxMTkxIzQxIyQxIyQ3IyQ4MiQyNjEyMjIjNTEjJDEjJDIjJDgz","name":"새롬약국","category":"약국","sido":"전남","sigungu":"영광군","address":"전라남도 영광군 영광읍 옥당로 150, (영광읍)","phone":"061-351-0656","openDate":"2007-04-23","longitude":126.5016555,"latitude":35.2754621},{"id":"JDQ4MTYyMiM3MSMkMSMkMCMkMDMkMzgxNzAyIzIxIyQxIyQ5IyQ5OSQyNjE0ODEjNTEjJDEjJDYjJDgz","name":"새물약국","category":"약국","sido":"전남","sigungu":"나주시","address":"전라남도 나주시 이창1길 9, 1층 (이창동)","phone":"061-334-4355","openDate":"2016-12-19","longitude":126.7131078,"latitude":34.9955108},{"id":"JDQ4MTYyMiM3MSMkMSMkMCMkMDMkMzgxMTkxIzMxIyQyIyQzIyQwMCQyNjEyMjIjODEjJDEjJDIjJDgz","name":"새봄약국","category":"약국","sido":"전남","sigungu":"여수시","address":"전라남도 여수시 문수로 114, (여서동)","phone":"061-655-2311","openDate":"2018-06-08","longitude":127.7072135,"latitude":34.7549811},{"id":"JDQ4MTYyMiM3MSMkMSMkMCMkMDMkMzgxNzAyIzUxIyQxIyQxIyQwMyQzNjE0ODEjNjEjJDEjJDQjJDgz","name":"새서울약국","category":"약국","sido":"전남","sigungu":"영암군","address":"전라남도 영암군 삼호읍 대불주거로 34, 1층 101호","phone":"061-461-2133","openDate":"2025-04-21","longitude":126.467733,"latitude":34.7453722},{"id":"JDQ4MTYyMiM3MSMkMSMkMCMkMDMkMzgxOTYxIzMxIyQxIyQ3IyQ2MiQ0NjE0ODEjNjEjJDEjJDQjJDgz","name":"새서울약국","category":"약국","sido":"전남","sigungu":"화순군","address":"전라남도 화순군 춘양면 춘양로 94-1, (춘양면)","phone":"061-375-6323","openDate":"2008-12-03","longitude":126.9610256,"latitude":34.9509537},{"id":"JDQ4MTYyMiM3MSMkMSMkMCMkMDMkMzgxNzAyIzQxIyQyIyQ3IyQwMCQyNjE4MzIjNjEjJDEjJDAjJDgz","name":"새서울약국","category":"약국","sido":"전남","sigungu":"나주시","address":"전라남도 나주시 금천면 금영로 942, (금천면)","phone":"061-331-7116","openDate":"2018-10-01","longitude":126.7539528,"latitude":35.0314878},{"id":"JDQ4MTYyMiM3MSMkMSMkMCMkMDMkMzgxNzAyIzIxIyQxIyQ5IyQxMyQ0NjEwMDIjODEjJDEjJDIjJDgz","name":"새싹약국","category":"약국","sido":"전남","sigungu":"여수시","address":"전라남도 여수시 망마로 11, (학동)","phone":"070-4108-2580","openDate":"2018-05-14","longitude":127.6647174,"latitude":34.7608555},{"id":"JDQ4MTYyMiM3MSMkMSMkMCMkMDMkMzgxMTkxIzExIyQxIyQ3IyQ4MiQyNjE4MzIjNTEjJDEjJDIjJDgz","name":"새애양약국","category":"약국","sido":"전남","sigungu":"여수시","address":"전라남도 여수시 율촌면 구암1길 53-3, 53","phone":"061-683-7781","openDate":"2000-08-01","longitude":127.6229259,"latitude":34.8436089},{"id":"JDQ4MTYyMiM3MSMkMSMkMCMkMDMkMzgxOTYxIzUxIyQxIyQ1IyQ5MiQyNjE0ODEjNDEjJDEjJDgjJDgz","name":"새열린온누리약국","category":"약국","sido":"전남","sigungu":"무안군","address":"전라남도 무안군 무안읍 면성1길 113, (무안읍)","phone":"061-452-8537","openDate":"2005-12-12","longitude":126.4740983,"latitude":34.9879067},{"id":"JDQ4MTYyMiM3MSMkMSMkMCMkMDMkMzgxMTkxIzMxIyQxIyQzIyQwMyQ0NjEwMDIjNDEjJDEjJDgjJDgz","name":"새옥곡약국","category":"약국","sido":"전남","sigungu":"광양시","address":"전라남도 광양시 옥곡면 옥진로 675, (옥곡면)","phone":"061-772-5575","openDate":"2005-03-07","longitude":127.7010064,"latitude":34.9888428},{"id":"JDQ4MTYyMiM3MSMkMSMkMCMkMDMkMzgxNzAyIzMxIyQxIyQ3IyQ3MiQzNjE0ODEjNDEjJDEjJDgjJDgz","name":"새장흥약국","category":"약국","sido":"전남","sigungu":"장흥군","address":"전라남도 장흥군 장흥읍 중앙로1길 7-2, 새장흥약국","phone":"061-863-0690","openDate":"2013-06-28","longitude":126.909576,"latitude":34.6774927},{"id":"JDQ4MTYyMiM3MSMkMSMkMCMkMDMkMzgxOTYxIzExIyQxIyQ3IyQ5MiQ0NjE0ODEjNjEjJDEjJDQjJDgz","name":"새종로약국","category":"약국","sido":"전남","sigungu":"영광군","address":"전라남도 영광군 영광읍 신남로 191-1, (영광읍)","phone":"061-353-0300","openDate":"2007-08-01","longitude":126.5029392,"latitude":35.276136},{"id":"JDQ4MTYyMiM3MSMkMSMkMCMkMDMkMzgxNzAyIzExIyQxIyQzIyQwMyQ0NjEwMDIjNjEjJDEjJDQjJDgz","name":"새중앙약국","category":"약국","sido":"전남","sigungu":"화순군","address":"전라남도 화순군 화순읍 칠충로 103, (화순읍)","phone":"061-372-7580","openDate":"2010-05-18","longitude":126.9812718,"latitude":35.058489},{"id":"JDQ4MTYyMiM3MSMkMSMkMCMkMDMkMzgxOTYxIzIxIyQyIyQxIyQwMCQyNjE0ODEjNzEjJDEjJDgjJDgz","name":"새천일약국","category":"약국","sido":"전남","sigungu":"여수시","address":"전라남도 여수시 중앙로 72-20, (중앙동)","phone":"061-665-1001","openDate":"2013-04-26","longitude":127.735268,"latitude":34.7397462},{"id":"JDQ4MTYyMiM3MSMkMSMkMCMkMDMkMzgxOTYxIzUxIyQxIyQ1IyQ4OSQyNjEwMDIjNjEjJDEjJDQjJDgz","name":"새하나약국","category":"약국","sido":"전남","sigungu":"순천시","address":"전라남도 순천시 팔마로 217, 1층 (덕암동)","phone":"061-745-3311","openDate":"2018-05-18","longitude":127.5099473,"latitude":34.9403325},{"id":"JDQ4MTYyMiM3MSMkMSMkMCMkMDMkMzgxMTkxIzIxIyQxIyQxIyQxMyQzNjE0ODEjODEjJDEjJDYjJDgz","name":"새한약국","category":"약국","sido":"전남","sigungu":"보성군","address":"전라남도 보성군 미력면 가평길 36-19, (미력면)","phone":"061-853-2279","openDate":"2004-12-13","longitude":127.1037932,"latitude":34.7751149},{"id":"JDQ4MTYyMiM3MSMkMSMkMCMkMDMkMzgxMTkxIzUxIyQxIyQ1IyQ3MiQyNjEyMjIjODEjJDEjJDIjJDgz","name":"새희망약국","category":"약국","sido":"전남","sigungu":"담양군","address":"전라남도 담양군 담양읍 죽녹원로 51, (담양읍)","phone":"061-381-1790","openDate":"2010-04-19","longitude":126.9849266,"latitude":35.319545},{"id":"JDQ4MTYyMiM3MSMkMSMkMCMkMDMkMzgxNzAyIzIxIyQxIyQ5IyQ4OSQzNjEyMjIjNjEjJDEjJDQjJDgz","name":"새희망한약국","category":"약국","sido":"전남","sigungu":"광양시","address":"전라남도 광양시 중동로 49, 1층 (중동)","phone":"061-794-8875","openDate":"2016-11-23","longitude":127.6940642,"latitude":34.9414105},{"id":"JDQ4MTYyMiM3MSMkMSMkMCMkMDMkMzgxMzUxIzQxIyQxIyQ3IyQ5MiQ0NjEwMDIjNjEjJDEjJDgjJDgz","name":"샘물약국","category":"약국","sido":"전남","sigungu":"해남군","address":"전라남도 해남군 해남읍 중앙2로 127, (해남읍)","phone":"061-536-0357","openDate":"2002-09-26","longitude":126.5955612,"latitude":34.5669021},{"id":"JDQ4MTYyMiM3MSMkMSMkMCMkMDMkMzgxMTkxIzQxIyQyIyQ3IyQwMCQzNjE4MzIjNDEjJDEjJDgjJDgz","name":"샘터약국","category":"약국","sido":"전남","sigungu":"목포시","address":"전라남도 목포시 영산로 304-1, (용당동)","phone":"061-279-6169","openDate":"2013-08-28","longitude":126.398977,"latitude":34.8052243},